     3.04           OBSERVATION DATA    M: Mixed            RINEX VERSION / TYPE
RTKCONV demo5(IPNL@P                    20250117 083121 UTC PGM / RUN BY / DATE 
format: u-blox UBX                                          COMMENT             
log: C:\Users\IPNL_Experiment\Desktop\zekun\0117\COM16___384COMMENT             
                                                            MARKER NAME         
                                                            MARKER NUMBER       
                                                            MARKER TYPE         
                                                            OBSERVER / AGENCY   
                                                            REC # / TYPE / VERS 
                                                            ANT # / TYPE        
        0.0000        0.0000        0.0000                  APPROX POSITION XYZ 
        0.0000        0.0000        0.0000                  ANTENNA: DELTA H/E/N
G    8 C1C L1C D1C S1C C5X L5X D5X S5X                      SYS / # / OBS TYPES 
E    8 C1X L1X D1X S1X C5X L5X D5X S5X                      SYS / # / OBS TYPES 
C    8 C1X L1X D1X S1X C5X L5X D5X S5X                      SYS / # / OBS TYPES 
  2025    01    17    07    40   35.0030000     GPS         TIME OF FIRST OBS   
  2025    01    17    08    10   02.0030000     GPS         TIME OF LAST OBS    
G L1C                                                       SYS / PHASE SHIFT   
G L5X  0.00000                                              SYS / PHASE SHIFT   
E L1X  0.00000                                              SYS / PHASE SHIFT   
E L5X  0.00000                                              SYS / PHASE SHIFT   
C L1X  0.00000                                              SYS / PHASE SHIFT   
C L5X  0.00000                                              SYS / PHASE SHIFT   
  0                                                         GLONASS SLOT / FRQ #
 C1C    0.000 C1P    0.000 C2C    0.000 C2P    0.000        GLONASS COD/PHS/BIS 
                                                            END OF HEADER       
> 2025 01 17 07 40 35.0030000  0 20                     
E25  25429783.351   133634410.4921         12.959          41.000    25429792.961    99791967.7411          9.789          38.000  
E03  27431650.743   144154321.7121      -2046.028          32.000    27431673.079   107647779.6351      -1527.637          26.000  
G01  21666427.663   113857846.4381       1370.477          43.000    21666432.849    85023738.0411       1023.035          36.000  
G09  25002959.842   131391434.8211      -2316.997          36.000    25002969.263    98117017.8771      -1730.797          31.000  
G30  23220002.825   122021940.6501       2545.117          29.000    23220004.466    91120288.4591       1900.389          29.000  
E02  26141786.198   137376025.6491       1263.124          36.000    26141799.492   102586036.5501        943.320          34.000  
C23  23075995.660   121265174.8591       -282.115          46.000    23075995.039    90555161.4821       -210.498          44.000  
C25  25641733.223   134748204.3111      -2423.672          33.000    25641743.626   100623710.0221      -1810.091          31.000  
C27  24965875.381   131196552.8341       2421.024          36.000    24965879.864    97971478.0621       1808.236          32.000  
C28  22556473.595   118535063.6011        360.249          42.000    22556478.520    88516465.1491        268.968          36.000  
C37  24238845.615   127375994.4431       2185.226          39.000    24238856.297    95118475.8581       1631.468          36.000  
C39  37478309.416   196949861.6171      -1055.851          36.000    37478313.921   147072961.5861       -788.753          26.000  
E08  28094671.586   147638500.6401       -653.871          30.000                                                                  
E11  26040818.732   136845430.4331      -1259.346          30.000                                                                  
G02  21315529.890   112013866.6591        262.973          45.000                                                                  
G07  21400233.410   112458991.6751        798.365          41.000                                                                  
G03  25892339.359   136065169.4311       2127.532          31.000                                                                  
G17  24380296.805   128119323.3811       1828.021          27.000                                                                  
G21  21315902.778   112015828.1421      -1379.305          45.000                                                                  
C38  41052303.486   215731308.5331       1520.267          31.000                                                                  
> 2025 01 17 07 40 36.0030000  0 20                     
E25  25429780.962   133634397.563          12.652          41.000    25429790.459    99791958.088           9.600          38.000  
E03  27432039.498   144156367.825       -2046.480          32.000    27432061.613   107649307.585       -1528.402          26.000  
G01  21666166.986   113856476.282        1369.549          43.000    21666172.309    85022714.848        1023.053          36.000  
G09  25003400.583   131393752.128       -2317.352          36.000    25003410.263    98118748.294       -1730.286          31.000  
G30  23219518.387   122019396.082        2543.662          30.000    23219520.049    91118388.236        1899.778          29.000  
E02  26141545.789   137374762.496        1262.630          36.000    26141559.103   102585093.278         942.470          34.000  
C23  23076049.129   121265457.224        -283.018          46.000    23076048.737    90555372.361        -211.466          44.000  
C25  25642194.853   134750628.619       -2425.165          32.000    25642204.936   100625520.405       -1811.143          31.000  
C27  24965414.614   131194131.348        2420.641          35.000    24965419.190    97969669.813        1808.427          32.000  
C28  22556404.700   118534703.678         359.263          42.000    22556410.152    88516196.387         268.166          36.000  
C37  24238429.251   127373809.694        2184.331          39.000    24238440.641    95116844.378        1631.131          36.000  
C39  37478510.293   196950917.934       -1056.967          37.000    37478514.641   147073750.316        -788.618          26.000  
E08  28094795.436   147639154.617        -654.848          29.000                                                                  
E11  26041059.191   136846690.215       -1260.588          31.000                                                                  
G02  21315479.910   112013604.041         261.826          45.000                                                                  
G07  21400081.430   112458193.375         797.618          41.000                                                                  
G03  25891934.574   136063041.591        2127.832          30.000                                                                  
G17  24379948.562   128117495.663        1827.533          27.000                                                                  
G21  21316165.387   112017207.813       -1380.323          45.000                                                                  
C38  41052013.941   215729787.824        1520.670          31.000                                                                  
> 2025 01 17 07 40 37.0030000  0 20                     
E25  25429778.840   133634385.206          12.076          41.000    25429788.197    99791948.870           8.774          38.000  
E03  27432428.863   144158414.441       -2046.538          32.000    27432451.157   107650835.923       -1528.761          26.000  
G01  21665906.226   113855107.217        1368.646          43.000    21665911.677    85021692.528        1021.643          36.000  
G09  25003841.745   131396069.792       -2317.810          35.000    25003851.497    98120479.043       -1731.606          31.000  
G30  23219034.079   122016852.356        2543.613          29.000    23219036.075    91116488.726        1899.257          29.000  
E02  26141305.579   137373499.740        1262.486          37.000    26141318.795   102584150.306         943.053          34.000  
C23  23076103.429   121265740.496        -283.575          46.000    23076102.667    90555583.884        -211.855          44.000  
C25  25642656.581   134753053.667       -2425.391          32.000    25642666.459   100627331.297       -1811.291          32.000  
C27  24964954.005   131191710.665        2420.023          35.000    24964958.555    97967862.172        1807.013          32.000  
C28  22556336.475   118534344.719         358.341          42.000    22556341.868    88515928.290         267.913          36.000  
C37  24238013.183   127371625.602        2183.815          39.000    24238024.928    95115213.399        1630.801          36.000  
C39  37478711.328   196951974.866       -1057.347          37.000    37478715.446   147074539.597        -788.684          27.000  
E08  28094919.923   147639809.390        -655.165          29.000                                                                  
E11  26041298.932   136847950.938       -1261.453          31.000                                                                  
G02  21315430.057   112013342.585         260.844          45.000                                                                  
G07  21399929.605   112457396.200         796.721          41.000                                                                  
G03  25891529.610   136060914.048        2127.356          30.000                                                                  
G17  24379600.580   128115668.788        1826.660          27.000                                                                  
G21  21316428.228   112018588.658       -1381.473          45.000                                                                  
C38  41051724.318   215728267.576        1519.336          32.000                                                                  
> 2025 01 17 07 40 38.0030000  0 20                     
E25  25429776.396   133634373.374          11.467          41.000    25429785.793    99791940.008           8.878          38.000  
E03  27432818.672   144160461.681       -2047.925          32.000    27432841.620   107652364.647       -1528.969          26.000  
G01  21665646.193   113853739.213        1367.554          43.000    21665651.365    85020670.958        1020.801          36.000  
G09  25004282.877   131398387.876       -2318.275          36.000    25004292.557    98122210.069       -1731.320          31.000  
G30  23218549.668   122014309.525        2542.385          29.000    23218551.921    91114589.864        1898.521          28.000  
E02  26141065.679   137372237.416        1262.394          36.000    26141078.576   102583207.664         942.412          34.000  
C23  23076157.371   121266024.645        -284.555          46.000    23076156.857    90555796.084        -212.581          44.000  
C25  25643118.860   134755479.485       -2426.908          32.000    25643127.995   100629142.742       -1811.783          32.000  
C27  24964493.391   131189290.786        2419.040          35.000    24964497.951    97966055.140        1806.419          32.000  
C28  22556268.497   118533986.667         357.691          42.000    22556273.776    88515660.935         267.060          36.000  
C37  24237598.281   127369442.179        2183.273          39.000    24237609.541    95113582.924        1630.525          37.000  
C39  37478912.342   196953032.443       -1058.076          36.000    37478917.295   147075329.375        -789.687          27.000  
E08  28095044.733   147640465.024        -656.170          29.000                                                                  
E11  26041539.195   136849212.545       -1262.984          31.000                                                                  
G02  21315380.491   112013082.263         259.752          45.000                                                                  
G07  21399777.915   112456600.113         795.642          41.000                                                                  
G03  25891124.352   136058786.670        2127.131          30.000                                                                  
G17  24379252.947   128113842.664        1826.037          27.000                                                                  
G21  21316691.157   112019970.665       -1382.730          45.000                                                                  
C38  41051435.304   215726747.650        1519.514          32.000                                                                  
> 2025 01 17 07 40 39.0030000  0 20                     
E25  25429774.181   133634362.013          11.273          41.000    25429783.680    99791931.545           8.419          38.000  
E03  27433209.276   144162509.279       -2047.509          32.000    27433232.460   107653893.777       -1529.297          27.000  
G01  21665386.213   113852372.213        1366.510          43.000    21665391.223    85019650.153        1020.483          37.000  
G09  25004723.929   131400706.267       -2318.468          36.000    25004733.709    98123941.331       -1731.017          31.000  
G30  23218065.646   122011767.554        2541.470          28.000    23218068.119    91112691.647        1898.177          29.000  
E02  26140824.508   137370975.460        1262.120          36.000    26140838.303   102582265.300         942.570          34.000  
C23  23076211.367   121266309.636        -285.360          46.000    23076211.114    90556008.895        -213.032          44.000  
C25  25643580.696   134757905.929       -2426.699          32.000    25643589.650   100630954.687       -1811.801          32.000  
C27  24964032.972   131186871.598        2419.031          36.000    24964037.636    97964248.589        1806.693          32.000  
C28  22556200.790   118533629.518         356.708          42.000    22556205.809    88515394.231         266.545          36.000  
C37  24237183.138   127367259.338        2182.807          39.000    24237194.173    95111952.895        1629.862          37.000  
C39  37479113.978   196954090.568       -1057.942          36.000    37479118.015   147076119.522        -789.925          27.000  
E08  28095169.933   147641121.424        -656.555          30.000                                                                  
E11  26041778.890   136850474.958       -1262.360          30.000                                                                  
G02  21315331.554   112012823.035         258.659          45.000                                                                  
G07  21399626.566   112455805.081         794.536          41.000                                                                  
G03  25890719.684   136056659.433        2126.959          29.000                                                                  
G17  24378905.367   128112017.326        1825.042          27.000                                                                  
G21  21316954.362   112021353.756       -1383.514          45.000                                                                  
C38  41051145.649   215725228.045        1519.877          31.000                                                                  
> 2025 01 17 07 40 40.0030000  0 20                     
E25  25429771.497   133634350.960          10.632          41.000    25429781.561    99791923.272           8.032          38.000  
E03  27433599.259   144164557.273       -2048.594          32.000    27433619.673   107655423.064       -1529.574          27.000  
G01  21665126.175   113851006.026        1365.741          43.000    21665131.277    85018629.948        1019.623          36.000  
G09  25005165.159   131403024.807       -2318.796          36.000    25005174.935    98125672.731       -1732.361          31.000  
G30  23217581.901   122009226.141        2540.682          28.000    23217584.493    91110793.847        1897.432          28.000  
E02  26140584.041   137369713.695        1261.762          36.000    26140597.935   102581323.082         941.720          34.000  
C23  23076266.060   121266595.245        -286.063          46.000    23076265.526    90556222.182        -213.779          44.000  
C25  25644042.165   134760332.846       -2427.245          32.000    25644051.511   100632767.119       -1813.276          31.000  
C27  24963572.885   131184452.942        2417.778          35.000    24963577.322    97962442.454        1806.050          32.000  
C28  22556133.051   118533273.030         356.189          42.000    22556137.887    88515128.034         266.087          36.000  
C37  24236767.530   127365076.925        2182.054          39.000    24236778.804    95110323.156        1629.634          37.000  
C39  37479315.537   196955149.118       -1058.946          37.000    37479320.238   147076910.032        -790.740          27.000  
E08  28095294.719   147641778.394        -656.985          30.000                                                                  
E11  26042019.035   136851738.129       -1263.828          30.000                                                                  
G02  21315282.357   112012564.690         257.750          45.000                                                                  
G07  21399475.375   112455010.886         793.455          40.000                                                                  
G03  25890314.718   136054532.172        2126.673          30.000                                                                  
G17  24378557.833   128110192.442        1824.505          28.000                                                                  
G21  21317217.722   112022737.768       -1384.645          45.000                                                                  
C38  41050855.815   215723708.571        1519.707          32.000                                                                  
> 2025 01 17 07 40 41.0030000  0 20                     
E25  25429769.368   133634340.405          10.331          41.000    25429779.496    99791915.396           7.747          38.000  
E08  28095418.921   147642436.158        -658.032          30.000    28095440.001                        -489.752          23.000  
E03  27433989.367   144166605.771       -2048.848          32.000    27434008.914   107656952.793       -1530.433          27.000  
G01  21664866.362   113849640.892        1364.709          43.000    21664871.447    85017610.548        1019.019          37.000  
G09  25005606.415   131405343.723       -2318.764          36.000    25005616.206    98127404.327       -1731.307          31.000  
G30  23217098.297   122006685.648        2539.875          27.000    23217101.129    91108896.738        1896.838          28.000  
E02  26140343.688   137368452.320        1261.103          36.000    26140358.054   102580381.137         942.036          34.000  
C23  23076320.458   121266881.741        -286.846          46.000    23076320.003    90556436.129        -214.332          44.000  
C25  25644504.057   134762760.584       -2428.673          31.000    25644513.324   100634579.958       -1813.486          31.000  
C27  24963113.190   131182035.107        2417.047          36.000    24963117.052    97960636.909        1805.546          32.000  
C28  22556065.202   118532917.482         355.181          42.000    22556070.290    88514862.538         265.118          36.000  
C37  24236352.389   127362895.141        2181.644          39.000    24236363.731    95108693.931        1629.106          37.000  
C39  37479517.474   196956208.281       -1059.875          37.000    37479521.474   147077700.937        -791.484          27.000  
E11  26042259.725   136853002.174       -1264.460          29.000                                                                  
G02  21315233.440   112012307.484         256.590          46.000                                                                  
G07  21399324.227   112454217.790         792.374          40.000                                                                  
G03  25889909.716   136052405.049        2126.817          30.000                                                                  
G17  24378210.390   128108368.342        1823.840          28.000                                                                  
G21  21317480.894   112024122.917       -1385.627          45.000                                                                  
C38  41050566.856   215722189.438        1519.391          32.000                                                                  
> 2025 01 17 07 40 42.0030000  0 20                     
E25  25429767.345   133634330.142          10.001          41.000    25429777.365    99791907.713           7.864          37.000  
E08  28095543.870   147643094.498        -658.757          30.000    28095565.855                        -492.133          22.000  
E03  27434379.473   144168654.503       -2048.705          33.000    27434398.228   107658482.651       -1529.888          26.000  
G01  21664606.665   113848276.557        1364.270          43.000    21664611.968    85016591.689        1018.469          36.000  
G09  25006047.585   131407662.736       -2319.092          36.000    25006057.469    98129136.080       -1732.163          30.000  
G30  23216614.194   122004145.848        2539.665          28.000    23216617.902    91107000.019        1897.102          27.000  
E02  26140102.876   137367191.088        1261.547          36.000    26140117.790   102579439.313         941.375          33.000  
C23  23076375.155   121267168.854        -287.329          46.000    23076374.632    90556650.498        -214.704          44.000  
C25  25644965.668   134765188.713       -2428.765          31.000    25644975.558   100636393.175       -1813.315          31.000  
C27  24962653.515   131179617.732        2417.429          36.000    24962656.854    97958831.759        1804.583          31.000  
C28  22555997.695   118532562.622         354.558          42.000    22556002.877    88514597.500         264.608          36.000  
C37  24235936.388   127360713.777        2181.315          38.000    24235948.552    95107064.950        1629.548          36.000  
C39  37479719.274   196957267.786       -1059.551          37.000    37479722.742   147078492.109        -791.579          27.000  
E11  26042500.786   136854266.889       -1265.748          29.000                                                                  
G02  21315184.578   112012051.171         255.848          45.000                                                                  
G07  21399173.306   112453425.527         791.828          40.000                                                                  
G03  25889504.592   136050277.939        2127.004          31.000                                                                  
G17  24377863.203   128106544.802        1823.346          28.000                                                                  
G21  21317744.907   112025508.970       -1386.258          45.000                                                                  
C38  41050277.798   215720670.376        1519.565          33.000                                                                  
> 2025 01 17 07 40 43.0030000  0 20                     
E25  25429765.839   133634320.284           9.763          41.000    25429775.541    99791900.385           7.101          38.000  
E08  28095669.252   147643753.502        -658.995          29.000    28095690.937                        -495.899          22.000  
E03  27434768.888   144170703.714       -2050.135          33.000    27434788.616   107660012.972       -1531.244          26.000  
G01  21664347.146   113846913.175        1362.939          43.000    21664352.414    85015573.589        1017.456          37.000  
G09  25006488.863   131409982.039       -2319.205          36.000    25006498.904    98130868.002       -1731.609          30.000  
G30  23216130.728   122001606.809        2538.438          28.000    23216134.435    91105103.988        1895.998          26.000  
E02  26139863.027   137365930.213        1260.873          36.000    26139877.756   102578497.739         941.357          34.000  
C23  23076429.987   121267456.736        -288.077          46.000    23076429.259    90556865.468        -215.181          44.000  
C25  25645427.790   134767617.507       -2429.020          30.000    25645437.567   100638206.867       -1813.733          31.000  
C27  24962193.539   131177201.060        2416.304          36.000    24962196.762    97957027.084        1805.285          32.000  
C28  22555929.810   118532208.546         353.895          42.000    22555935.704    88514333.103         264.423          37.000  
C37  24235520.986   127358532.943        2180.762          38.000    24235533.515    95105436.447        1628.263          36.000  
C39  37479921.333   196958327.800       -1059.985          36.000    37479924.723   147079283.661        -791.346          27.000  
E11  26042741.494   136855532.263       -1265.760          29.000                                                                  
G02  21315135.725   112011795.866         255.017          46.000                                                                  
G07  21399022.656   112452634.243         790.872          40.000                                                                  
G03  25889099.895   136048150.998        2124.580          30.000                                                                  
G17  24377516.255   128104721.969        1822.127          28.000                                                                  
G21  21318008.821   112026896.085       -1387.631          45.000                                                                  
C38  41049989.106   215719151.639        1519.456          33.000                                                                  
> 2025 01 17 07 40 44.0030000  0 20                     
E25  25429764.009   133634310.741           9.159          41.000    25429773.633    99791893.253           6.628          37.000  
E08  28095795.089   147644413.081        -659.951          28.000    28095816.335                        -494.611          20.000  
E03  27435158.973   144172753.169       -2049.814          33.000    27435177.617   107661543.327       -1530.283          25.000  
G01  21664087.852   113845550.603        1361.871          43.000    21664093.137    85014556.105        1016.724          36.000  
G09  25006930.197   131412301.477       -2319.822          36.000    25006940.158    98132600.031       -1731.485          30.000  
G30  23215647.017   121999068.328        2537.651          27.000    23215650.470                        1895.140          24.000  
E02  26139623.441   137364669.454        1260.430          37.000    26139637.884   102577556.287         940.967          34.000  
C23  23076484.502   121267745.252        -289.091          46.000    23076484.374    90557080.916        -215.774          44.000  
C25  25645889.333   134770046.794       -2429.499          29.000    25645899.901   100640020.976       -1814.952          31.000  
C27  24961732.826   131174784.950        2415.373          36.000    24961736.990    97955222.910        1803.562          32.000  
C28  22555862.356   118531855.183         352.832          42.000    22555868.472    88514069.226         263.385          36.000  
C37  24235106.316   127356352.530        2179.808          37.000    24235118.656    95103808.208        1628.112          36.000  
C39  37480123.508   196959388.230       -1060.699          36.000    37480127.090   147080075.543        -792.128          27.000  
E11  26042982.355   136856798.357       -1266.278          29.000                                                                  
G02  21315087.524   112011541.480         253.756          46.000                                                                  
G07  21398872.185   112451843.807         789.847          40.000                                                                  
G03  25888695.007   136046023.826        2126.418          30.000                                                                  
G17  24377168.771   128102899.629        1822.191          27.000                                                                  
G21  21318272.844   112028284.116       -1388.817          45.000                                                                  
C38  41049700.319   215717632.959        1518.173          33.000                                                                  
> 2025 01 17 07 40 45.0030000  0 20                     
E25  25429762.112   133634301.638           9.001          41.000    25429771.900    99791886.434           7.057          38.000  
E08  28095920.636   147645073.397        -659.574          27.000    28095941.867                        -497.530          22.000  
E03  27435549.266   144174803.126       -2049.957          34.000    27435568.474   107663074.110       -1530.262          26.000  
G01  21663828.790   113844189.004        1361.322          43.000    21663833.994    85013539.306        1016.534          36.000  
G09  25007371.639   131414621.232       -2319.964          36.000    25007381.469    98134332.307       -1731.742          31.000  
G30  23215164.131   121996530.686        2536.904          28.000    23215165.171                        1893.295          25.000  
E02  26139383.891   137363409.078        1260.153          37.000    26139398.143   102576615.085         940.930          34.000  
C23  23076539.525   121268034.567        -289.565          45.000    23076539.309    90557296.969        -216.182          44.000  
C25  25646351.807   134772476.732       -2429.956          28.000    25646362.266   100641835.529       -1814.340          31.000  
C27  24961272.876   131172369.487        2415.667          35.000    24961277.222    97953419.110        1804.072          32.000  
C28  22555795.905   118531502.686         352.077          42.000    22555801.492    88513805.990         263.194          37.000  
C37  24234691.624   127354172.664        2179.910          38.000    24234703.845    95102180.426        1627.610          36.000  
C39  37480325.349   196960449.181       -1060.684          36.000    37480329.598   147080867.838        -792.311          27.000  
E11  26043222.766   136858065.285       -1266.995          29.000                                                                  
G02  21315039.340   112011288.144         252.959          46.000                                                                  
G07  21398721.888   112451054.397         788.914          40.000                                                                  
G03  25888290.142   136043896.864        2126.995          29.000                                                                  
G17  24376821.759   128101077.989        1822.110          27.000                                                                  
G21  21318537.118   112029673.217       -1389.441          45.000                                                                  
C38  41049410.997   215716114.622        1517.945          33.000                                                                  
> 2025 01 17 07 40 46.0030000  0 20                     
E25  25429760.794   133634292.959           8.860          41.000    25429770.181    99791879.995           6.213          38.000  
E08  28096045.971   147645734.522        -661.128          26.000    28096067.201                        -495.479          21.000  
E03  27435940.294   144176853.455       -2049.991          33.000    27435958.301   107664605.288       -1530.849          26.000  
G01  21663569.890   113842828.382        1360.309          43.000    21663575.086    85012523.267        1015.881          37.000  
G09  25007813.111   131416941.239       -2319.886          36.000    25007823.029    98136064.796       -1732.088          31.000  
G30  23214681.203   121993993.802        2537.070          27.000    23214681.684                        1894.856          23.000  
E02  26139144.384   137362148.986        1260.106          37.000    26139158.483   102575674.114         941.383          35.000  
C23  23076595.018   121268324.670        -290.147          46.000    23076594.611    90557513.601        -216.650          45.000  
C25  25646814.309   134774907.387       -2430.245          27.000    25646824.657   100643650.572       -1814.967          31.000  
C27  24960812.886   131169954.771        2414.809          34.000    24960817.669    97951615.950        1803.353          33.000  
C28  22555728.671   118531150.999         351.420          42.000    22555734.531    88513543.380         262.537          37.000  
C37  24234276.662   127351993.376        2179.475          36.000    24234289.106    95100553.025        1627.414          37.000  
C39  37480527.821   196961510.704       -1061.677          36.000    37480530.517   147081660.508        -792.741          28.000  
E11  26043463.589   136859333.004       -1268.047          30.000                                                                  
G02  21314991.506   112011035.830         251.970          46.000                                                                  
G07  21398571.842   112450265.984         787.949          40.000                                                                  
G03  25887885.173   136041770.038        2126.713          29.000                                                                  
G17  24376474.901   128099257.140        1820.851          28.000                                                                  
G21  21318801.736   112031063.373       -1390.412          45.000                                                                  
C38  41049122.166   215714596.501        1519.192          32.000                                                                  
> 2025 01 17 07 40 47.0030000  0 20                     
E25  25429759.205   133634284.563           7.987          40.000    25429768.568    99791873.697           5.968          37.000  
E08  28096171.216   147646396.138        -661.884          26.000    28096192.777                        -488.627          22.000  
E03  27436330.812   144178904.092       -2051.163          33.000    27436348.462   107666136.580       -1531.795          25.000  
G01  21663311.000   113841468.509        1359.241          44.000    21663316.247    85011507.782        1014.618          36.000  
G09  25008254.326   131419261.324       -2320.254          36.000    25008264.600    98137797.344       -1732.545          30.000  
G30  23214198.253   121991457.559        2535.237          26.000    23214199.223                        1898.624          25.000  
E02  26138904.473   137360889.040        1259.444          36.000    26138918.735   102574733.231         940.681          34.000  
C23  23076650.488   121268615.371        -291.281          45.000    23076650.008    90557730.677        -217.353          44.000  
C25  25647277.189   134777338.424       -2431.559          30.000    25647287.129   100645465.978       -1815.369          31.000  
C27  24960353.195   131167540.583        2412.721          34.000    24960358.371    97949813.123        1802.392          32.000  
C28  22555662.113   118530799.950         350.516          41.000    22555667.851    88513281.237         261.782          36.000  
C37  24233863.282   127349814.494        2178.544          38.000    24233874.578    95098925.917        1626.704          37.000  
C39  37480729.552   196962572.548       -1062.268          37.000    37480732.192   147082453.421        -792.856          27.000  
E11  26043704.842   136860601.258       -1268.555          29.000                                                                  
G02  21314943.745   112010784.372         250.766          46.000                                                                  
G07  21398422.071   112449478.361         787.139          40.000                                                                  
G03  25887480.465   136039643.068        2126.978          29.000                                                                  
G17  24376128.039   128097436.662        1819.767          27.000                                                                  
G21  21319066.269   112032454.396       -1391.746          44.000                                                                  
C38  41048833.433   215713078.483        1517.593          31.000                                                                  
> 2025 01 17 07 40 48.0030000  0 20                     
E25  25429757.031   133634276.719           7.703          40.000    25429767.018    99791867.839           5.760          38.000  
E08  28096295.998   147647058.573        -662.163          26.000    28096317.854                        -501.628          23.000  
E03  27436721.475   144180955.285       -2051.525          34.000    27436739.253   107667668.243       -1531.179          25.000  
G01  21663052.713   113840109.748        1358.459          43.000    21663057.609    85010493.155        1014.227          36.000  
G09  25008695.674   131421581.872       -2320.636          36.000    25008706.184    98139530.222       -1732.463          31.000  
G30  23213715.487   121988922.149        2535.430          26.000    23213718.295                        1893.777          26.000  
E02  26138664.486   137359629.526        1259.616          36.000    26138679.209   102573792.690         940.632          34.000  
C23  23076706.039   121268906.960        -291.654          45.000    23076705.652    90557948.446        -217.994          45.000  
C25  25647740.127   134779770.171       -2431.724          30.000    25647749.826   100647281.889       -1815.662          32.000  
C27  24959893.604   131165127.101        2413.333          33.000    24959899.095    97948010.872        1802.588          33.000  
C28  22555595.643   118530449.896         350.007          41.000    22555601.104    88513019.835         261.018          37.000  
C37  24233448.843   127347636.269        2178.176          39.000    24233460.131    95097299.336        1626.248          37.000  
C39  37480931.574   196963635.020       -1062.755          37.000    37480934.708   147083246.908        -794.245          27.000  
E11  26043946.098   136861870.524       -1269.163          29.000                                                                  
G02  21314896.172   112010534.098         249.877          45.000                                                                  
G07  21398272.336   112448691.879         786.014          40.000                                                                  
G03  25887075.961   136037516.483        2126.553          29.000                                                                  
G17  24375781.161   128095617.019        1819.076          27.000                                                                  
G21  21319331.124   112033846.607       -1392.566          44.000                                                                  
C38  41048544.768   215711560.854        1517.456          31.000                                                                  
> 2025 01 17 07 40 49.0030000  0 20                     
E25  25429755.753   133634269.257           6.826          40.000    25429765.617    99791862.252           5.349          37.000  
E08  28096421.827   147647721.763        -663.897          26.000    28096444.398                        -493.832          23.000  
E03  27437111.717   144183006.829       -2052.622          33.000    27437130.524   107669200.313       -1532.210          25.000  
G01  21662794.324   113838751.890        1357.050          43.000    21662799.061    85009479.189        1013.019          36.000  
G09  25009137.251   131423902.627       -2321.372          35.000    25009147.976    98141263.263       -1733.742          29.000  
G30  23213232.711   121986387.622        2533.743          26.000    23213236.127    91093724.0921       1891.812          27.000  
E02  26138424.215   137358370.368        1258.097          36.000    26138439.527   102572852.386         939.949          34.000  
C23  23076761.458   121269199.322        -293.267          45.000    23076761.279    90558166.752        -219.033          44.000  
C25  25648203.546   134782202.542       -2432.011          30.000    25648212.898   100649098.313       -1815.991          31.000  
C27  24959434.448   131162714.407        2410.963          34.000    24959439.971    97946209.138        1801.194          32.000  
C28  22555528.697   118530100.614         348.632          41.000    22555534.549    88512759.004         260.254          36.000  
C37  24233034.782   127345458.547        2177.473          39.000    24233045.747    95095673.104        1625.885          37.000  
C39  37481133.830   196964697.988       -1063.593          37.000    37481136.686   147084040.685        -794.519          26.000  
E11  26044187.609   136863140.633       -1271.453          29.000                                                                  
G02  21314848.657   112010284.816         248.215          46.000                                                                  
G07  21398122.685   112447906.344         784.568          40.000                                                                  
G03  25886671.365   136035389.788        2127.048          30.000                                                                  
G17  24375435.108   128093798.051        1817.664          28.000                                                                  
G21  21319596.311   112035239.807       -1394.148          44.000                                                                  
C38  41048255.631   215710043.453        1517.434          31.000                                                                  
> 2025 01 17 07 40 50.0030000  0 20                     
E25  25429753.850   133634262.375           6.741          41.000    25429764.182    99791857.112           5.166          38.000  
E08  28096548.016   147648385.643        -664.069          26.000    28096570.723                        -496.800          24.000  
E03  27437502.449   144185058.999       -2052.637          33.000    27437522.989                       -1533.782          24.000  
G01  21662536.118   113837395.150        1356.396          43.000    21662540.827    85008466.018        1012.891          36.000  
G09  25009578.654   131426223.801       -2321.052          35.000    25009589.947    98142996.646       -1733.711          29.000  
G30  23212750.111   121983853.944        2533.425          26.000    23212755.790    91091838.908        1892.227          27.000  
E02  26138184.882   137357111.497        1258.970          36.000    26138199.943   102571912.409         939.574          33.000  
C23  23076817.168   121269492.578        -293.475          46.000    23076816.893    90558385.745        -219.184          44.000  
C25  25648667.051   134784635.810       -2434.427          30.000    25648676.200   100650915.296       -1817.199          31.000  
C27  24958975.016   131160302.346        2412.427          34.000    24958980.873    97944407.969        1801.180          32.000  
C28  22555462.397   118529752.310         348.081          41.000    22555468.265    88512498.914         259.795          37.000  
C37  24232620.197   127343281.547        2177.165          38.000    24232631.309    95094047.431        1625.809          37.000  
C39  37481336.394   196965761.667       -1063.801          37.000    37481339.428   147084834.923        -794.337          27.000  
E11  26044429.619   136864411.535       -1271.213          30.000                                                                  
G02  21314801.369   112010036.711         247.687          45.000                                                                  
G07  21397973.332   112447121.942         783.947          40.000                                                                  
G03  25886266.686   136033263.457        2126.391          29.000                                                                  
G17  24375088.871   128091979.804        1817.784          29.000                                                                  
G21  21319861.551   112036634.195       -1394.783          44.000                                                                  
C38  41047966.751   215708526.404        1517.149          30.000                                                                  
> 2025 01 17 07 40 51.0030000  0 20                     
E25  25429752.629   133634255.685           6.561          40.000    25429763.033    99791852.130           4.774          38.000  
E08  28096674.565                        -664.690          26.000    28096697.700                        -496.802          25.000  
E03  27437893.735   144187111.334       -2052.717          34.000    27437914.056                       -1532.068          24.000  
G01  21662277.955   113836039.126        1355.701          43.000    21662282.739    85007453.414        1011.939          36.000  
G09  25010019.708   131428545.044       -2321.250          35.000    25010031.823    98144730.001       -1733.863          29.000  
G30  23212267.967   121981320.767        2532.371          27.000    23212273.511    91089947.308        1891.228          27.000  
E02  26137945.787   137355852.811        1258.483          37.000    26137960.372   102570972.467         939.728          34.000  
C23  23076873.424   121269786.409        -294.272          46.000    23076872.919    90558605.169        -219.740          44.000  
C25  25649130.492   134787069.518       -2434.875          30.000    25649139.057   100652732.628       -1818.185          31.000  
C27  24958515.250   131157890.846        2410.483          34.000    24958521.891    97942607.186        1800.690          32.000  
C28  22555396.569   118529404.604         347.308          42.000    22555402.062    88512239.256         259.024          37.000  
C37  24232205.893   127341104.832        2177.165          36.000    24232217.130    95092422.017        1625.402          36.000  
C39  37481538.838   196966825.570       -1063.700          36.000    37481541.169   147085629.504        -795.172          27.000  
E11  26044671.363   136865683.082       -1271.957          29.000                                                                  
G02  21314754.630   112009789.429         246.779          45.000                                                                  
G07  21397824.177   112446338.327         782.945          39.000                                                                  
G03  25885862.169   136031137.017        2126.173          29.000                                                                  
G17  24374742.518   128090162.154        1817.317          28.000                                                                  
G21  21320126.780   112038029.438       -1395.698          44.000                                                                  
C38  41047677.490   215707009.459        1516.919          29.000                                                                  
> 2025 01 17 07 40 52.0030000  0 20                     
E25  25429751.053   133634249.392           6.281          41.000    25429761.862    99791847.426           4.889          37.000  
E08  28096801.775                        -665.327          26.000    28096824.332                        -497.129          24.000  
E03  27438284.093   144189164.084       -2052.446          34.000    27438305.448                       -1533.695          23.000  
G01  21662020.271   113834684.029        1354.675          43.000    21662024.747    85006441.499        1011.646          35.000  
G09  25010461.395   131430866.540       -2321.431          36.000    25010473.870    98146463.614       -1734.000          29.000  
G30  23211785.829   121978788.402        2531.552          26.000    23211791.683    91088056.253        1890.970          27.000  
E02  26137707.269   137354594.408        1258.487          37.000    26137720.857   102570032.721         940.105          34.000  
C23  23076929.927   121270080.973        -294.949          46.000    23076928.903    90558825.134        -220.141          44.000  
C25  25649594.207   134789503.567       -2433.853          30.000    25649602.416   100654550.322       -1817.453          31.000  
C27  24958055.415   131155479.945        2411.382          33.000    24958063.243    97940806.850        1800.113          32.000  
C28  22555330.399   118529057.699         346.452          42.000    22555335.948    88511980.232         258.527          36.000  
C37  24231791.242   127338928.726        2175.771          37.000    24231803.003    95090796.960        1624.818          36.000  
C39  37481741.161   196967890.026       -1064.353          36.000    37481743.276   147086424.369        -795.294          27.000  
E11  26044913.357   136866955.405       -1272.442          30.000                                                                  
G02  21314707.889   112009543.139         245.836          45.000                                                                  
G07  21397674.941   112445555.640         782.125          39.000                                                                  
G03  25885457.594   136029010.585        2126.654          30.000                                                                  
G17  24374396.167   128088315.6313       1816.441          26.000                                                                  
G21  21320392.414   112039425.666       -1396.687          44.000                                                                  
C38  41047388.655   215705492.754        1516.322          29.000                                                                  
> 2025 01 17 07 40 53.0030000  0 20                     
E25  25429749.833   133634243.406           5.922          40.000    25429760.865    99791842.957           4.446          38.000  
E08  28096928.962                        -665.069          25.000    28096949.463                        -497.268          25.000  
E03  27438674.748   144191217.106       -2053.296          34.000    27438695.322                       -1533.989          23.000  
G01  21661762.812   113833329.722        1354.266          43.000    21661766.896    85005430.201        1010.840          35.000  
G09  25010903.365   131433188.137       -2321.282          35.000    25010915.911    98148197.229       -1733.531          29.000  
G30  23211303.803   121976256.600        2531.221          27.000    23211310.903    91086165.645        1890.501          28.000  
E02  26137468.269   137353336.192        1258.269          37.000    26137481.484   102569093.185         939.255          35.000  
C23  23076985.595   121270376.164        -295.538          46.000    23076985.094    90559045.572        -220.712          45.000  
C25  25650058.015   134791938.263       -2434.745          31.000    25650065.786   100656368.460       -1818.387          32.000  
C27  24957596.768   131153069.616        2410.536          33.000    24957604.628    97939006.921        1799.861          32.000  
C28  22555264.781   118528711.466         345.745          42.000    22555270.234    88511721.652         258.427          37.000  
C37  24231376.379   127336752.950        2175.775          37.000    24231388.977    95089172.184        1624.975          36.000  
C39  37481943.847   196968954.842       -1064.980          36.000    37481945.600   147087219.518        -795.354          27.000  
E11  26045155.890   136868228.381       -1273.658          30.000                                                                  
G02  21314661.356   112009297.753         245.031          46.000                                                                  
G07  21397526.208   112444773.825         781.394          39.000                                                                  
G03  25885052.784   136026884.125        2126.737          30.000                                                                  
G17  24374049.950   128086496.1032       1816.185          25.000                                                                  
G21  21320657.910   112040822.806       -1397.654          44.000                                                                  
C38  41047100.601   215703976.099        1516.558          30.000                                                                  
> 2025 01 17 07 40 54.0030000  0 20                     
E25  25429748.397   133634237.832           5.548          40.000    25429759.875    99791838.847           3.893          38.000  
E08  28097052.688                        -666.566          25.000    28097074.948                        -498.080          25.000  
E03  27439066.150   144193270.591       -2054.310          34.000    27439084.330                       -1534.557          22.000  
G01  21661505.218   113831976.410        1352.661          43.000    21661509.222    85004419.617        1010.144          35.000  
G09  25011345.418   131435510.028       -2321.885          35.000    25011358.159    98149931.116       -1733.864          29.000  
G30  23210822.024   121973725.649        2530.737          27.000    23210829.611    91084275.645        1890.201          28.000  
E02  26137229.037   137352078.286        1257.552          37.000    26137242.262   102568153.840         939.276          35.000  
C23  23077041.868   121270672.138        -296.529          46.000    23077041.427    90559266.613        -221.149          45.000  
C25  25650521.731   134794373.609       -2435.545          30.000    25650529.204   100658187.083       -1819.060          32.000  
C27  24957138.044   131150659.973        2409.313          33.000    24957146.195    97937207.535        1798.901          32.000  
C28  22555199.288   118528366.058         344.895          42.000    22555204.477    88511463.762         257.874          37.000  
C37  24230961.825   127334577.754        2174.771          37.000    24230974.955    95087547.865        1624.428          36.000  
C39  37482147.041   196970020.192       -1065.488          37.000    37482148.027   147088015.091        -795.561          27.000  
E11  26045398.474   136869502.107       -1274.424          30.000                                                                  
G02  21314614.944   112009053.415         243.693          45.000                                                                  
G07  21397377.498   112443992.974         780.332          39.000                                                                  
G03  25884647.991   136024757.747        2126.133          28.000                                                                  
G17  24373703.930   128084680.2752       1815.561          24.000                                                                  
G21  21320923.781   112042220.997       -1398.795          44.000                                                                  
C38  41046812.067   215702459.717        1516.828          30.000                                                                  
> 2025 01 17 07 40 55.0030000  0 20                     
E25  25429747.294   133634232.539           5.086          40.000    25429758.936    99791834.870           3.978          38.000  
E08  28097177.290                        -668.080          24.000    28097201.730                        -498.926          25.000  
E03  27439457.074   144195324.289       -2054.067          34.000    27439473.301                       -1534.014          23.000  
G01  21661247.755   113830623.858        1352.240          43.000    21661251.589    85003409.635        1009.808          34.000  
G09  25011787.306   131437832.052       -2322.247          36.000    25011799.891    98151665.100       -1733.678          29.000  
G30  23210339.947   121971195.282        2530.048          27.000    23210348.651    91082386.106        1889.092          28.000  
E02  26136990.085   137350820.500        1257.427          38.000    26137002.997   102567214.621         939.169          35.000  
C23  23077098.709   121270968.716        -296.906          46.000    23077097.727    90559488.101        -221.915          45.000  
C25  25650985.240   134796809.337       -2435.991          31.000    25650992.711   100660005.961       -1818.480          32.000  
C27  24956679.729   131148250.817        2409.010          32.000    24956687.582    97935408.514        1798.369          32.000  
C28  22555133.853   118528021.318         344.493          42.000    22555138.710    88511206.353         256.677          37.000  
C37  24230547.601   127332402.908        2174.932          36.000    24230561.078    95085923.837        1623.705          36.000  
C39  37482349.541   196971085.888       -1066.000          36.000    37482351.018   147088810.919        -796.152          27.000  
E11  26045640.650   136870776.459       -1274.823          30.000                                                                  
G02  21314568.540   112008809.933         243.010          45.000                                                                  
G07  21397229.082   112443212.976         779.564          39.000                                                                  
G03  25884243.172   136022631.382        2126.277          28.000                                                                  
G17  24373357.780   128082858.8663       1814.643          23.000                                                                  
G21  21321189.962   112043620.054       -1399.532          44.000                                                                  
C38  41046523.622   215700943.480        1515.871          30.000                                                                  
> 2025 01 17 07 40 56.0030000  0 20                     
E25  25429746.994   133634227.599           4.820          41.000    25429757.815    99791831.193           3.600          37.000  
E08  28097302.902                        -666.882          24.000    28097329.165                        -498.308          24.000  
E03  27439848.094   144197378.417       -2054.755          34.000    27439862.900                       -1533.024          22.000  
G01  21660990.655   113829272.241        1351.099          43.000    21660994.241    85002400.295        1009.381          35.000  
G09  25012229.139   131440154.253       -2322.537          36.000    25012241.859    98153399.241       -1734.489          29.000  
G30  23209858.442   121968665.616        2529.819          27.000    23209866.794    91080497.121        1888.736          27.000  
E02  26136750.963   137349562.987        1257.019          38.000    26136763.671   102566275.556         938.500          34.000  
C23  23077155.165   121271266.021        -297.842          46.000    23077154.343    90559710.109        -222.377          45.000  
C25  25651449.132   134799245.697       -2436.976          31.000    25651456.318   100661825.345       -1819.246          33.000  
C27  24956221.723   131145842.304        2408.116          33.000    24956229.223    97933609.977        1797.566          32.000  
C28  22555067.994   118527677.369         343.366          42.000    22555073.382    88510949.480         256.638          37.000  
C37  24230133.570   127330228.631        2173.439          36.000    24230147.193    95084300.167        1623.295          36.000  
C39  37482552.806   196972152.050       -1066.574          36.000    37482553.909   147089607.066        -795.915          26.000  
E11  26045883.714   136872051.601       -1275.860          30.000                                                                  
G02  21314522.291   112008567.448         241.774          45.000                                                                  
G07  21397080.741   112442433.890         778.672          39.000                                                                  
G03  25883838.384   136020505.014        2126.205          28.000                                                                  
G17  24373010.883                        1815.002          23.000                                                                  
G21  21321456.328   112045020.123       -1400.693          44.000                                                                  
C38  41046235.497   215699427.408        1516.279          31.000                                                                  
> 2025 01 17 07 40 57.0030000  0 20                     
E25  25429745.961   133634222.946           4.604          41.000    25429756.825    99791827.719           3.604          37.000  
E08  28097427.339                        -668.549          25.000    28097456.897                        -498.010          24.000  
E03  27440239.392   144199432.716       -2054.032          34.000    27440255.255                       -1536.585          22.000  
G01  21660733.720   113827921.401        1350.433          43.000    21660737.114    85001391.576        1008.283          34.000  
G09  25012670.959   131442476.574       -2321.945          36.000    25012684.100    98155133.498       -1734.825          28.000  
G30  23209377.121   121966136.666        2527.491          27.000    23209385.675    91078608.511        1888.356          28.000  
E02  26136511.361   137348305.622        1257.463          38.000    26136524.282   102565336.636         938.888          34.000  
C23  23077211.892   121271563.936        -298.079          46.000    23077211.122    90559932.577        -222.478          44.000  
C25  25651913.240   134801682.525       -2437.236          32.000    25651920.136   100663645.053       -1819.571          32.000  
C27  24955763.653   131143434.309        2407.159          33.000    24955770.904    97931811.727        1797.732          32.000  
C28  22555002.081   118527334.042         343.177          41.000    22555008.087    88510693.092         256.313          36.000  
C37  24229720.415   127328054.672        2174.159          38.000    24229733.480    95082676.782        1623.366          36.000  
C39  37482756.194   196973218.597       -1066.548          37.000    37482756.526   147090403.569        -797.019          27.000  
E11  26046126.216   136873327.314       -1275.567          30.000                                                                  
G02  21314476.657   112008325.818         241.493          46.000                                                                  
G07  21396932.438   112441655.654         777.855          39.000                                                                  
G03  25883433.551   136018378.582        2126.481          28.000                                                                  
G17  24372662.865                        1815.801          23.000                                                                  
G21  21321723.010   112046421.064       -1401.411          44.000                                                                  
C38  41045947.049   215697911.462        1516.172          31.000                                                                  
> 2025 01 17 07 40 58.0030000  0 20                     
E25  25429744.996   133634218.601           4.478          41.000    25429755.926    99791824.507           3.108          38.000  
E08  28097553.876                        -667.537          23.000    28097583.454                        -498.628          25.000  
E03  27440631.197   144201487.424       -2054.461          35.000    27440645.302                       -1531.065          23.000  
G01  21660476.855   113826571.425        1349.347          43.000    21660480.282    85000383.430        1007.843          35.000  
G09  25013113.078   131444799.092       -2322.694          36.000    25013126.070    98156867.829       -1734.401          29.000  
G30  23208895.699   121963608.324        2527.692          27.000    23208904.127    91076720.531        1887.854          28.000  
E02  26136271.805   137347048.501        1257.104          38.000    26136285.033   102564397.849         938.379          35.000  
C23  23077268.658   121271862.531        -298.724          46.000    23077267.827    90560155.561        -223.169          45.000  
C25  25652377.035   134804119.884       -2437.102          31.000    25652384.012   100665465.217       -1821.260          33.000  
C27  24955305.739   131141026.859        2406.737          33.000    24955312.697    97930013.971        1797.770          32.000  
C28  22554937.109   118526991.485         342.547          41.000    22554942.975    88510437.293         255.785          37.000  
C37  24229306.717   127325881.204        2173.388          37.000    24229319.902    95081053.731        1623.105          36.000  
C39  37482958.926   196974285.552       -1066.641          37.000    37482959.897   147091200.279        -796.863          28.000  
E11  26046368.804   136874603.865       -1277.366          30.000                                                                  
G02  21314430.855   112008085.162         240.381          45.000                                                                  
G07  21396784.658   112440878.295         777.051          39.000                                                                  
G03  25883028.575   136016252.169        2126.530          29.000                                                                  
G17  24372315.079                        1813.554          24.000                                                                  
G21  21321989.975   112047822.935       -1402.185          45.000                                                                  
C38  41045658.729   215696395.707        1515.473          31.000                                                                  
> 2025 01 17 07 40 59.0030000  0 20                     
E25  25429744.305   133634214.495           4.047          40.000    25429755.082    99791821.414           2.781          37.000  
E08  28097681.339                        -662.073          23.000    28097712.753                        -499.821          24.000  
E03  27441022.314   144203542.305       -2054.645          35.000    27441035.565                       -1534.116          23.000  
G01  21660220.104   113825222.167        1348.627          43.000    21660223.772    84999375.875        1007.117          35.000  
G09  25013555.072   131447121.660       -2322.645          36.000    25013568.206    98158602.141       -1734.150          28.000  
G30  23208414.396   121961080.460        2527.367          27.000    23208420.976    91074832.869        1887.706          27.000  
E02  26136032.011   137345791.457        1256.656          37.000    26136045.854   102563459.170         937.947          33.000  
C23  23077325.201   121272161.693        -299.753          46.000    23077324.850    90560378.954        -223.720          44.000  
C25  25652840.627   134806557.668       -2437.900          31.000    25652848.002   100667285.649       -1821.935          32.000  
C27  24954847.989   131138619.860        2406.507          33.000    24954854.581    97928216.536        1798.181          31.000  
C28  22554872.124   118526649.525         341.458          41.000    22554877.871    88510181.932         255.052          37.000  
C37  24228893.318   127323708.055        2172.720          37.000    24228906.399    95079430.933        1622.359          36.000  
C39  37483162.234   196975352.812       -1067.739          37.000    37483163.036   147091997.274        -797.505          27.000  
E11  26046611.766   136875880.850       -1277.802          30.000                                                                  
G02  21314385.229   112007845.301         239.255          46.000                                                                  
G07  21396636.985   112440101.714         776.171          39.000                                                                  
G03  25882624.164   136014125.649        2126.470          29.000                                                                  
G17  24371965.002                        1813.893          25.000                                                                  
G21  21322257.201   112049225.661       -1403.446          45.000                                                                  
C38  41045370.070   215694879.942        1515.780          31.000                                                                  
> 2025 01 17 07 41 00.0030000  0 20                     
E25  25429743.052   133634210.610           3.532          40.000    25429754.442    99791818.524           2.646          37.000  
E08  28097807.604                        -675.970          22.000    28097840.410                        -500.034          24.000  
E03  27441413.711   144205597.435       -2054.938          35.000    27441426.346                       -1535.478          23.000  
G01  21659963.541   113823873.674        1347.851          43.000    21659967.213    84998368.875        1007.031          35.000  
G09  25013997.316   131449444.304       -2322.992          36.000    25014010.158    98160336.572       -1734.266          28.000  
G30  23207933.553   121958553.248        2526.679          27.000    23207940.046    91072945.725        1886.645          27.000  
E02  26135791.913   137344534.526        1256.496          37.000    26135806.640   102562520.522         938.362          34.000  
C23  23077382.088   121272461.406        -300.120          46.000    23077381.939    90560602.780        -224.197          44.000  
C25  25653304.954   134808995.850       -2438.250          31.000    25653311.879   100669106.318       -1820.536          32.000  
C27  24954389.853   131136213.351        2406.512          32.000    24954396.677    97926419.521        1796.396          32.000  
C28  22554807.446   118526308.181         340.968          41.000    22554812.944    88509927.051         254.644          37.000  
C37  24228480.296   127321535.230        2172.250          37.000    24228492.863    95077808.381        1622.672          36.000  
C39  37483365.220   196976420.372       -1067.512          37.000    37483367.500   147092794.383        -796.627          26.000  
E11  26046855.116   136877158.454       -1278.080          30.000                                                                  
G02  21314339.749   112007606.268         238.485          46.000                                                                  
G07  21396489.386   112439325.926         774.944          39.000                                                                  
G03  25882219.594   136011999.046        2126.486          29.000                                                                  
G17  24371620.154                        1812.965          26.000                                                                  
G21  21322524.208   112050629.216       -1404.222          45.000                                                                  
C38  41045082.129   215693364.244        1515.224          31.000                                                                  
> 2025 01 17 07 41 01.0030000  0 20                     
E25  25429742.440   133634207.057           3.332          40.000    25429753.789    99791815.845           2.946          38.000  
E08  28097933.892                        -670.518          21.000    28097967.430                        -500.722          24.000  
E03  27441805.373   144207652.929       -2055.716          35.000    27441817.105                       -1534.263          23.000  
G01  21659707.144   113822526.038        1347.156          43.000    21659710.927    84997362.546        1006.006          35.000  
G09  25014439.172   131451767.097       -2322.825          36.000    25014452.203    98162071.203       -1735.037          28.000  
G30  23207452.949   121956026.697        2526.102          27.000    23207460.000    91071059.056        1885.743          27.000  
E02  26135552.374   137343277.786        1256.371          37.000    26135567.476   102561582.054         938.573          33.000  
C23  23077439.412   121272761.808        -300.494          46.000    23077439.144    90560827.108        -224.599          44.000  
C25  25653769.636   134811434.640       -2439.515          31.000    25653776.026   100670927.461       -1820.941          32.000  
C27  24953932.251   131133807.407        2406.194          33.000    24953938.878    97924622.914        1796.077          31.000  
C28  22554742.410   118525967.576         340.069          41.000    22554748.192    88509672.704         253.926          37.000  
C37  24228067.269   127319362.930        2172.112          37.000    24228079.549    95076186.219        1621.994          36.000  
C39  37483568.069   196977488.423       -1068.623          37.000    37483569.863   147093591.922        -796.788          26.000  
E11  26047098.458   136878436.740       -1277.969          30.000                                                                  
G02  21314294.717   112007368.183         237.668          46.000                                                                  
G07  21396342.014   112438551.036         774.387          39.000                                                                  
G03  25881814.776   136009872.371        2126.211          28.000                                                                  
G17  24371271.891                        1814.058          25.000                                                                  
G21  21322791.517   112052033.732       -1404.866          45.000                                                                  
C38  41044793.470   215691848.717        1515.854          31.000                                                                  
> 2025 01 17 07 41 02.0030000  0 20                     
E25  25429741.560   133634203.792           3.131          40.000    25429753.077    99791813.429           2.505          38.000  
E08  28098062.948                        -668.301          20.000    28098094.493                        -501.837          25.000  
E03  27442197.230   144209708.687       -2056.015          36.000    27442207.465                       -1521.428          23.000  
G01  21659450.825   113821179.243        1346.063          43.000    21659454.521    84996356.827        1005.115          35.000  
G09  25014881.270   131454090.091       -2323.099          36.000    25014894.313    98163805.896       -1734.673          28.000  
G30  23206972.188   121953500.823        2525.833          27.000    23206979.277    91069172.788        1885.617          27.000  
E02  26135313.446   137342021.233        1256.661          37.000    26135328.451   102560643.765         937.526          33.000  
C23  23077496.730   121273062.879        -301.578          46.000    23077496.431    90561051.926        -225.160          44.000  
C25  25654234.510   134813873.892       -2440.189          31.000    25654240.210   100672749.018       -1822.714          32.000  
C27  24953474.456   131131402.076        2405.224          32.000    24953481.226    97922826.675        1795.988          31.000  
C28  22554677.687   118525627.674         339.453          41.000    22554683.650    88509418.874         253.330          37.000  
C37  24227653.486   127317191.001        2171.311          37.000    24227666.305    95074564.321        1621.519          36.000  
C39  37483771.411   196978556.814       -1068.992          37.000    37483772.713                        -798.306          26.000  
E11  26047341.669   136879715.776       -1279.636          29.000                                                                  
G02  21314249.676   112007131.021         236.576          46.000                                                                  
G07  21396194.837   112437776.997         773.516          39.000                                                                  
G03  25881410.147   136007745.667        2126.996          28.000                                                                  
G17  24370924.545                        1810.405          25.000                                                                  
G21  21323058.600   112053439.170       -1405.983          45.000                                                                  
C38  41044505.327   215690333.336        1515.069          31.000                                                                  
> 2025 01 17 07 41 03.0030000  0 20                     
E25  25429741.357   133634200.956           2.392          39.000    25429752.649    99791811.312           1.779          38.000  
E08  28098191.329                        -672.255          18.000    28098222.340                        -500.878          24.000  
E03  27442588.498   144211764.867       -2056.476          35.000    27442599.536                       -1534.993          23.000  
G01  21659194.666   113819833.371        1345.123          42.000    21659198.319    84995351.777        1004.242          35.000  
G09  25015323.419   131456413.326       -2323.527          35.000    25015336.510    98165540.676       -1734.557          28.000  
G30  23206488.494                        2525.350          26.000    23206500.651    91067287.180        1884.477          27.000  
E02  26135075.036   137340765.013        1255.685          37.000    26135089.102   102559705.620         938.122          33.000  
C23  23077553.945   121273364.699        -302.575          45.000    23077553.838    90561277.283        -225.782          44.000  
C25  25654698.963   134816313.764       -2440.684          30.000    25654704.507   100674570.970       -1822.518          32.000  
C27  24953016.713   131128997.401        2404.456          31.000    24953023.574    97921030.941        1795.462          32.000  
C28  22554613.263   118525288.583         338.719          40.000    22554619.108    88509165.620         253.023          37.000  
C37  24227239.514   127315019.669        2170.683          35.000    24227253.100    95072942.828        1621.403          36.000  
C39  37483974.814   196979625.742       -1069.517          35.000    37483975.789                        -797.517          26.000  
E11  26047585.335   136880995.528       -1280.487          29.000                                                                  
G02  21314204.503   112006894.881         235.353          45.000                                                                  
G07  21396047.629   112437003.944         772.310          38.000                                                                  
G03  25881005.396   136005619.102        2126.793          27.000                                                                  
G17  24370577.035                        1811.823          23.000                                                                  
G21  21323326.422   112054845.645       -1407.298          44.000                                                                  
C38  41044216.893   215688818.173        1514.860          30.000                                                                  
> 2025 01 17 07 41 04.0030000  0 20                     
E25  25429740.743   133634198.477           2.344          39.000    25429752.205    99791809.454           1.498          37.000  
E08  28098319.501                        -663.718          17.000    28098349.371                        -500.701          24.000  
E03  27442979.796   144213821.414       -2056.492          34.000    27442990.359                       -1531.555          22.000  
G01  21658938.688   113818488.384        1344.696          41.000    21658942.263    84994347.408        1003.735          34.000  
G09  25015765.471   131458736.720       -2323.118          34.000    25015778.676    98167275.763       -1734.923          27.000  
G30  23206008.653                        2524.208          26.000    23206019.703    91065402.015        1884.674          27.000  
E02  26134835.691   137339508.988        1256.246          36.000    26134850.096   102558767.686         938.119          33.000  
C23  23077611.577   121273667.239        -302.791          45.000    23077611.431    90561503.195        -226.075          43.000  
C25  25655163.201   134818754.219       -2440.784          31.000    25655168.983   100676393.379       -1822.661          31.000  
C27  24952559.421   131126593.329        2404.115          32.000    24952566.064    97919235.702        1794.985          30.000  
C28  22554549.077   118524950.233         338.159          40.000    22554554.711    88508912.944         252.646          36.000  
C37  24226826.223   127312848.768        2170.797          34.000    24226840.163    95071321.697        1621.228          36.000  
C39  37484178.227   196980695.112       -1069.630          36.000    37484179.515                        -798.215          25.000  
E11  26047828.647   136882276.042       -1280.833          31.000                                                                  
G02  21314159.510   112006659.695         234.733          44.000                                                                  
G07  21395900.784   112436231.797         771.948          37.000                                                                  
G03  25880600.809   136003492.626        2126.814          27.000                                                                  
G17  24370229.754                        1815.066          23.000                                                                  
G21  21323594.241   112056253.088       -1407.777          42.000                                                                  
C38  41043928.741   215687303.235        1514.729          31.000                                                                  
> 2025 01 17 07 41 05.0030000  0 20                     
E25  25429740.175   133634196.369           2.320          38.000    25429751.782    99791807.862           1.508          36.000  
E08  28098449.483                        -702.711          15.000    28098478.502                        -502.592          24.000  
E03  27443371.389   144215878.299       -2056.927          34.000    27443381.329                       -1540.288          22.000  
G01  21658682.787   113817144.306        1343.744          41.000    21658686.261    84993343.726        1003.522          33.000  
G09  25016207.828   131461060.413       -2323.905          34.000    25016220.724    98169010.972       -1735.335          27.000  
G30  23205526.750                        2523.907          25.000    23205539.460    91063517.513        1883.807          26.000  
E02  26134596.424   137338253.249        1256.140          35.000    26134611.020   102557829.955         937.984          32.000  
C23  23077669.015   121273970.487        -303.638          44.000    23077669.143    90561729.643        -226.459          43.000  
C25  25655627.624   134821195.216       -2441.090          29.000    25655633.463   100678216.215       -1823.792          31.000  
C27  24952102.693   131124189.831        2403.622          30.000    24952108.651    97917440.825        1795.657          30.000  
C28  22554484.791   118524612.669         337.511          39.000    22554490.595    88508660.891         252.008          36.000  
C37  24226413.031   127310678.351        2170.234          33.000    24226427.151    95069700.958        1620.979          35.000  
C39  37484381.576   196981764.949       -1069.388          34.000    37484383.290                        -797.589          25.000  
E11  26048072.304   136883557.231       -1281.044          29.000                                                                  
G02  21314115.079   112006425.500         233.898          43.000                                                                  
G07  21395754.115   112435460.604         770.787          37.000                                                                  
G03  25880196.105   136001366.173        2126.047          26.000                                                                  
G17  24369885.674                        1805.307          22.000                                                                  
G21  21323862.332   112057661.521       -1408.760          42.000                                                                  
C38  41043640.208   215685788.474        1514.563          29.000                                                                  
> 2025 01 17 07 41 06.0030000  0 20                     
E25  25429740.097   133634194.439           1.722          39.000    25429751.382    99791806.414           1.750          36.000  
E08                                                                  28098605.394                        -501.447          23.000  
G01  21658426.887   113815800.876        1343.683          40.000    21658430.543    84992340.514        1003.888          33.000  
G09  25016650.309   131463384.079       -2323.286          34.000    25016662.741    98170746.132       -1734.634          26.000  
G30  23205045.706                        2522.547          25.000    23205060.394    91061633.298        1883.752          27.000  
E02  26134357.732   137336997.516        1256.304          36.000    26134372.208   102556892.258         937.341          33.000  
C23  23077727.111   121274274.243        -304.105          44.000    23077727.023    90561956.481        -227.003          43.000  
C25  25656091.814   134823636.545       -2441.054          29.000    25656097.999   100680039.275       -1822.491          31.000  
C27  24951645.943   131121786.778        2403.636          31.000    24951651.404    97915646.407        1793.854          30.000  
C28  22554420.455   118524275.674         336.575          39.000    22554426.522    88508409.201         251.982          36.000  
C37  24225999.345   127308508.222        2170.935          33.000    24226014.273    95068080.436        1620.489          34.000  
C39  37484585.099   196982835.034       -1070.105          35.000    37484586.549                        -798.852          26.000  
E03  27443762.694   144217935.371       -2057.316          34.000                                                                  
E11  26048315.794   136884839.021       -1282.328          29.000                                                                  
G02  21314070.578   112006192.040         233.511          43.000                                                                  
G07  21395607.482   112434690.130         770.223          37.000                                                                  
G03  25879791.228   135999239.477        2126.844          26.000                                                                  
G17  24369540.048                        1810.483          22.000                                                                  
G21  21324130.586   112059070.736       -1409.410          42.000                                                                  
C38  41043351.514   215684273.684        1514.799          30.000                                                                  
> 2025 01 17 07 41 07.0030000  0 20                     
E25  25429739.900   133634192.682           1.703          38.000    25429751.039    99791805.102           1.266          36.000  
E08                                                                  28098734.194                        -502.218          23.000  
G01  21658171.218   113814458.226        1342.316          40.000    21658174.816    84991337.892        1002.283          33.000  
G09  25017092.516   131465707.749       -2323.106          34.000    25017105.043    98172481.403       -1735.194          26.000  
G30  23204565.632                        2521.905          25.000    23204579.772    91059749.543        1883.064          27.000  
E02  26134119.354   137335741.918        1255.777          36.000    26134133.130   102555954.642         938.002          33.000  
C23  23077784.830   121274578.527        -304.452          44.000    23077784.973    90562183.706        -227.450          43.000  
C25  25656556.762   134826078.324       -2441.735          28.000    25656562.530   100681862.729       -1824.048          30.000  
C27  24951188.943   131119384.129        2402.517          30.000    24951194.283    97913852.230        1793.005          30.000  
C28  22554355.965   118523939.237         336.191          38.000    22554362.387    88508158.026         250.648          36.000  
C37  24225585.771   127306338.394        2170.396          31.000    24225601.405    95066460.123        1620.291          34.000  
C39  37484788.585   196983905.401       -1070.492          34.000    37484791.195                        -798.202          25.000  
E03  27444154.433   144219992.623       -2057.282          34.000                                                                  
E11  26048559.353   136886121.364       -1282.570          28.000                                                                  
G02  21314026.167   112005959.404         232.174          43.000                                                                  
G07  21395461.018   112433920.373         769.876          37.000                                                                  
G03  25879386.340   135997112.678        2127.127          26.000                                                                  
G17  24369197.355                        1803.698          22.000                                                                  
G21  21324398.879   112060480.744       -1410.476          42.000                                                                  
C38  41043062.797   215682758.953        1514.958          29.000                                                                  
> 2025 01 17 07 41 08.0030000  0 20                     
E25  25429739.210   133634191.019           1.781          38.000    25429750.867    99791803.887           1.052          35.000  
E08                                                                  28098862.119                        -502.464          23.000  
E03  27444546.151   144222049.986       -2057.436          33.000    27444554.890                       -1539.170          22.000  
G01  21657915.695   113813116.175        1341.852          39.000    21657919.329    84990335.768        1001.636          33.000  
G09  25017534.719   131468031.421       -2323.650          33.000    25017547.222    98174216.569       -1735.204          27.000  
G30  23204088.421                        2522.393          24.000    23204099.519    91057866.052        1883.042          28.000  
E02  26133880.233   137334486.306        1255.249          36.000    26133894.349   102555017.005         937.643          33.000  
C23  23077843.184   121274883.281        -305.076          44.000    23077842.810    90562411.285        -227.642          43.000  
C25  25657021.660   134828520.404       -2442.060          28.000    25657026.904   100683684.2921      -1823.555          31.000  
C27  24950732.011   131116981.790        2403.286          30.000    24950737.123    97912058.305        1793.959          31.000  
C28  22554292.160   118523603.325         335.877          38.000    22554298.392    88507907.153         250.444          36.000  
C37  24225172.712   127304168.855        2169.623          31.000    24225188.578    95064840.009        1620.083          35.000  
C39  37484992.426   196984976.019       -1071.012          35.000    37484994.961                        -798.862          26.000  
E11  26048803.586   136887404.146       -1283.026          28.000                                                                  
G02  21313982.196   112005727.473         231.732          43.000                                                                  
G07  21395314.490   112433151.329         768.650          36.000                                                                  
G03  25878981.481   135994985.736        2127.198          26.000                                                                  
G17  24368852.935                        1813.951          22.000                                                                  
G21  21324667.180   112061891.501       -1411.078          41.000                                                                  
C38  41042774.247   215681244.103        1515.585          29.000                                                                  
> 2025 01 17 07 41 09.0030000  0 20                     
E25  25429739.023   133634189.593           1.362          38.000    25429750.461    99791802.786           1.127          35.000  
E08                                                                  28098990.646                        -503.365          22.000  
E03  27444937.872   144224107.531       -2057.618          34.000    27444945.828                       -1541.967          21.000  
G01  21657660.272   113811774.870        1340.973          39.000    21657663.870    84989334.091        1000.958          32.000  
G09  25017977.155   131470355.122       -2323.625          33.000    25017989.516    98175951.758       -1735.393          25.000  
G30  23203609.369                        2524.447          24.000    23203620.927    91055983.024        1883.011          27.000  
E02  26133641.184   137333230.713        1255.594          35.000    26133655.436   102554079.425         937.099          32.000  
C23  23077900.963   121275188.581        -305.625          44.000    23077900.974    90562639.258        -228.126          43.000  
C25  25657486.882   134830962.969       -2442.676          28.000    25657491.808   100685508.226       -1823.012          29.000  
C27  24950275.272   131114580.094        2400.873          31.000    24950279.308    97910254.6941       1794.836          29.000  
C28  22554228.429   118523268.032         334.525          39.000    22554234.448    88507656.742         250.446          35.000  
C37  24224759.305   127301999.668        2168.776          32.000    24224775.698    95063220.148        1619.182          34.000  
C39  37485196.012   196986046.843       -1071.182          34.000    37485197.746                        -798.687          25.000  
E11  26049048.142   136888687.475       -1283.481          29.000                                                                  
G02  21313938.240   112005496.367         230.649          43.000                                                                  
G07  21395168.335   112432383.003         768.459          36.000                                                                  
G03  25878576.747   135992858.625        2127.353          26.000                                                                  
G17  24368508.375                        1806.918          23.000                                                                  
G21  21324935.815   112063303.098       -1411.971          41.000                                                                  
C38  41042486.724   215679729.374        1514.696          29.000                                                                  
> 2025 01 17 07 41 10.0030000  0 20                     
E25  25429738.816   133634188.439           1.075          38.000    25429750.206    99791801.962           0.586          36.000  
E08                                                                  28099120.503                        -506.924          22.000  
E03  27445329.885   144226165.379       -2057.872          34.000    27445338.080                       -1538.617          21.000  
G01  21657404.883   113810434.387        1339.825          39.000    21657408.697    84988333.083        1000.366          32.000  
G09  25018419.523   131472678.939       -2323.498          32.000    25018431.947    98177687.073       -1735.130          25.000  
G30  23203129.180                        2515.957          22.000    23203141.566    91054100.471        1882.084          27.000  
E02  26133402.047   137331975.337        1254.903          35.000    26133416.405   102553141.977         937.652          33.000  
C23  23077959.337   121275494.514        -306.102          44.000    23077959.254    90562867.734        -228.811          43.000  
C25  25657952.427   134833405.924       -2443.317          28.000    25657956.751   100687332.579       -1824.947          29.000  
C27  24949818.872   131112178.801        2400.714          30.000    24949821.460    97908461.575        1793.303          29.000  
C28  22554164.946   118522933.380         334.405          39.000    22554170.698    88507406.892         249.173          35.000  
C37  24224345.042   127299830.861        2168.197          31.000    24224362.888    95061600.585        1619.478          34.000  
C39  37485400.002   196987118.112       -1070.907          34.000    37485401.174                        -798.676          24.000  
E11  26049292.184   136889971.480       -1283.870          28.000                                                                  
G02  21313894.221   112005266.155         229.981          43.000                                                                  
G07  21395022.226   112431615.568         767.408          36.000                                                                  
G03  25878172.049   135990731.459        2127.120          25.000                                                                  
G17  24368165.974                        1809.674          23.000                                                                  
G21  21325204.579   112064715.582       -1412.935          41.000                                                                  
C38  41042198.419   215678214.713        1514.773          28.000                                                                  
> 2025 01 17 07 41 11.0030000  0 20                     
E25  25429738.655   133634187.505           0.583          38.000    25429750.001    99791801.272           0.676          36.000  
E08                                                                  28099249.302                        -506.314          22.000  
E03  27445722.080   144228223.457       -2058.289          34.000    27445730.636                       -1535.584          21.000  
G01  21657149.778   113809094.606        1339.307          39.000    21657153.718    84987332.614        1000.787          32.000  
G09  25018861.902   131475002.846       -2324.428          32.000    25018874.463    98179422.448       -1735.327          24.000  
G30  23202646.273                        2517.418          21.000    23202660.374    91052218.394        1882.080          27.000  
E02  26133163.066   137330720.028        1255.367          35.000    26133177.541   102552204.582         937.675          32.000  
C23  23078017.231   121275801.001        -306.590          44.000    23078017.546    90563096.626        -229.164          43.000  
C25  25658417.188   134835849.303       -2443.859          27.000    25658421.828   100689157.198       -1824.799          30.000  
C27  24949362.243   131109777.883        2401.207          29.000    24949364.702    97906668.791        1792.760          29.000  
C28  22554101.358   118522599.365         333.747          39.000    22554107.192    88507157.503         249.142          35.000  
C37  24223930.985   127297662.285        2168.467          30.000    24223950.385    95059981.256        1619.949          34.000  
C39  37485604.026   196988189.670       -1071.979          34.000    37485603.772                        -794.397          22.000  
E11  26049536.140   136891256.085       -1284.761          28.000                                                                  
G02  21313850.448   112005036.759         228.960          43.000                                                                  
G07  21394876.516   112430848.908         766.213          36.000                                                                  
G03  25877767.251   135988604.178        2127.308          26.000                                                                  
G17  24367823.858                        1809.396          24.000                                                                  
G21  21325473.640   112066128.900       -1413.808          41.000                                                                  
C38  41041910.262   215676700.146        1514.618          29.000                                                                  
> 2025 01 17 07 41 12.0030000  0 20                     
E25  25429739.179   133634186.515           1.139          39.000    25429749.928    99791800.557           0.524          36.000  
E08                                                                  28099376.122                        -499.661          22.000  
E03  27446114.177   144230281.493       -2057.997          35.000    27446122.402                       -1544.874          20.000  
G01  21656894.790   113807755.385        1338.593          39.000    21656898.869    84986332.587         999.750          33.000  
G09  25019303.966   131477326.514       -2323.677          32.000    25019316.982    98181157.636       -1734.592          23.000  
G30  23202165.523                        2513.622          22.000    23202181.359    91050336.471        1882.168          27.000  
E02  26132924.321   137329464.679        1255.041          36.000    26132938.710   102551267.140         937.410          32.000  
C23  23078075.655   121276107.842        -307.289          44.000    23078076.005    90563325.755        -229.390          43.000  
C25  25658882.377   134838292.905       -2443.944          27.000    25658887.010   100690981.952       -1824.924          30.000  
C27  24948905.555   131107377.330        2400.450          32.000    24948908.285    97904876.170        1792.403          29.000  
C28  22554038.099   118522265.732         333.293          39.000    22554043.762    88506908.367         248.429          35.000  
C37  24223517.866   127295494.011        2167.374          31.000    24223537.734    95058362.032        1618.705          35.000  
C39  37485807.846   196989261.387       -1072.475          34.000    37485807.974                        -801.840          22.000  
E11  26049780.746   136892541.063       -1285.372          28.000                                                                  
G02  21313806.950   112004807.960         228.472          43.000                                                                  
G07  21394730.628   112430082.802         765.728          37.000                                                                  
G03  25877362.217   135986476.530        2127.458          25.000                                                                  
G17  24367481.815                        1809.101          24.000                                                                  
G21  21325742.808   112067542.807       -1414.302          41.000                                                                  
C38  41041622.355   215675185.344        1515.237          28.000                                                                  
> 2025 01 17 07 41 13.0030000  0 19                     
E25  25429739.037   133634185.656           0.874          39.000    25429749.751    99791799.905           0.920          36.000  
E08  28099480.137                        -663.302          14.000    28099504.601                        -509.461          21.000  
E03  27446505.711   144232339.630       -2058.153          35.000    27446514.009                       -1534.858          20.000  
G01  21656640.092   113806416.749        1338.324          40.000    21656644.233    84985332.941         999.811          33.000  
G07  21394584.909   112429317.364         764.828          36.000    21394444.853                         616.700          10.000  
G09  25019746.368   131479650.194       -2323.917          32.000    25019757.078                       -1740.963          22.000  
G30  23201684.541                        2518.458          21.000    23201701.865    91048454.990        1880.995          27.000  
E02  26132685.530   137328209.225        1255.984          36.000    26132699.775   102550329.660         937.083          32.000  
C23  23078134.280   121276415.115        -307.625          44.000    23078134.348    90563555.219        -229.793          43.000  
C25  25659347.589   134840736.834       -2444.454          27.000    25659352.040   100692806.872       -1824.775          30.000  
C27  24948448.941   131104977.065        2400.295          31.000    24948450.912    97903083.743        1792.439          29.000  
C28  22553974.467   118521932.592         332.928          39.000    22553980.316    88506659.590         248.042          35.000  
C37  24223106.446   127293325.829        2168.502          32.000    24223125.188    95056742.934        1619.546          34.000  
C39  37486011.589   196990333.165       -1071.476          35.000    37486012.334                        -807.827          22.000  
E11  26050024.684   136893826.402       -1285.515          28.000                                                                  
G02  21313763.525   112004579.871         227.684          43.000                                                                  
G03  25876957.566   135984348.674        2127.717          26.000                                                                  
G21  21326011.802   112068957.438       -1414.905          41.000                                                                  
C38  41041334.210   215673670.519        1514.790          28.000                                                                  
> 2025 01 17 07 41 14.0030000  0 20                     
E25  25429738.995   133634184.755           1.217          39.000    25429749.577    99791799.210           1.060          35.000  
E08                                                                  28099635.003                        -508.210          21.000  
E03  27446897.684   144234397.722       -2057.791          35.000    27446905.294                       -1528.641          19.000  
G01  21656385.245   113805078.596        1337.976          39.000    21656389.736    84984333.720         998.743          32.000  
G09  25020188.254   131481973.599       -2322.856          31.000    25020198.980                       -1735.587          22.000  
G30  23201203.778                        2517.142          20.000    23201223.460    91046573.595        1881.392          26.000  
E02  26132447.150   137326953.629        1255.375          36.000    26132460.707   102549392.018         937.974          32.000  
C23  23078193.084   121276722.670        -307.650          44.000    23078192.971    90563784.885        -229.743          42.000  
C25  25659812.141   134843180.858       -2444.573          26.000    25659817.243   100694632.003       -1825.108          30.000  
C27  24947992.565   131102577.039        2399.453          31.000    24947994.941    97901291.564        1791.742          29.000  
C28  22553911.437   118521599.824         332.165          39.000    22553917.038    88506411.014         249.010          35.000  
C37  24222693.780   127291157.739        2168.965          32.000    24222712.674    95055123.925        1619.357          33.000  
C39  37486215.907   196991405.059       -1072.138          34.000    37486216.411                        -803.331          22.000  
E11  26050268.929   136895112.106       -1285.275          27.000                                                                  
G02  21313720.309   112004352.312         227.392          43.000                                                                  
G07  21394439.258   112428552.379         764.856          36.000                                                                  
G03  25876552.411   135982220.416        2128.738          26.000                                                                  
G17  24366799.089   128048393.3193       1806.594          26.000                                                                  
G21  21326280.984   112070372.615       -1415.394          41.000                                                                  
C38  41041045.564   215672155.475        1514.780          29.000                                                                  
> 2025 01 17 07 41 15.0030000  0 20                     
E25  25429738.789   133634183.829           0.885          39.000    25429749.229    99791798.551           0.167          36.000  
E08                                                                  28099763.126                        -494.488          22.000  
E03  27447289.350   144236455.787       -2058.187          36.000    27447295.419                       -1538.974          19.000  
G01  21656130.587   113803740.968        1337.213          39.000    21656135.171    84983334.811         998.669          33.000  
G09  25020630.352   131484296.834       -2322.380          31.000    25020641.443                       -1732.707          22.000  
G30  23200724.481                        2519.267          19.000    23200743.884    91044692.551        1880.838          27.000  
E02  26132208.943   137325697.886        1255.592          36.000    26132221.803   102548454.277         938.258          33.000  
C23  23078251.782   121277030.582        -308.306          44.000    23078251.523    90564014.808        -230.030          43.000  
C25  25660277.043   134845625.011       -2444.050          26.000    25660282.130   100696457.220       -1825.114          30.000  
C27  24947536.091   131100177.214        2399.923          31.000    24947538.432    97899499.474        1792.062          30.000  
C28  22553848.298   118521267.403         332.071          39.000    22553853.715    88506162.827         247.604          36.000  
C37  24222281.128   127288989.756        2167.841          31.000    24222300.121    95053504.957        1618.894          34.000  
C39  37486420.000   196992477.003       -1071.999          34.000    37486420.409                        -800.578          23.000  
E11  26050513.918   136896398.253       -1286.293          27.000                                                                  
G02  21313676.921   112004125.347         226.782          43.000                                                                  
G07  21394293.559   112427787.971         764.048          36.000                                                                  
G03  25876147.117   135980091.888        2128.973          26.000                                                                  
G17  24366456.950   128046595.3182       1805.768          27.000                                                                  
G21  21326550.377   112071788.404       -1416.201          41.000                                                                  
C38  41040757.156   215670640.148        1515.686          29.000                                                                  
> 2025 01 17 07 41 16.0030000  0 20                     
E25  25429738.212   133634182.899           0.801          39.000    25429749.105    99791797.840           0.438          36.000  
E08  28099870.701                        -676.031          16.000    28099892.661                        -502.878          22.000  
E03  27447681.459   144238513.825       -2058.216          35.000    27447688.101                       -1540.701          19.000  
G01  21655875.887   113802403.813        1336.920          39.000    21655880.565    84982336.319         998.676          32.000  
G09  25021072.596   131486619.987       -2323.161          31.000    25021082.026                       -1736.163          22.000  
G30  23200246.747                        2508.157          21.000    23200263.186    91042811.785        1880.702          27.000  
E02  26131970.152   137324442.035        1255.368          37.000    26131982.984   102547516.473         937.742          33.000  
C23  23078310.542   121277338.806        -308.688          44.000    23078310.117    90564244.990        -230.537          43.000  
C25  25660741.963   134848069.428       -2444.788          26.000    25660746.880   100698282.5481      -1824.837          30.000  
C27  24947080.092   131097777.647        2399.700          32.000    24947081.081    97897707.608        1791.419          29.000  
C28  22553785.082   118520935.368         331.560          39.000    22553790.421    88505914.862         247.740          35.000  
C37  24221868.464   127286821.828        2168.302          30.000    24221887.471    95051886.112        1618.631          34.000  
C39  37486624.288   196993549.018       -1072.475          34.000    37486623.836                        -793.489          23.000  
E11  26050758.921   136897684.658       -1286.322          27.000                                                                  
G02  21313633.938   112003898.990         225.802          43.000                                                                  
G07  21394148.010   112427024.131         763.086          36.000                                                                  
G03  25875741.888   135977963.002        2129.013          27.000                                                                  
G17  24366117.946   128044813.5133       1805.534          27.000                                                                  
G21  21326820.032   112073204.792       -1417.027          41.000                                                                  
C38  41040468.815   215669124.656        1515.865          29.000                                                                  
> 2025 01 17 07 41 17.0030000  0 20                     
E25  25429738.071   133634182.186           0.759          39.000    25429749.039    99791797.321           0.599          36.000  
E08  28100002.389                        -676.708          16.000    28100020.780                        -504.256          23.000  
E03  27448073.029   144240572.089       -2058.168          35.000    27448080.772                       -1538.703          20.000  
G01  21655621.565   113801067.451        1336.053          39.000    21655626.105    84981338.447         996.582          32.000  
G09  25021514.579   131488943.153       -2322.918          31.000    25021523.036                       -1728.641          22.000  
G30  23199767.178                        2519.443          20.000    23199783.935    91040931.406        1880.600          28.000  
E02  26131731.189   137323186.297        1255.722          37.000    26131743.993   102546578.724         938.020          33.000  
C23  23078369.390   121277647.593        -308.969          44.000    23078368.816    90564475.586        -230.801          43.000  
C25  25661207.368   134850514.153       -2443.792          25.000    25661213.010   100700108.272       -1825.874          31.000  
C27  24946624.532   131095378.581        2398.685          32.000    24946625.263    97895916.059        1791.279          29.000  
C28  22553722.505   118520603.947         331.213          39.000    22553727.425    88505667.361         247.670          36.000  
C37  24221456.449   127284654.332        2167.139          29.000    24221474.995    95050267.513        1618.787          34.000  
C39  37486828.355   196994621.344       -1072.068          34.000    37486828.047                        -792.824          23.000  
E11  26051003.825   136898971.706       -1287.464          27.000                                                                  
G02  21313590.907   112003673.466         225.169          43.000                                                                  
G07  21394002.877   112426261.057         762.982          36.000                                                                  
G03  25875336.902   135975834.005        2129.440          27.000                                                                  
G17  24365774.945   128043011.2423       1805.052          28.000                                                                  
G21  21327089.885   112074622.024       -1417.537          41.000                                                                  
C38  41040180.248   215667609.312        1515.909          28.000                                                                  
> 2025 01 17 07 41 18.0030000  0 20                     
E25  25429737.735   133634181.701           0.305          39.000    25429748.854    99791796.922                          36.000  
E08  28100132.564                        -682.137          17.000    28100150.549                        -498.841          23.000  
E03  27448464.324   144242630.592       -2058.901          35.000    27448472.565                       -1530.655          19.000  
G01  21655367.449   113799731.817        1335.376          39.000    21655371.775    84980341.012         996.924          32.000  
G09  25021956.644   131491266.395       -2323.130          31.000    25021964.756                       -1731.254          23.000  
G30  23199287.748                        2518.212          20.000    23199303.923    91039051.420        1879.940          28.000  
E02  26131492.415   137321930.614        1255.679          37.000    26131505.076   102545641.055         937.365          33.000  
C23  23078428.411   121277956.964        -309.880          44.000    23078427.756    90564706.576        -231.288          43.000  
C25  25661672.576   134852959.506       -2446.094          24.000    25661678.217   100701934.230       -1825.699          31.000  
C27  24946169.042   131092979.933        2398.569          32.000    24946167.862    97894124.900        1790.031          29.000  
C28  22553659.682   118520273.142         330.653          39.000    22553664.412    88505420.345         246.684          36.000  
C37  24221044.283   127282487.158        2166.719          29.000    24221062.463    95048649.175        1618.064          34.000  
C39  37487032.415   196995694.014       -1072.861          35.000    37487031.800                        -803.301          22.000  
E11  26051248.766   136900259.309       -1287.943          28.000                                                                  
G02  21313548.347   112003448.762         224.217          42.000                                                                  
G07  21393858.049   112425498.776         761.734          36.000                                                                  
G03  25874931.931   135973704.953        2128.632          27.000                                                                  
G17  24365432.027   128041209.3442       1804.681          28.000                                                                  
G21  21327359.836   112076040.070       -1418.403          41.000                                                                  
C38  41039891.333   215666093.964        1515.184          27.000                                                                  
> 2025 01 17 07 41 19.0030000  0 20                     
E25  25429737.396   133634181.188           0.481          38.000    25429748.775    99791796.530           0.577          36.000  
E08  28100263.648                        -678.321          16.000    28100277.593                        -512.615          23.000  
E03  27448856.184   144244689.067       -2058.372          35.000    27448863.419                       -1545.740          19.000  
G01  21655113.213   113798396.692        1334.912          39.000    21655117.681    84979343.983         996.790          32.000  
G09  25022398.676   131493589.454       -2322.630          31.000    25022407.364                       -1729.648          22.000  
G30  23198807.105                        2517.763          20.000    23198824.352    91037171.722        1879.613          28.000  
E02  26131253.206   137320674.792        1256.541          37.000    26131266.058   102544703.265         938.035          33.000  
C23  23078487.387   121278266.649        -309.855          44.000    23078486.783    90564937.832        -231.243          43.000  
C25  25662137.890                       -2444.844          24.000    25662144.351   100703760.328       -1825.729          31.000  
C27  24945713.248   131090581.532        2398.315          33.000    24945711.134    97892333.830        1790.712          29.000  
C28  22553596.581   118519942.729         330.427          39.000    22553601.612    88505173.607         246.531          36.000  
C37  24220631.888   127280320.078        2167.023          29.000    24220649.984    95047030.883        1618.388          34.000  
C39  37487236.170   196996766.734       -1072.492          35.000    37487235.995                        -805.432          22.000  
E11  26051493.679   136901547.221       -1287.957          28.000                                                                  
G02  21313505.561   112003224.645         223.661          42.000                                                                  
G07  21393712.887   112424737.019         761.626          36.000                                                                  
G03  25874526.569   135971575.474        2129.415          27.000                                                                  
G17  24365088.316   128039402.7702       1804.578          28.000                                                                  
G21  21327629.678   112077458.707       -1418.792          41.000                                                                  
C38  41039603.501   215664578.464        1515.090          27.000                                                                  
> 2025 01 17 07 41 20.0030000  0 20                     
E25  25429737.546   133634180.888           0.263          39.000    25429748.630    99791796.328           0.472          36.000  
E08  28100392.012                        -682.268          15.000    28100407.840                        -503.270          23.000  
E03  27449248.349   144246747.719       -2058.646          35.000    27449255.950                       -1537.367          19.000  
G01  21654858.893   113797062.335        1334.003          39.000    21654863.630    84978347.535         996.594          32.000  
G09  25022840.587   131495912.574       -2322.999          31.000    25022850.439                       -1731.074          22.000  
G30  23198329.558                        2519.398          20.000    23198345.947    91035292.408        1879.086          28.000  
E02  26131014.072   137319419.145        1255.607          37.000    26131027.096   102543765.626         937.346          33.000  
C23  23078546.347   121278576.911        -310.466          44.000    23078545.765    90565169.523        -231.719          43.000  
C25  25662601.941                       -2444.480          24.000    25662608.482   100705586.835       -1826.634          30.000  
C27  24945257.340   131088183.581        2397.744          33.000    24945256.433    97890543.143        1790.631          29.000  
C28  22553533.689   118519612.937         329.559          39.000    22553538.720    88504927.335         245.796          36.000  
C37  24220219.374   127278153.350        2166.886          29.000    24220237.793    95045412.881        1617.925          35.000  
C39  37487440.408   196997839.764       -1072.669          34.000    37487440.869                        -793.118          22.000  
E11  26051738.729   136902835.624       -1287.591          28.000                                                                  
G02  21313463.147   112003001.353         222.948          42.000                                                                  
G07  21393568.101   112423976.085         760.441          36.000                                                                  
G03  25874121.135   135969445.926        2129.559          27.000                                                                  
G17  24364747.097   128037598.6432       1803.408          28.000                                                                  
G21  21327899.815   112078878.192       -1419.838          41.000                                                                  
C38  41039315.765   215663062.921        1515.978          27.000                                                                  
> 2025 01 17 07 41 21.0030000  0 20                     
E25  25429737.761   133634180.802           0.051          39.000    25429748.715    99791796.270          -0.321          36.000  
E08  28100522.632                        -684.192          17.000    28100536.737                        -509.246          23.000  
E03  27449640.228   144248806.617       -2059.080          36.000    27449649.578                       -1540.480          18.000  
G01  21654604.925   113795728.680        1333.148          39.000    21654609.559    84977351.654         995.288          32.000  
G09  25023282.718   131498235.746       -2323.191          31.000    25023291.888                       -1734.387          21.000  
G30  23197848.297                        2515.271          21.000    23197867.808    91033413.545        1878.858          27.000  
E02  26130775.273   137318163.543        1255.150          36.000    26130788.127   102542827.990         937.596          32.000  
C23  23078605.265   121278887.724        -311.161          44.000    23078604.974    90565401.633        -232.410          43.000  
C25  25663070.042                       -2443.224          23.000    25663074.129   100707413.587       -1827.408          30.000  
C27  24944801.537   131085786.063        2397.253          33.000    24944799.845    97888752.820        1789.883          29.000  
C28  22553471.119   118519283.730         329.021          39.000    22553476.059    88504681.484         245.374          35.000  
C37  24219806.849   127275986.918        2166.743          30.000    24219825.777    95043795.134        1617.024          34.000  
C39  37487644.188   196998913.139       -1073.333          34.000    37487645.216                        -806.204          22.000  
E11  26051983.767   136904124.805       -1289.303          27.000                                                                  
G02  21313420.768   112002778.875         222.034          43.000                                                                  
G07  21393423.544   112423215.876         760.389          36.000                                                                  
G03  25873715.970   135967316.270        2129.078          27.000                                                                  
G17  24364404.442   128035794.9262       1803.417          29.000                                                                  
G21  21328170.090   112080298.502       -1420.771          41.000                                                                  
C38  41039027.366   215661547.545        1514.686          26.000                                                                  
> 2025 01 17 07 41 22.0030000  0 20                     
E25  25429737.598   133634181.048          -0.400          38.000    25429748.478    99791796.458          -0.894          36.000  
E08  28100650.267                        -683.483          18.000    28100666.172                        -511.200          24.000  
E03  27450032.601   144250865.770       -2058.847          35.000    27450039.946                       -1542.143          18.000  
G01  21654351.781   113794395.888        1332.312          39.000    21654355.815    84976356.412         994.727          32.000  
G09  25023725.021   131500559.113       -2324.475          31.000    25023733.657                       -1733.205          22.000  
G30  23197367.974                        2510.571          21.000    23197388.608    91031535.147        1878.757          28.000  
E02  26130536.925   137316908.118        1255.587          37.000    26130549.188   102541890.518         937.428          33.000  
C23  23078664.616   121279199.195        -311.767          44.000    23078664.167    90565634.226        -232.936          43.000  
C25  25663536.073                       -2447.949          24.000    25663540.232   100709240.696       -1826.362          31.000  
C27  24944344.968   131083389.118        2397.219          32.000    24944344.367    97886962.852        1790.707          29.000  
C28  22553408.543   118518955.256         328.244          39.000    22553413.485    88504436.165         245.282          36.000  
C37  24219395.015   127273821.028        2165.149          30.000    24219413.699    95042177.686        1617.191          35.000  
C39  37487848.094   196999986.916       -1074.532          34.000    37487849.495                        -805.796          22.000  
E11  26052229.424   136905414.599       -1290.132          28.000                                                                  
G02  21313378.380   112002557.308         221.117          42.000                                                                  
G07  21393278.999   112422456.564         758.557          36.000                                                                  
G03  25873310.997   135965186.538        2129.950          27.000                                                                  
G17  24364063.462   128033991.7792       1803.359          28.000                                                                  
G21  21328440.700   112081719.724       -1421.688          41.000                                                                  
C38  41038739.019   215660032.244        1515.047          26.000                                                                  
> 2025 01 17 07 41 23.0030000  0 20                     
E25  25429737.368   133634181.443          -0.344          38.000    25429748.794    99791796.717           0.128          36.000  
E08  28100778.224                        -672.853          18.000    28100795.496                        -509.579          23.000  
E03  27450424.570   144252925.213       -2059.915          35.000    27450432.129                       -1525.611          18.000  
G01  21654098.221   113793063.802        1331.738          39.000    21654102.323    84975361.670         994.232          32.000  
G09  25024167.155   131502882.396       -2323.280          31.000    25024177.392                       -1735.491          21.000  
G30  23196891.786                        2511.890          21.000    23196910.743    91029657.170        1877.979          27.000  
E02  26130297.747   137315652.782        1255.429          36.000    26130310.359   102540953.076         937.896          33.000  
C23  23078724.247   121279511.191        -312.076          44.000    23078723.577    90565867.219        -233.395          43.000  
C25  25664001.944                       -2447.760          23.000    25664005.881   100711068.182       -1827.839          30.000  
C27  24943889.218   131080992.674        2395.689          32.000    24943887.715    97885173.311        1789.571          29.000  
C28  22553346.070   118518627.354         327.312          39.000    22553351.209    88504191.315         244.601          35.000  
C37  24218982.436   127271655.372        2164.944          29.000    24219001.598    95040560.453        1617.292          34.000  
C39  37488052.489   197001060.917       -1074.005          34.000    37488053.854                        -804.497          23.000  
E11  26052475.667   136906704.950       -1290.682          28.000                                                                  
G02  21313336.495   112002336.541         220.261          42.000                                                                  
G07  21393134.562   112421697.987         758.560          36.000                                                                  
G03  25872905.776   135963056.686        2130.676          26.000                                                                  
G17  24363722.000   128032189.0902       1802.944          28.000                                                                  
G21  21328710.946   112083141.755       -1422.587          41.000                                                                  
C38  41038450.525   215658516.890        1515.571          26.000                                                                  
> 2025 01 17 07 41 24.0030000  0 20                     
E25  25429737.607   133634181.886          -0.259          38.000    25429749.037    99791797.128          -0.729          36.000  
E08  28100907.243                        -688.683          20.000    28100925.937                        -508.251          24.000  
E03  27450816.241   144254984.581       -2059.417          35.000    27450824.144                       -1537.772          17.000  
G01  21653844.685   113791732.274        1331.104          39.000    21653849.026    84974367.371         994.190          32.000  
G09  25024608.986   131505205.654       -2323.355          31.000    25024619.216                       -1735.085          21.000  
G30  23196415.537                        2512.300          22.000    23196432.297    91027779.513        1877.680          27.000  
E02  26130058.646   137314397.380        1255.541          36.000    26130071.599   102540015.620         938.079          33.000  
C23  23078783.899   121279823.586        -312.626          44.000    23078783.113    90566100.512        -233.591          43.000  
C25  25664464.922                       -2447.906          24.000    25664472.276   100712901.7781      -1827.242          30.000  
C27  24943433.397   131078596.415        2396.041          32.000    24943431.905    97883383.972        1789.245          29.000  
C28  22553283.673   118518299.848         327.458          39.000    22553288.953    88503946.832         243.651          35.000  
C37  24218569.609   127269489.848        2165.285          29.000    24218589.519    95038943.429        1616.779          34.000  
C39  37488256.546   197002135.073       -1074.214          34.000    37488256.409                        -799.429          22.000  
E11  26052721.317   136907995.660       -1291.323          28.000                                                                  
G02  21313294.847   112002116.425         219.434          42.000                                                                  
G07  21392990.456   112420940.012         757.702          36.000                                                                  
G03  25872500.447   135960926.633        2130.572          26.000                                                                  
G17  24363381.154   128030386.6962       1801.976          29.000                                                                  
G21  21328981.613   112084564.437       -1423.158          41.000                                                                  
C38  41038162.280   215657001.566        1514.907          27.000                                                                  
> 2025 01 17 07 41 25.0030000  0 20                     
E25  25429738.230   133634182.385          -0.352          38.000    25429749.099    99791797.495          -0.602          36.000  
E08  28101038.610                        -678.357          22.000    28101056.086                        -505.611          24.000  
E03  27451208.376   144257044.017       -2059.450          36.000    27451216.315                       -1543.345          17.000  
G01  21653591.583   113790401.324        1330.713          40.000    21653595.877    84973373.470         993.640          32.000  
G09  25025051.033   131507528.802       -2323.207          30.000    25025059.651                       -1730.840          20.000  
G30  23195939.947                        2507.987          22.000    23195954.660    91025902.098        1877.781          28.000  
E02  26129819.632   137313141.884        1255.960          36.000    26129832.555   102539078.151         937.345          33.000  
C23  23078843.604   121280136.364        -312.920          44.000    23078842.679    90566334.079        -233.513          43.000  
C25  25664929.539                       -2447.375          24.000    25664936.568   100714729.589       -1827.482          30.000  
C27  24942977.938   131076200.539        2395.565          32.000    24942976.199    97881594.815        1789.167          29.000  
C28  22553220.937   118517972.831         326.851          39.000    22553226.737    88503702.602         243.695          35.000  
C37  24218157.085   127267324.536        2165.403          29.000    24218177.426    95037326.459        1616.646          34.000  
C39  37488460.762   197003209.437       -1074.962          34.000    37488461.285                        -799.140          21.000  
E11  26052966.906   136909286.711       -1291.053          28.000                                                                  
G02  21313253.149   112001896.943         219.306          42.000                                                                  
G07  21392846.242   112420182.644         757.226          36.000                                                                  
G03  25872095.151   135958796.273        2130.126          27.000                                                                  
G17  24363037.860   128028584.0791       1801.491          29.000                                                                  
G21  21329252.458   112085987.763       -1423.702          41.000                                                                  
C38  41037873.701   215655486.009        1515.734          27.000                                                                  
> 2025 01 17 07 41 26.0030000  0 20                     
E25  25429738.303   133634182.999          -0.789          38.000    25429749.173    99791797.932          -0.671          36.000  
E08  28101165.235                        -681.828          23.000    28101185.922                        -507.449          24.000  
E03  27451600.359   144259103.589       -2059.908          36.000    27451608.531                       -1536.158          17.000  
G01  21653338.631   113789070.989        1329.901          40.000    21653342.675    84972380.074         992.438          32.000  
G09  25025493.180   131509851.844       -2323.067          30.000    25025502.260                       -1733.009          19.000  
G30  23195461.719                        2517.436          23.000    23195475.569    91024025.055        1877.019          27.000  
E02  26129580.340   137311886.382        1255.591          36.000    26129593.714   102538140.542         937.689          33.000  
C23  23078903.218   121280449.587        -313.469          44.000    23078902.140    90566567.980        -234.219          43.000  
C25  25665394.606                       -2448.134          23.000    25665403.585   100716557.628       -1827.811          30.000  
C27  24942522.170   131073804.935        2395.179          32.000    24942520.167    97879805.942        1788.638          29.000  
C28  22553158.821   118517646.303         326.066          39.000    22553164.484    88503458.751         243.414          35.000  
C37  24217745.193   127265159.422        2164.796          29.000    24217765.498    95035709.627        1616.849          34.000  
C39  37488665.473   197004283.892       -1074.732          34.000    37488665.772                        -799.050          22.000  
E11  26053212.423   136910578.360       -1291.700          28.000                                                                  
G02  21313211.355   112001678.170         218.240          43.000                                                                  
G07  21392702.383   112419425.944         755.936          36.000                                                                  
G03  25871689.615   135956665.584        2131.074          27.000                                                                  
G17  24362695.325   128026782.246        1801.575          29.000                                                                  
G21  21329523.139   112087411.798       -1424.589          41.000                                                                  
C38  41037584.531   215653970.393        1515.424          27.000                                                                  
> 2025 01 17 07 41 27.0030000  0 20                     
E25  25429738.421   133634183.690          -0.659          38.000    25429749.346    99791798.430          -0.558          36.000  
E08  28101293.676                        -688.210          25.000    28101314.004                        -511.933          24.000  
E03  27451992.236   144261163.203       -2059.114          35.000    27452001.651                       -1549.660          17.000  
G01  21653085.806   113787741.299        1329.651          40.000    21653089.860    84971387.143         992.621          33.000  
G09  25025935.133   131512174.899       -2323.450          30.000    25025944.650                       -1736.449          18.000  
G30  23194986.058                        2517.050          23.000    23194996.991    91022148.412        1875.820          27.000  
E02  26129341.438   137310630.849        1255.692          36.000    26129354.756   102537202.998         937.484          33.000  
C23  23078962.673   121280763.274        -313.919          44.000    23078961.806    90566802.225        -234.382          43.000  
C25  25665860.441                       -2447.974          23.000    25665868.591   100718385.882       -1828.750          30.000  
C27  24942066.332   131071409.700        2395.078          32.000    24942064.073    97878017.308        1788.449          28.000  
C28  22553097.000   118517320.262         325.687          39.000    22553102.436    88503215.265         243.801          35.000  
C37  24217333.337   127262994.548        2164.564          29.000    24217353.433    95034093.008        1616.759          34.000  
C39  37488870.226   197005358.556       -1074.091          34.000    37488871.835                        -805.791          22.000  
E11  26053458.233   136911870.417       -1292.113          28.000                                                                  
G02  21313169.531   112001460.119         217.785          42.000                                                                  
G07  21392558.438   112418669.926         755.829          36.000                                                                  
G03  25871284.582   135954534.821        2130.513          27.000                                                                  
G17  24362353.617   128024980.851        1801.183          30.000                                                                  
G21  21329794.375   112088836.565       -1424.871          41.000                                                                  
C38  41037296.305   215652454.705        1515.851          27.000                                                                  
> 2025 01 17 07 41 28.0030000  0 20                     
E25  25429738.225   133634184.483          -1.271          38.000    25429749.521    99791799.031          -0.396          36.000  
E08  28101424.663                        -683.367          25.000    28101443.997                        -502.225          24.000  
E03  27452384.213   144263222.963       -2060.114          35.000    27452392.779                       -1531.058          16.000  
G01  21652833.240   113786412.226        1328.497          40.000    21652837.029    84970394.628         992.517          33.000  
G09  25026376.782   131514497.812       -2323.110          29.000    25026388.109                       -1731.718          19.000  
G30  23194508.313                        2510.880          23.000    23194518.430    91020271.939        1876.432          27.000  
E02  26129102.208   137309375.319        1255.365          36.000    26129115.845   102536265.453         936.406          33.000  
C23  23079022.205   121281077.386        -314.791          44.000    23079021.574    90567036.780        -234.724          43.000  
C25  25666326.442                       -2447.957          24.000    25666334.616   100720214.298       -1828.233          30.000  
C27  24941610.361   131069014.755        2395.384          32.000    24941609.511    97876228.920        1788.080          29.000  
C28  22553034.957   118516994.723         324.858          39.000    22553040.570    88502972.181         242.664          35.000  
C37  24216921.949   127260829.865        2164.531          30.000    24216941.705    95032476.573        1615.794          34.000  
C39  37489075.046   197006433.425       -1075.097          34.000    37489077.150                        -806.307          22.000  
E11  26053704.288   136913162.905       -1292.342          27.000                                                                  
G02  21313128.006   112001242.748         216.905          42.000                                                                  
G07  21392414.728   112417914.560         754.536          36.000                                                                  
G03  25870878.884   135952403.661        2131.587          27.000                                                                  
G17  24362008.786   128023179.736        1800.946          31.000                                                                  
G21  21330065.814   112090262.036       -1425.917          41.000                                                                  
C38  41037008.401   215650938.960        1515.405          27.000                                                                  
> 2025 01 17 07 41 29.0030000  0 20                     
E25  25429738.959   133634185.618          -1.159          38.000    25429749.702    99791799.865          -0.409          36.000  
E08  28101553.409   147674659.7701       -683.245          26.000    28101573.669                        -514.898          24.000  
E03  27452776.015   144265283.012       -2059.913          35.000    27452783.827                       -1536.780          17.000  
G01  21652580.423   113785083.991        1328.149          40.000    21652584.296    84969402.794         991.388          33.000  
G09  25026818.902   131516820.977       -2323.550          29.000    25026832.035                       -1725.556          19.000  
G30  23194033.063                        2507.661          23.000    23194040.280    91018396.092        1875.912          27.000  
E02  26128863.308   137308119.964        1255.505          37.000    26128876.741   102535328.014         937.878          33.000  
C23  23079082.481   121281392.170        -314.736          44.000    23079081.461    90567271.868        -234.977          43.000  
C25  25666793.859                       -2449.357          25.000    25666801.118   100722043.215       -1829.604          30.000  
C27  24941154.496   131066620.512        2394.082          32.000    24941152.616    97874440.990        1787.905          29.000  
C28  22552973.291   118516669.897         324.423          39.000    22552978.710    88502729.635         242.268          35.000  
C37  24216510.238   127258665.665        2164.229          30.000    24216529.800    95030860.427        1616.343          35.000  
C39  37489279.782   197007508.738       -1075.190          34.000    37489281.108                        -801.413          22.000  
E11  26053950.691   136914456.130       -1292.922          28.000                                                                  
G02  21313086.890   112001026.325         216.267          42.000                                                                  
G07  21392271.112   112417160.069         754.371          35.000                                                                  
G03  25870473.140   135950272.646        2131.216          27.000                                                                  
G17  24361668.921   128021379.202        1800.616          31.000                                                                  
G21  21330337.301   112091688.448       -1426.630          42.000                                                                  
C38  41036720.000   215649423.316        1516.175          27.000                                                                  
> 2025 01 17 07 41 30.0030000  0 20                     
E25  25429738.720   133634186.768          -1.188          38.000    25429749.784    99791800.712          -0.825          36.000  
E08  28101683.710   147675343.016        -683.986          27.000    28101703.798                        -513.226          23.000  
E03  27453167.829   144267343.130       -2060.284          35.000    27453174.147                       -1537.274          18.000  
G01  21652327.696   113783756.348        1327.289          40.000    21652331.684    84968411.289         991.608          33.000  
G09  25027260.923   131519143.895       -2323.105          29.000    25027275.981                       -1736.649          20.000  
G30  23193555.988                        2511.465          23.000    23193562.536    91016520.471        1874.996          27.000  
E02  26128624.227   137306864.555        1255.419          36.000    26128637.921   102534390.533         936.961          33.000  
C23  23079142.147   121281707.371        -315.510          44.000    23079141.511    90567507.212        -235.702          43.000  
C25  25667259.212                       -2449.408          24.000    25667266.642   100723872.208       -1829.102          30.000  
C27  24940699.308   131064226.483        2393.745          31.000    24940696.952    97872653.206        1787.427          29.000  
C28  22552911.455   118516345.507         324.188          39.000    22552916.776    88502487.349         241.846          35.000  
C37  24216097.806   127256501.576        2164.462          29.000    24216117.974    95029244.437        1615.945          34.000  
C39  37489484.915   197008584.165       -1075.756          35.000    37489484.404                        -789.755          22.000  
E11  26054197.285   136915749.765       -1294.340          28.000                                                                  
G02  21313045.856   112000810.546         215.430          42.000                                                                  
G07  21392127.654   112416406.185         753.793          35.000                                                                  
G03  25870067.697   135948141.254        2131.717          27.000                                                                  
G17  24361325.295   128019578.998        1800.237          32.000                                                                  
G21  21330609.022   112093115.542       -1427.706          42.000                                                                  
C38  41036431.663   215647907.659        1515.846          27.000                                                                  
> 2025 01 17 07 41 31.0030000  0 20                     
E25  25429738.894   133634188.043          -1.118          38.000    25429750.012    99791801.668          -0.740          35.000  
E08  28101815.711   147676026.595        -684.205          27.000    28101834.654                        -499.886          22.000  
E03  27453560.041   144269403.306       -2059.877          35.000    27453566.431                       -1544.549          19.000  
G01  21652075.121   113782429.326        1327.087          40.000    21652079.143    84967420.379         990.967          32.000  
G09  25027702.706   131521466.879       -2322.869          29.000    25027718.336                       -1733.132          20.000  
G30  23193077.651                        2505.008          23.000    23193084.136    91014645.236        1875.212          27.000  
E02  26128385.299   137305609.188        1255.222          37.000    26128399.086   102533453.024         937.852          32.000  
C23  23079202.618   121282023.002        -315.456          44.000    23079201.624    90567742.913        -235.669          42.000  
C25  25667724.740                       -2449.003          24.000    25667732.861   100725701.476       -1829.064          29.000  
C27  24940243.486   131061832.846        2393.822          32.000    24940241.432    97870865.766        1787.425          28.000  
C28  22552849.878   118516021.604         324.121          39.000    22552855.068    88502245.480         241.901          34.000  
C37  24215686.306   127254337.798        2163.991          29.000    24215706.072    95027628.601        1615.963          34.000  
C39  37489689.600   197009659.764       -1075.329          34.000    37489688.604                        -796.600          21.000  
E11  26054443.743   136917043.812       -1294.052          27.000                                                                  
G02  21313004.955   112000595.501         214.813          42.000                                                                  
G07  21391984.400   112415652.987         753.009          35.000                                                                  
G03  25869662.044   135946009.725        2131.609          27.000                                                                  
G17  24360983.030   128017779.160        1799.518          31.000                                                                  
G21  21330880.795   112094543.322       -1427.887          42.000                                                                  
C38  41036143.343   215646391.887        1515.772          26.000                                                                  
> 2025 01 17 07 41 32.0030000  0 20                     
E25  25429739.212   133634189.506          -1.761          38.000    25429750.437    99791802.758          -0.833          36.000  
E08  28101941.346   147676710.696        -684.456          27.000    28101963.373                        -510.624          23.000  
E03  27453952.234   144271463.703       -2060.707          35.000    27453958.416                       -1537.812          19.000  
G01  21651822.723   113781103.051        1325.507          40.000    21651826.828    84966429.976         989.960          33.000  
G09  25028144.918   131523789.850       -2322.869          28.000    25028160.577                       -1739.992          22.000  
G30  23192603.265                        2514.434          24.000    23192606.653    91012770.443        1873.995          27.000  
E02  26128146.360   137304353.835        1254.691          36.000    26128160.056   102532515.608         937.220          33.000  
C23  23079262.314   121282339.188        -316.600          44.000    23079261.737    90567979.007        -236.212          43.000  
C25  25668192.694                       -2452.729          23.000    25668199.306   100727531.023       -1829.595          30.000  
C27  24939787.536   131059439.601        2392.732          32.000    24939787.027    97869078.622        1786.762          29.000  
C28  22552788.424   118515698.314         322.984          39.000    22552793.752    88502004.073         241.285          35.000  
C37  24215274.563   127252174.310        2163.315          29.000    24215294.484    95026013.017        1615.468          35.000  
C39  37489893.821   197010735.683       -1076.018          34.000    37489893.090                        -801.236          22.000  
E11  26054689.917   136918338.537       -1295.674          28.000                                                                  
G02  21312963.886   112000381.225         213.663          42.000                                                                  
G07  21391841.107   112414900.511         752.062          36.000                                                                  
G03  25869256.453   135943878.027        2131.515          27.000                                                                  
G17  24360639.839   128015979.695        1798.884          30.000                                                                  
G21  21331152.558   112095971.912       -1428.869          42.000                                                                  
C38  41035854.534   215644876.124        1515.891          26.000                                                                  
> 2025 01 17 07 41 33.0030000  0 20                     
E25  25429739.966   133634191.205          -1.669          38.000    25429750.584    99791804.036          -1.342          35.000  
E08  28102073.724   147677395.201        -684.350          27.000    28102093.695                        -515.387          23.000  
E03  27454344.246   144273524.301       -2060.899          35.000    27454349.368                       -1527.760          19.000  
G01  21651570.476   113779777.505        1324.707          40.000    21651574.740    84965440.130         989.276          33.000  
G09  25028586.996   131526112.917       -2323.002          28.000    25028603.147                       -1743.876          21.000  
G30  23192127.623                        2510.092          25.000    23192127.789    91010895.979        1874.153          27.000  
E02  26127907.535   137303098.594        1255.038          37.000    26127921.203   102531578.248         936.918          32.000  
C23  23079322.463   121282655.945        -317.199          44.000    23079322.044    90568215.562        -236.967          42.000  
C25  25668658.412                       -2454.809          22.000    25668665.603   100729360.918       -1829.822          29.000  
C27  24939331.566   131057046.828        2393.220          32.000    24939331.372    97867291.833        1786.456          29.000  
C28  22552726.797   118515375.660         322.130          39.000    22552732.220    88501763.097         241.095          34.000  
C37  24214863.285   127250011.237        2162.648          30.000    24214882.742    95024397.721        1614.611          34.000  
C39  37490098.675   197011811.958       -1076.475          34.000    37490098.581                        -800.542          21.000  
E11  26054937.013   136919633.691       -1295.117          28.000                                                                  
G02  21312923.293   112000167.786         213.165          42.000                                                                  
G07  21391698.107   112414148.854         751.059          36.000                                                                  
G03  25868850.853   135941746.210        2131.896          27.000                                                                  
G17  24360297.456   128014180.792        1798.498          30.000                                                                  
G21  21331424.451   112097401.371       -1429.958          42.000                                                                  
C38  41035566.586   215643360.481        1515.282          26.000                                                                  
> 2025 01 17 07 41 34.0030000  0 20                     
E25  25429740.228   133634193.197          -2.084          38.000    25429750.960    99791805.536          -2.004          36.000  
E08  28102204.046   147678080.410        -685.123          27.000    28102224.233                        -514.271          23.000  
E03  27454736.418   144275585.188       -2060.815          35.000    27454742.331                       -1534.407          19.000  
G01  21651318.591   113778452.786        1324.219          40.000    21651322.539    84964450.901         988.739          33.000  
G09  25029029.123   131528436.105       -2323.270          28.000    25029047.252                       -1721.462          22.000  
G30  23191650.394                        2508.459          26.000    23191650.888    91009022.109        1873.611          28.000  
E02  26127668.665   137301843.554        1254.823          37.000    26127682.359   102530641.057         936.639          33.000  
C23  23079382.940   121282973.341        -317.849          44.000    23079382.450    90568452.568        -237.333          43.000  
C25  25669122.009                       -2451.819          22.000    25669132.049   100731191.225       -1830.810          30.000  
C27  24938876.201   131054654.672        2392.267          32.000    24938875.971    97865505.417        1786.690          30.000  
C28  22552665.552   118515053.677         321.541          39.000    22552670.976    88501522.664         240.170          35.000  
C37  24214451.386   127247848.461        2163.292          29.000    24214471.093    95022782.680        1614.677          35.000  
C39  37490303.380   197012888.585       -1077.566          34.000    37490301.904                        -806.786          21.000  
E11  26055183.461   136920929.620       -1296.230          28.000                                                                  
G02  21312882.795   111999955.260         211.966          43.000                                                                  
G07  21391555.293   112413398.020         750.696          36.000                                                                  
G03  25868445.444   135939614.398        2131.985          26.000                                                                  
G17  24359955.677   128012382.362        1798.035          30.000                                                                  
G21  21331696.664   112098831.731       -1431.004          42.000                                                                  
C38  41035278.103   215641844.821        1516.196          27.000                                                                  
> 2025 01 17 07 41 35.0030000  0 20                     
E25  25429740.398   133634195.270          -1.833          38.000    25429751.399    99791807.137          -1.921          36.000  
E08  28102336.991   147678765.995        -685.833          27.000    28102353.911                        -513.593          22.000  
E03  27455128.439   144277646.233       -2061.230          35.000    27455130.535                       -1537.729          17.000  
G01  21651066.609   113777128.709        1323.676          40.000    21651070.702    84963462.153         988.495          33.000  
G09  25029471.518   131530759.263       -2323.013          28.000    25029490.366                       -1737.473          20.000  
G30  23191171.296   121870426.7753       2508.320          27.000    23191173.369    91007148.541        1873.569          27.000  
E02  26127430.212   137300588.480        1255.158          37.000    26127443.545   102529703.819         937.968          33.000  
C23  23079443.487   121283291.184        -318.188          44.000    23079442.906    90568689.953        -237.545          43.000  
C25  25669589.413                       -2451.365          23.000    25669598.639   100733021.691       -1829.994          30.000  
C27  24938420.793   131052262.816        2392.237          33.000    24938421.000    97863719.362        1785.964          29.000  
C28  22552603.867   118514732.192         321.173          39.000    22552609.964    88501282.626         240.004          35.000  
C37  24214040.113   127245686.067        2161.670          30.000    24214059.677    95021167.872        1615.202          34.000  
C39  37490508.310   197013965.395       -1077.394          33.000    37490507.304                        -797.107          21.000  
E11  26055429.890   136922225.978       -1296.219          28.000                                                                  
G02  21312842.484   111999743.436         211.565          43.000                                                                  
G07  21391412.614   112412647.899         749.600          36.000                                                                  
G03  25868039.848   135937482.407        2131.938          27.000                                                                  
G17  24359613.373   128010584.307        1797.697          31.000                                                                  
G21  21331969.337   112100262.801       -1431.633          42.000                                                                  
C38  41034989.159   215640329.249        1515.902          27.000                                                                  
> 2025 01 17 07 41 36.0030000  0 20                     
E25  25429740.865   133634197.483          -2.041          38.000    25429751.829    99791808.759          -1.595          36.000  
E08  28102465.171   147679451.905        -685.601          26.000    28102484.099                        -510.281          23.000  
E03  27455520.689   144279707.306       -2061.294          35.000    27455522.207                       -1514.997          16.000  
G01  21650814.773   113775805.236        1323.126          40.000    21650818.911    84962473.848         988.361          33.000  
G09  25029913.778   131533082.280       -2322.782          28.000    25029933.975                       -1727.051          21.000  
G30  23190697.822   121867939.2102       2508.862          27.000    23190696.737    91005275.303        1873.112          27.000  
E02  26127191.110   137299333.377        1255.352          37.000    26127204.743   102528766.654         936.520          33.000  
C23  23079504.269   121283609.468        -318.467          44.000    23079503.546    90568927.640        -237.814          43.000  
C25  25670056.244                       -2454.627          24.000    25670065.165   100734852.422       -1830.900          29.000  
C27  24937965.981   131049871.360        2390.908          33.000    24937965.844    97861933.516        1785.970          29.000  
C28  22552542.964   118514411.211         320.862          39.000    22552548.813    88501042.939         239.811          35.000  
C37  24213628.644   127243523.793        2162.149          30.000    24213648.149    95019553.190        1614.965          34.000  
C39  37490712.769   197015042.405       -1077.487          34.000    37490712.597                        -810.580          21.000  
E11  26055676.636   136923522.810       -1296.553          28.000                                                                  
G02  21312802.149   111999532.323         210.851          42.000                                                                  
G07  21391270.192   112411898.372         749.233          36.000                                                                  
G03  25867634.151   135935350.083        2132.449          26.000                                                                  
G17  24359271.514   128008786.630        1796.741          31.000                                                                  
G21  21332241.763   112101694.583       -1432.094          42.000                                                                  
C38  41034700.667   215638813.522        1516.064          27.000                                                                  
> 2025 01 17 07 41 37.0030000  0 20                     
E25  25429741.454   133634199.648          -2.093          38.000    25429752.272    99791810.401          -1.841          36.000  
E08  28102596.429   147680138.100        -685.970          26.000    28102614.427                        -510.405          23.000  
E03  27455913.008   144281768.378       -2061.113          36.000    27455914.217                       -1543.051          16.000  
G01  21650563.007   113774482.278        1322.766          40.000    21650567.100    84961485.919         988.312          33.000  
G09  25030355.734   131535405.234       -2322.836          28.000    25030376.307                       -1733.285          21.000  
G30  23190218.880   121865422.0592       2507.874          27.000    23190219.938    91003402.301        1872.779          27.000  
E02  26126952.440   137298078.193        1255.133          37.000    26126965.860   102527829.299         937.003          33.000  
C23  23079564.679   121283928.093        -318.983          44.000    23079564.154    90569165.569        -237.994          43.000  
C25  25670523.122                       -2453.122          23.000    25670531.664   100736683.299       -1831.341          29.000  
C27  24937511.122   131047480.073        2391.193          32.000    24937510.686    97860147.860        1785.337          28.000  
C28  22552482.056   118514090.604         320.542          39.000    22552487.835    88500803.517         239.682          35.000  
C37  24213217.455   127241361.638        2161.669          30.000    24213236.720    95017938.616        1614.305          34.000  
C39  37490918.072   197016119.458       -1077.027          34.000    37490917.064                        -808.465          20.000  
E11  26055923.371   136924819.984       -1297.234          28.000                                                                  
G02  21312762.094   111999321.790         210.340          43.000                                                                  
G07  21391127.990   112411149.445         748.959          36.000                                                                  
G03  25867228.272   135933217.439        2133.184          26.000                                                                  
G17  24358929.619   128006989.081        1797.316          30.000                                                                  
G21  21332514.146   112103126.956       -1432.624          42.000                                                                  
C38  41034411.982   215637297.589        1516.696          27.000                                                                  
> 2025 01 17 07 41 38.0030000  0 20                     
E25  25429741.762   133634201.980          -2.710          38.000    25429752.712    99791812.129          -1.892          36.000  
E08  28102727.380   147680824.778        -687.101          26.000    28102745.956                        -518.412          23.000  
E03  27456305.329   144283829.596       -2061.275          35.000    27456308.121                       -1536.854          17.000  
G01  21650311.337   113773160.003        1321.899          40.000    21650315.591    84960498.543         987.024          33.000  
G09  25030797.758   131537728.064       -2322.820          28.000    25030818.758                       -1737.577          20.000  
G30  23189744.694   121862914.3732       2506.992          27.000    23189742.245    91001529.683        1872.224          27.000  
E02  26126713.552   137296822.996        1255.099          37.000    26126726.917   102526891.990         936.692          33.000  
C23  23079625.344   121284247.211        -319.584          44.000    23079624.860    90569403.879        -238.606          43.000  
C25  25670988.823                       -2444.504          22.000    25670998.279   100738514.360       -1831.046          29.000  
C27  24937056.328   131045089.216        2390.511          33.000    24937055.730    97858362.461        1785.113          28.000  
C28  22552421.213   118513770.548         319.750          39.000    22552426.936    88500564.535         238.286          35.000  
C37  24212805.343   127239199.701        2161.729          29.000    24212825.275    95016324.209        1614.251          34.000  
C39  37491123.675   197017196.795       -1077.823          34.000    37491121.701                        -810.394          21.000  
E11  26056169.970   136926117.709       -1298.545          28.000                                                                  
G02  21312722.352   111999112.010         209.274          42.000                                                                  
G07  21390985.565   112410401.206         747.795          37.000                                                                  
G03  25866822.347   135931084.662        2132.781          26.000                                                                  
G17  24358587.754   128005191.993        1796.792          31.000                                                                  
G21  21332786.793   112104560.103       -1433.800          41.000                                                                  
C38  41034123.616   215635781.740        1515.817          26.000                                                                  
> 2025 01 17 07 41 39.0030000  0 20                     
E25  25429742.216   133634204.364          -2.726          37.000    25429753.152    99791813.932          -2.257          36.000  
E08  28102858.832   147681511.661        -686.752          27.000    28102876.807                        -514.787          23.000  
E03  27456697.763   144285890.864       -2061.346          35.000    27456702.912                       -1535.270          18.000  
G01  21650060.017   113771838.319        1321.271          40.000    21650064.146    84959511.581         987.183          33.000  
G09  25031239.590   131540050.910       -2323.305          28.000    25031259.826                       -1729.409          19.000  
G30  23189267.996   121860407.0782       2507.065          27.000    23189265.819    90999657.418        1871.606          27.000  
E02  26126474.870   137295567.770        1254.892          37.000    26126488.117   102525954.610         937.462          33.000  
C23  23079686.155   121284566.733        -319.830          44.000    23079685.801    90569642.466        -238.512          43.000  
C25  25671453.926                       -2448.757          21.000    25671464.914   100740345.722       -1832.033          29.000  
C27  24936601.287   131042698.664        2389.931          33.000    24936600.767    97856577.331        1784.909          28.000  
C28  22552360.334   118513450.951         319.003          39.000    22552366.145    88500325.880         238.289          35.000  
C37  24212393.616   127237038.053        2161.162          30.000    24212413.944    95014709.946        1614.701          34.000  
C39  37491328.607   197018274.250       -1076.982          34.000    37491326.249                        -803.428          20.000  
E11  26056416.897   136927415.803       -1298.682          28.000                                                                  
G02  21312682.601   111998902.913         208.659          42.000                                                                  
G07  21390843.378   112409653.592         747.190          37.000                                                                  
G03  25866416.520   135928951.612        2133.043          27.000                                                                  
G17  24358245.954   128003395.230        1796.379          32.000                                                                  
G21  21333059.555   112105993.901       -1434.045          41.000                                                                  
C38  41033835.448   215634265.681        1516.135          26.000                                                                  
> 2025 01 17 07 41 40.0030000  0 20                     
E25  25429742.500   133634206.912          -2.938          37.000    25429753.498    99791815.775          -2.273          36.000  
E08  28102992.300   147682199.060        -687.206          28.000    28103006.676                        -508.413          24.000  
E03  27457089.779   144287952.290       -2062.062          35.000    27457096.652                       -1540.484          17.000  
G01  21649808.529   113770517.318        1320.380          40.000    21649812.673    84958525.078         986.395          34.000  
G09  25031681.513   131542373.659       -2322.562          28.000    25031701.531                       -1739.510          20.000  
G30  23188790.826   121857900.3312       2506.455          28.000    23188788.185    90997785.400        1871.823          28.000  
E02  26126236.256   137294312.572        1254.811          37.000    26126249.421   102525017.301         936.701          33.000  
C23  23079746.978   121284886.761        -320.328          44.000    23079746.718    90569881.446        -239.555          43.000  
C25  25671921.453                       -2458.646          21.000    25671931.640   100742177.241       -1832.016          29.000  
C27  24936146.455   131040308.471        2389.813          33.000    24936145.901    97854792.451        1784.103          29.000  
C28  22552299.567   118513131.880         318.652          39.000    22552305.418    88500087.590         237.718          35.000  
C37  24211982.543   127234876.660        2160.224          30.000    24212002.726    95013095.904        1613.775          35.000  
C39  37491533.695   197019351.989       -1077.799          34.000    37491531.071                        -801.926          20.000  
E11  26056663.554   136928714.403       -1299.110          27.000                                                                  
G02  21312642.745   111998694.570         207.680          42.000                                                                  
G07  21390701.319   112408906.705         746.235          37.000                                                                  
G03  25866010.427   135926818.404        2132.963          27.000                                                                  
G17  24357904.191   128001598.886        1795.216          31.000                                                                  
G21  21333332.698   112107428.481       -1435.042          42.000                                                                  
C38  41033546.555   215632749.646        1515.734          26.000                                                                  
> 2025 01 17 07 41 41.0030000  0 20                     
E25  25429743.176   133634209.599          -2.666          38.000    25429754.115    99791817.802          -2.390          36.000  
E08  28103121.918   147682886.906        -688.204          28.000    28103136.234                        -510.498          24.000  
E03  27457482.254   144290013.854       -2061.447          36.000    27457487.026                       -1532.692          18.000  
G01  21649557.384   113769196.986        1320.264          41.000    21649561.448    84957539.141         985.449          33.000  
G09  25032123.560   131544696.503       -2323.163          27.000    25032144.546                       -1733.678          20.000  
G30  23188312.088   121855394.0092       2506.260          28.000    23188311.060    90995913.873        1871.090          28.000  
E02  26125997.623   137293057.389        1255.224          37.000    26126010.385   102524079.996         936.960          33.000  
C23  23079808.052   121285207.299        -320.862          44.000    23079807.654    90570120.796        -239.569          43.000  
C25  25672388.397                       -2447.108          21.000    25672398.301   100744009.118       -1832.274          29.000  
C27  24935692.147   131037918.729        2389.526          33.000    24935691.008    97853007.839        1784.867          29.000  
C28  22552238.707   118512813.361         318.379          39.000    22552244.596    88499849.757         236.615          35.000  
C37  24211571.515   127232715.516        2160.843          31.000    24211591.505    95011482.052        1613.901          35.000  
C39  37491739.107   197020429.980       -1078.505          34.000    37491737.324                        -811.658          20.000  
E11  26056911.011   136930013.542       -1299.142          27.000                                                                  
G02  21312603.203   111998486.987         207.313          42.000                                                                  
G07  21390559.255   112408160.541         745.585          37.000                                                                  
G03  25865604.699   135924684.978        2133.599          27.000                                                                  
G17  24357562.626   127999802.842        1796.125          31.000                                                                  
G21  21333606.037   112108863.837       -1435.823          42.000                                                                  
C38  41033258.356   215631233.575        1516.425          25.000                                                                  
> 2025 01 17 07 41 42.0030000  0 20                     
E25  25429743.859   133634212.634          -2.975          38.000    25429754.674    99791820.073          -2.440          36.000  
E08  28103252.547   147683575.374        -689.047          29.000    28103267.786                        -509.517          23.000  
E03  27457874.196   144292075.783       -2062.208          35.000    27457878.979                       -1534.423          17.000  
G01  21649306.315   113767877.537        1319.098          41.000    21649310.511    84956553.853         984.863          33.000  
G09  25032565.663   131547019.436       -2323.111          27.000    25032587.483                       -1736.115          20.000  
G30  23187835.089   121852888.4782       2505.030          28.000    23187833.588    90994042.796        1871.424          28.000  
E02  26125759.007   137291802.444        1254.919          37.000    26125771.613   102523142.873         936.794          33.000  
C23  23079868.795   121285528.515        -321.592          44.000    23079868.829    90570360.666        -240.082          43.000  
C25  25672855.661                       -2448.844          20.000    25672865.336   100745841.252       -1831.777          29.000  
C27  24935237.847   131035529.549        2389.365          34.000    24935236.485    97851223.781        1783.726          28.000  
C28  22552178.034   118512495.607         317.071          39.000    22552184.039    88499612.447         236.421          35.000  
C37  24211160.957   127230554.832        2160.366          32.000    24211180.309    95009868.576        1613.164          35.000  
C39  37491944.361   197021508.367       -1078.761          34.000    37491941.339                        -804.590          20.000  
E11  26057158.640   136931313.395       -1300.244          27.000                                                                  
G02  21312564.010   111998280.367         205.934          42.000                                                                  
G07  21390417.718   112407415.273         744.465          37.000                                                                  
G03  25865198.942   135922551.623        2133.038          27.000                                                                  
G17  24357221.165   127998007.512        1794.729          31.000                                                                  
G21  21333879.280   112110300.135       -1436.781          42.000                                                                  
C38  41032969.300                        1515.308          25.000                                                                  
> 2025 01 17 07 41 43.0030000  0 20                     
E25  25429744.301   133634215.882          -3.146          38.000    25429755.196    99791822.520          -3.094          36.000  
E08  28103385.122   147684264.278        -689.182          29.000    28103399.307                        -511.371          23.000  
E03  27458266.363   144294137.893       -2062.100          35.000    27458270.490                       -1538.017          17.000  
G01  21649055.544   113766558.815        1318.451          41.000    21649059.533    84955569.085         984.418          33.000  
G09  25033008.046   131549342.414       -2322.889          27.000    25033030.486                       -1737.907          19.000  
G30  23187358.198   121850382.9641       2504.819          29.000    23187358.631    90992172.167        1871.364          28.000  
E02  26125520.649   137290547.587        1254.787          37.000    26125532.914   102522205.775         937.232          33.000  
C23  23079930.088   121285850.294        -322.068          44.000    23079930.029    90570600.957        -240.499          43.000  
C25  25673323.419                       -2452.193          20.000    25673332.340   100747673.858       -1832.631          28.000  
C27  24934783.430   131033140.848        2388.336          34.000    24934781.875    97849439.968        1783.815          28.000  
C28  22552117.377   118512178.431         316.934          39.000    22552123.784    88499375.596         236.801          34.000  
C37  24210751.013   127228394.494        2160.501          33.000    24210769.189    95008255.346        1612.989          34.000  
C39  37492149.696   197022587.098       -1079.279          34.000    37492147.105                        -793.929          18.000  
E11  26057405.822   136932613.798       -1299.846          28.000                                                                  
G02  21312524.874   111998074.551         205.455          42.000                                                                  
G07  21390276.253   112406670.762         744.267          37.000                                                                  
G03  25864793.292   135920418.119        2133.665          27.000                                                                  
G17  24356879.731   127996212.561        1794.269          31.000                                                                  
G21  21334152.746   112111737.261       -1437.737          42.000                                                                  
C38  41032682.902                        1515.755          25.000                                                                  
> 2025 01 17 07 41 44.0030000  0 20                     
E25  25429745.022   133634219.281          -3.598          38.000    25429756.062    99791825.018          -1.997          37.000  
E08  28103513.030   147684953.644        -690.005          29.000    28103531.922                        -518.152          24.000  
G01  21648804.940   113765240.766        1317.688          41.000    21648808.854    84954584.831         983.868          34.000  
G09  25033450.196   131551665.354       -2322.130          26.000    25033473.071                       -1745.693          20.000  
G30  23186882.658   121847878.473        2504.048          29.000    23186881.954    90990301.920        1870.057          28.000  
E02  26125281.669   137289292.753        1254.606          37.000    26125294.307   102521268.721         937.801          34.000  
C23  23079991.184   121286172.544        -322.380          44.000    23079991.403    90570841.595        -240.771          43.000  
C25  25673793.090                       -2457.620          21.000    25673799.377   100749506.665       -1833.086          28.000  
C27  24934328.442   131030752.555        2387.648          33.000    24934327.370    97847656.494        1783.987          28.000  
C28  22552057.446   118511861.780         316.583          39.000    22552063.486    88499139.119         236.353          35.000  
C37  24210340.894   127226234.439        2159.859          34.000    24210358.075    95006642.305        1612.730          35.000  
C39  37492355.308   197023665.972       -1078.556          34.000    37492351.447                        -810.827          18.000  
E03  27458659.272   144296200.118       -2062.280          35.000                                                                  
E11  26057653.251   136933914.758       -1301.578          28.000                                                                  
G02  21312485.743   111997869.457         204.815          42.000                                                                  
G07  21390134.845   112405926.967         743.061          37.000                                                                  
G03  25864387.114   135918284.471        2133.079          26.000                                                                  
G17  24356538.209   127994417.989        1794.215          31.000                                                                  
G21  21334426.344   112113175.123       -1438.074          42.000                                                                  
C38  41032393.404                        1514.273          25.000                                                                  
> 2025 01 17 07 41 45.0030000  0 20                     
E25  25429746.127   133634222.732          -3.906          38.000    25429756.654    99791827.632          -2.869          37.000  
E08  28103645.154   147685643.389        -690.678          28.000    28103663.348                        -514.664          25.000  
G01  21648554.334   113763923.289        1317.224          41.000    21648558.346    84953601.025         983.447          34.000  
G09  25033892.192   131553988.405       -2323.391          26.000    25033917.645                       -1735.525          19.000  
G30  23186407.738   121845374.348        2503.814          29.000    23186406.018    90988432.037        1869.685          29.000  
E02  26125042.454   137288037.851        1254.974          36.000    26125055.507   102520331.690         936.738          34.000  
C23  23080052.589   121286495.200        -322.903          44.000    23080052.835    90571082.571        -241.157          43.000  
C25  25674259.519                       -2452.944          21.000    25674266.529   100751339.698       -1833.293          27.000  
C27  24933873.833   131028364.519        2387.275          33.000    24933872.866    97845873.254        1783.319          28.000  
C28  22551996.981   118511545.615         315.750          39.000    22552003.240    88498903.032         235.764          35.000  
C37  24209930.932   127224074.539        2159.233          34.000    24209947.115    95005029.437        1612.457          35.000  
C39  37492560.211   197024745.078       -1079.036          34.000    37492556.382                        -803.557          19.000  
E03  27459051.753   144298262.403       -2062.033          35.000                                                                  
E11  26057900.840   136935216.048       -1301.503          28.000                                                                  
G02  21312447.174   111997665.047         203.972          43.000                                                                  
G07  21389993.402   112405183.780         742.378          37.000                                                                  
G03  25863980.920   135916150.395        2134.750          26.000                                                                  
G17  24356196.855   127992623.746        1794.356          30.000                                                                  
G21  21334700.187   112114613.673       -1438.953          41.000                                                                  
C38  41032103.577                        1516.071          25.000                                                                  
> 2025 01 17 07 41 46.0030000  0 20                     
E25  25429746.689   133634226.357          -3.638          37.000    25429757.479    99791830.353          -3.203          37.000  
E08  28103776.123   147686333.496        -690.502          28.000    28103794.904                        -514.647          25.000  
E03  27459444.610   144300324.914       -2062.381          35.000    27459448.481                       -1529.610          19.000  
G01  21648303.640   113762606.563        1316.455          42.000    21648307.871    84952617.762         982.648          34.000  
G30  23185930.387   121842870.819        2503.493          30.000    23185930.107    90986562.512        1868.688          29.000  
E02  26124803.494   137286783.031        1255.038          36.000    26124816.873   102519394.643         937.130          34.000  
C23  23080113.809   121286818.420        -323.600          43.000    23080114.366    90571323.930        -241.449          43.000  
C25  25674725.276                       -2458.337          21.000    25674733.596   100753173.037       -1834.056          27.000  
C27  24933419.617   131025976.901        2388.964          32.000    24933418.428    97844090.389        1782.228          28.000  
C28  22551936.588   118511230.037         315.286          39.000    22551943.147    88498667.362         235.568          35.000  
C37  24209520.175   127221914.964        2158.963          35.000    24209536.164    95003416.743        1612.187          35.000  
C39  37492765.688   197025824.505       -1079.858          33.000    37492760.854                        -798.734          19.000  
E11  26058148.320   136936517.931       -1301.810          28.000                                                                  
G02  21312408.170   111997461.442         203.252          43.000                                                                  
G07  21389852.485   112404441.363         742.245          37.000                                                                  
G03  25863574.889   135914016.426        2134.018          25.000                                                                  
G17  24355855.556   127990829.909        1793.984          30.000                                                                  
G21  21334973.929   112116053.017       -1439.525          41.000                                                                  
G09  25034334.179   131556311.352       -2323.594          25.000                                                                  
C38  41031813.544                        1516.791          25.000                                                                  
> 2025 01 17 07 41 47.0030000  0 20                     
E25  25429747.644   133634230.174          -3.660          37.000    25429758.178    99791833.194          -2.645          37.000  
E08  28103910.041   147687024.099        -690.608          28.000    28103926.024                        -516.704          25.000  
E03  27459836.171   144302387.561       -2062.482          36.000    27459842.086                       -1539.468          20.000  
G01  21648053.439   113761290.523        1316.113          42.000    21648057.517    84951634.993         982.532          34.000  
G09  25034776.180   131558634.222       -2322.458          25.000    25034802.915                       -1738.821          17.000  
G30  23185452.620   121840367.740        2502.631          30.000    23185453.103    90984693.330        1868.907          28.000  
E02  26124564.356   137285528.308        1254.618          36.000    26124578.123   102518457.634         937.360          34.000  
C23  23080175.080   121287142.149        -324.003          43.000    23080175.843    90571565.689        -241.932          44.000  
C25  25675194.716                       -2455.352          24.000    25675200.831   100755006.551       -1833.680          27.000  
C27  24932965.685   131023589.818        2387.328          33.000    24932963.970    97842307.742        1782.840          27.000  
C28  22551876.713   118510915.018         314.763          39.000    22551883.015    88498432.160         235.174          34.000  
C37  24209109.946   127219755.667        2159.471          35.000    24209125.154    95001804.325        1612.470          34.000  
C39  37492970.896   197026904.100       -1078.549          33.000    37492965.267                        -803.297          20.000  
E11  26058396.024   136937820.375       -1302.434          27.000                                                                  
G02  21312369.500   111997258.632         202.267          43.000                                                                  
G07  21389711.754   112403699.684         741.109          38.000                                                                  
G03  25863168.794   135911882.135        2134.489          25.000                                                                  
G17  24355514.481   127989036.548        1793.654          29.000                                                                  
G21  21335247.891   112117493.167       -1440.208          41.000                                                                  
C38  41031522.579                        1515.906          25.000                                                                  
> 2025 01 17 07 41 48.0030000  0 20                     
E25  25429748.785   133634234.137          -3.979          37.000    25429759.020    99791836.191          -3.688          36.000  
E08  28104040.963   147687715.232        -691.852          27.000    28104056.883                        -518.153          25.000  
E03  27460228.859   144304450.363       -2062.955          36.000    27460235.328                       -1538.956          20.000  
G01  21647803.156   113759975.179        1314.868          42.000    21647807.155    84950652.750         981.268          33.000  
G09  25035217.909   131560957.159       -2322.902          25.000    25035244.046                       -1723.233          17.000  
G30  23184974.406   121837865.183        2501.791          29.000    23184976.842                        1868.094          26.000  
E02  26124324.964   137284273.590        1254.443          35.000    26124339.334   102517520.643         937.312          33.000  
C23  23080236.581   121287466.348        -324.629          43.000    23080237.598    90571807.803        -242.421          43.000  
C25  25675662.311   134926515.2591      -2455.723          27.000    25675668.232   100756840.314       -1833.822          27.000  
C27  24932511.735   131021203.074        2386.519          33.000    24932509.914    97840525.472        1781.713          26.000  
C28  22551816.990   118510600.545         314.102          39.000    22551823.140    88498197.305         234.473          34.000  
C37  24208699.183   127217596.665        2158.677          35.000    24208714.285    95000192.072        1611.664          34.000  
C39  37493176.338   197027983.946       -1079.438          31.000    37493172.716                        -806.620          22.000  
E11  26058643.862   136939123.338       -1303.569          27.000                                                                  
G02  21312331.076   111997056.537         201.621          43.000                                                                  
G07  21389570.960   112402958.716         740.489          38.000                                                                  
G03  25862762.757   135909747.814        2134.258          26.000                                                                  
G17  24355173.739   127987243.579        1793.092          29.000                                                                  
G21  21335522.283   112118934.042       -1441.281          42.000                                                                  
C38  41031234.702                        1523.748          23.000                                                                  
> 2025 01 17 07 41 49.0030000  0 20                     
E25  25429749.471   133634238.340          -4.911          34.000    25429759.841    99791839.267          -3.009          35.000  
E08  28104168.506   147688406.660        -691.387          28.000    28104188.156                        -515.625          25.000  
E03  27460620.982   144306513.372       -2063.005          35.000    27460627.418                       -1543.772          20.000  
G01  21647553.040   113758660.548        1314.539          40.000    21647557.175    84949670.972         982.111          34.000  
G09  25035657.911                       -2316.032          23.000    25035684.572                       -1729.869          17.000  
G30  23184499.884                        2501.753          29.000    23184503.374                        1855.163          25.000  
E02  26124086.278   137283018.997        1254.368          35.000    26124100.576   102516583.718         938.558          34.000  
C23  23080298.627   121287791.149        -324.612          44.000    23080299.494    90572050.304        -242.098          43.000  
C25  25676129.753                       -2455.191          27.000    25676135.693   100758674.499       -1834.076          28.000  
C27  24932057.805   131018816.758        2387.181          31.000    24932055.860    97838743.486        1781.264          29.000  
C28  22551756.676   118510286.713         313.143          39.000    22551763.199    88497962.849         235.756          34.000  
C37  24208288.715   127215438.005        2158.654          35.000    24208303.445    94998580.089        1612.187          34.000  
C39  37493381.440   197029064.226       -1079.879          31.000    37493380.590                        -806.754          25.000  
E11  26058892.242                       -1303.729          26.000                                                                  
G02  21312292.830   111996855.294         200.488          42.000                                                                  
G07  21389429.992   112402218.483         739.770          38.000                                                                  
G03  25862356.606   135907613.187        2135.131          27.000                                                                  
G17  24354833.005   127985451.080        1791.930          29.000                                                                  
G21  21335796.777   112120375.808       -1442.409          40.000                                                                  
C38  41030944.904                        1518.135          20.000                                                                  
> 2025 01 17 07 41 50.0030000  0 20                     
E25  25429749.553   133634242.570          -4.391          37.000    25429760.695    99791842.433          -3.448          37.000  
E08  28104302.916   147689098.541        -692.161          28.000    28104319.003                        -517.004          24.000  
E03  27461014.186   144308576.433       -2062.944          36.000    27461021.540                       -1547.948          18.000  
G01  21647302.852   113757346.502        1313.776          41.000    21647307.240    84948689.730         981.238          34.000  
G09  25036097.300                       -2321.881          22.000    25036125.812                       -1736.467          19.000  
G30  23184021.777   121832856.1823       2501.966          30.000    23184027.354                        1867.428          25.000  
E02  26123847.778   137281764.286        1254.414          36.000    26123861.863   102515646.825         936.674          33.000  
C23  23080360.563   121288116.340        -325.447          43.000    23080361.389    90572293.136        -243.036          43.000  
C25  25676598.065   134931432.7611      -2456.709          26.000    25676602.846                       -1833.763          26.000  
C27  24931603.127   131016430.710        2386.217          31.000    24931601.832    97836961.731        1781.563          27.000  
C28  22551697.058   118509973.276         313.063          39.000    22551703.616    88497728.836         234.033          33.000  
C37  24207879.119   127213279.564        2158.284          36.000    24207892.735    94996968.211        1612.152          34.000  
C39  37493586.767   197030144.477       -1079.906          30.000    37493586.247                        -806.959          25.000  
E11  26059141.360                       -1304.001          26.000                                                                  
G02  21312254.481   111996654.696         199.969          42.000                                                                  
G07  21389289.432   112401478.912         739.191          37.000                                                                  
G03  25861950.642   135905478.465        2134.601          26.000                                                                  
G17  24354491.751   127983658.874        1792.023          29.000                                                                  
G21  21336071.228   112121818.170       -1442.718          41.000                                                                  
C38  41030655.600                        1509.733          18.000                                                                  
> 2025 01 17 07 41 51.0030000  0 20                     
E25  25429750.330   133634246.999          -4.544          37.000    25429761.523    99791845.753          -3.293          37.000  
E08  28104439.508   147689790.892        -692.922          28.000    28104452.342                        -515.866          25.000  
E03  27461406.739   144310639.700       -2063.740          35.000    27461413.738                       -1552.450          18.000  
G01  21647052.980   113756033.210        1312.830          41.000    21647057.429    84947709.013         980.817          34.000  
G09  25036537.297                       -2321.004          21.000    25036569.403                       -1733.688          22.000  
G30  23183548.574   121830355.1842       2500.866          31.000    23183550.033                        1869.214          26.000  
E02  26123609.483   137280509.684        1254.316          35.000    26123623.138   102514709.950         937.135          33.000  
C23  23080422.392   121288442.083        -326.198          43.000    23080423.350    90572536.401        -243.778          43.000  
C25  25677064.840   134933889.536       -2456.589          26.000    25677070.136   100762338.4471      -1834.899          26.000  
C27  24931149.564   131014045.225        2385.598          32.000    24931147.691    97835180.313        1781.153          27.000  
C28  22551637.863   118509660.466         312.433          39.000    22551644.233    88497495.271         233.416          34.000  
C37  24207468.867   127211121.453        2157.666          36.000    24207482.098    94995356.670        1610.858          34.000  
C39  37493791.740   197031225.167       -1081.503          30.000    37493790.857                        -806.864          25.000  
E11  26059388.668                       -1304.339          26.000                                                                  
G02  21312216.152   111996454.905         199.316          43.000                                                                  
G07  21389149.125   112400740.095         738.291          37.000                                                                  
G03  25861544.509   135903343.613        2134.272          25.000                                                                  
G17  24354150.882   127981867.082        1791.031          29.000                                                                  
G21  21336346.075   112123261.397       -1443.694          41.000                                                                  
C38  41030366.377                        1515.357          17.000                                                                  
> 2025 01 17 07 41 52.0030000  0 20                     
E25  25429751.358   133634251.732          -5.073          37.000    25429762.430    99791849.286          -3.586          37.000  
E08  28104567.657   147690483.737        -693.110          28.000    28104583.733                        -518.159          24.000  
E03  27461799.312   144312703.194       -2063.335          35.000    27461807.956                       -1541.675          17.000  
G01  21646803.143   113754720.724        1311.963          42.000    21646807.871    84946728.934         979.657          35.000  
G09  25036979.320                       -2323.302          19.000    25037010.523                       -1735.394          22.000  
G30  23183072.519   121827854.8142       2500.242          31.000    23183074.089                        1866.213          26.000  
E02  26123370.567   137279255.250        1254.157          35.000    26123384.440   102513773.205         936.857          33.000  
C23  23080484.492   121288768.460        -326.611          43.000    23080485.397    90572780.132        -244.094          43.000  
C25  25677531.022   134936346.884       -2456.567          25.000    25677537.603   100764173.413       -1834.960          27.000  
C27  24930695.843   131011660.300        2384.162          31.000    24930693.942    97833399.333        1780.784          27.000  
C28  22551578.742   118509348.308         312.017          39.000    22551584.940    88497262.208         232.365          34.000  
C37  24207058.539   127208963.677        2157.650          35.000    24207071.405    94993745.340        1610.992          34.000  
C39  37493996.109   197032306.177       -1081.365          30.000    37493995.737                        -810.773          23.000  
E11  26059634.608                       -1305.492          26.000                                                                  
G02  21312178.148   111996256.009         198.410          43.000                                                                  
G07  21389008.700   112400002.137         737.465          37.000                                                                  
G03  25861138.455   135901199.2263       2134.463          26.000                                                                  
G17  24353809.932   127980075.855        1791.546          29.000                                                                  
G21  21336621.085   112124705.513       -1444.470          42.000                                                                  
C38  41030078.732                        1518.327          16.000                                                                  
> 2025 01 17 07 41 53.0030000  0 20                     
E25  25429752.610   133634256.775          -5.211          37.000    25429763.408    99791853.047          -3.628          36.000  
E08  28104696.359   147691177.276        -694.073          28.000    28104715.085                        -519.747          23.000  
E03  27462192.018   144314767.036       -2063.862          35.000    27462204.806                       -1567.899          16.000  
G01  21646553.560   113753409.078        1311.090          41.000    21646558.360    84945749.485         978.333          34.000  
G09  25037423.018                       -2329.553          18.000    25037452.236                       -1738.450          22.000  
G30  23182596.037   121825355.0912       2500.550          31.000    23182599.374                        1866.922          25.000  
E02  26123132.058   137278001.027        1253.871          35.000    26123145.693   102512836.674         935.856          33.000  
C23  23080546.559   121289095.514        -327.420          43.000    23080547.654    90573024.342        -244.546          43.000  
C25  25677997.586   134938804.793       -2458.837          24.000    25678005.909   100766008.790       -1835.143          27.000  
C27  24930241.827   131009275.776        2383.872          32.000    24930240.028    97831618.765        1780.526          28.000  
C28  22551519.668   118509036.897         311.185          40.000    22551525.758    88497029.619         232.493          34.000  
C37  24206648.360   127206806.406        2157.139          36.000    24206660.866    94992134.365        1610.748          34.000  
C39  37494200.959   197033387.606       -1082.398          30.000    37494201.433                        -812.602          22.000  
E11  26059882.576                       -1305.703          26.000                                                                  
G02  21312140.514   111996058.050         197.472          42.000                                                                  
G07  21388868.440   112399265.041         736.615          37.000                                                                  
G03  25860732.373   135899064.2472       2134.919          27.000                                                                  
G17  24353469.213   127978285.183        1789.818          30.000                                                                  
G21  21336896.091   112126150.562       -1445.538          41.000                                                                  
C38  41029792.030                        1480.574          16.000                                                                  
> 2025 01 17 07 41 54.0030000  0 20                     
E25  25429754.389   133634261.961          -5.560          38.000    25429764.304    99791856.990          -4.347          37.000  
E08  28104832.269   147691871.204        -694.576          28.000    28104846.655                        -517.213          23.000  
E03  27462584.369   144316831.044       -2064.545          35.000    27462599.544                       -1538.410          15.000  
G01  21646304.008   113752098.089        1310.315          41.000    21646308.871    84944770.541         978.711          34.000  
G09  25037866.747                       -2325.555          16.000    25037895.017                       -1728.708          22.000  
G30  23182120.022   121822855.9752       2499.315          30.000    23182123.125                        1865.804          26.000  
E02  26122893.845   137276746.811        1253.614          36.000    26122906.939   102511900.083         936.289          33.000  
C23  23080608.953   121289423.022        -327.844          43.000    23080609.965    90573268.955        -244.923          43.000  
C25  25678464.142                       -2462.698          23.000    25678473.621   100767844.524       -1836.125          27.000  
C27  24929787.819   131006891.773        2383.409          32.000    24929786.363    97829838.505        1779.769          28.000  
C28  22551460.803   118508726.029         310.334          40.000    22551466.691    88496797.513         231.922          34.000  
C37  24206238.557   127204649.377        2157.095          37.000    24206250.407    94990523.668        1610.219          34.000  
C39  37494407.703                       -1081.543          31.000    37494407.162                        -811.174          21.000  
E11  26060130.666   136946910.6911      -1306.604          26.000                                                                  
G02  21312103.166   111995860.820         196.531          43.000                                                                  
G07  21388728.304   112398528.654         735.962          37.000                                                                  
G03  25860326.135   135896929.0582       2135.114          26.000                                                                  
G17  24353128.180   127976494.902        1789.663          30.000                                                                  
G21  21337171.164   112127596.371       -1446.598          41.000                                                                  
C38  41029506.032                        1519.138          18.000                                                                  
> 2025 01 17 07 41 55.0030000  0 20                     
E25  25429754.876   133634267.316          -5.223          38.000    25429765.223    99791860.968          -3.984          37.000  
E08  28104961.918   147692565.524        -694.184          28.000    28104978.662                        -519.610          23.000  
E03  27462976.855   144318895.144       -2064.067          34.000    27462991.118                       -1543.004          16.000  
G01  21646054.987   113750787.780        1310.168          42.000    21646059.675    84943792.085         978.278          35.000  
G09  25038308.983                       -2323.749          16.000    25038339.700                       -1739.670          21.000  
G30  23181644.695   121820356.8281       2498.660          29.000    23181647.307                        1865.237          27.000  
E02  26122655.798   137275492.604        1254.680          37.000    26122668.170   102510963.526         936.485          33.000  
C23  23080671.216   121289751.043        -328.108          43.000    23080672.391    90573513.906        -244.945          43.000  
C25  25678929.422                       -2462.195          22.000    25678941.698   100769680.413       -1835.963          27.000  
C27  24929333.928   131004508.180        2382.401          33.000    24929332.698    97828058.518        1779.819          28.000  
C28  22551402.323   118508415.669         310.342          40.000    22551407.645    88496565.744         232.118          34.000  
C37  24205828.191   127202492.629        2156.886          37.000    24205840.015    94988913.097        1610.518          34.000  
C39  37494615.930   197035524.1521      -1082.061          32.000    37494612.815                        -806.148          20.000  
E11  26060383.082   136948217.572       -1306.573          27.000                                                                  
G02  21312065.549   111995664.343         196.073          43.000                                                                  
G07  21388588.446   112397792.992         735.386          38.000                                                                  
G03  25859919.761   135894793.3691       2135.608          25.000                                                                  
G17  24352787.683   127974704.979        1790.260          29.000                                                                  
G21  21337446.101   112129042.924       -1447.124          41.000                                                                  
C38  41029218.892                        1510.137          22.000                                                                  
> 2025 01 17 07 41 56.0030000  0 20                     
E25  25429756.195   133634272.841          -5.881          38.000    25429766.186    99791865.081          -4.200          37.000  
E08  28105094.659   147693260.358        -694.693          28.000    28105111.213                        -520.464          24.000  
E03  27463370.180   144320959.462       -2064.435          35.000    27463383.693                       -1554.352          16.000  
G01  21645805.837   113749478.204        1309.119          41.000    21645810.498    84942814.146         977.338          35.000  
G09  25038750.755                       -2318.358          16.000    25038782.299                       -1741.459          21.000  
G30  23181168.119   121817858.664        2498.259          29.000    23181171.700    90967896.1011       1865.203          27.000  
E02  26122417.481   137274238.494        1254.061          37.000    26122429.523   102510027.006         936.575          33.000  
C23  23080734.225   121290079.592        -328.735          43.000    23080734.933    90573759.257        -245.546          43.000  
C25  25679397.039                       -2462.889          21.000    25679409.628   100771516.552       -1835.908          27.000  
C27  24928880.568   131002124.895        2382.979          32.000    24928879.080    97826278.902        1779.177          28.000  
C28  22551343.487   118508105.898         309.560          40.000    22551348.606    88496334.457         231.182          35.000  
C37  24205418.227   127200336.188        2156.209          37.000    24205429.618    94987302.756        1610.389          34.000  
C39  37494821.726   197036606.330       -1081.810          31.000    37494817.388                        -808.795          19.000  
E11  26060632.801   136949524.969       -1307.452          27.000                                                                  
G02  21312028.753   111995468.664         195.187          43.000                                                                  
G07  21388448.749   112397058.062         734.439          38.000                                                                  
G03  25859513.322   135892657.871        2135.601          26.000                                                                  
G17  24352447.141   127972915.537        1789.180          30.000                                                                  
G21  21337721.417   112130490.273       -1447.892          41.000                                                                  
C38  41028931.132                        1519.428          23.000                                                                  
> 2025 01 17 07 41 57.0030000  0 20                     
E25  25429757.137   133634278.394          -6.091          38.000    25429767.340    99791869.237          -4.552          37.000  
E08  28105227.017   147693955.491        -695.728          28.000    28105243.668                        -518.178          24.000  
E03  27463763.074   144323023.785       -2064.394          35.000    27463781.491                       -1563.303          14.000  
G01  21645556.904   113748169.164        1308.539          41.000    21645561.540    84941836.629         977.338          35.000  
G09  25039192.655                       -2331.549          16.000    25039223.657                       -1731.199          20.000  
G30  23180692.109   121815360.824        2497.595          28.000    23180696.651    90966030.886        1865.345          27.000  
E02  26122179.134   137272984.300        1254.488          37.000    26122190.984   102509090.435         936.565          34.000  
C23  23080797.042   121290408.533        -329.299          44.000    23080797.478    90574004.888        -245.979          43.000  
C25  25679864.188                       -2454.283          21.000    25679875.857   100773352.925       -1836.391          27.000  
C27  24928426.919   130999741.948        2382.987          32.000    24928425.538    97824499.367        1779.079          28.000  
C28  22551284.555   118507796.557         308.947          40.000    22551289.751    88496103.453         230.919          34.000  
C37  24205008.056   127198179.936        2155.934          36.000    24205019.252    94985692.574        1609.499          34.000  
C39  37495027.448   197037688.639       -1082.944          32.000    37495022.718                        -797.269          19.000  
E11  26060880.902   136950832.770       -1308.475          27.000                                                                  
G02  21311991.839   111995273.617         194.358          43.000                                                                  
G07  21388309.027   112396323.747         733.818          38.000                                                                  
G03  25859106.818   135890522.126        2136.193          25.000                                                                  
G17  24352106.683   127971126.360        1787.909          31.000                                                                  
G21  21337997.069   112131938.257       -1448.667          41.000                                                                  
C38  41028643.636                        1516.080          24.000                                                                  
> 2025 01 17 07 41 58.0030000  0 20                     
E25  25429758.576   133634284.352          -5.986          38.000    25429768.537    99791873.662          -4.789          37.000  
E08  28105359.281   147694651.235        -696.252          28.000    28105377.010                        -522.638          24.000  
G01  21645307.720   113746861.077        1307.507          41.000    21645312.625    84940859.773         976.251          35.000  
G09  25039633.941                       -2316.108          16.000    25039663.834                       -1739.512          20.000  
G30  23180217.020   121812863.880        2496.134          29.000    23180222.173    90964166.207        1864.479          28.000  
E02  26121939.918   137271730.407        1253.809          36.000    26121952.395   102508154.097         935.508          34.000  
C23  23080859.918   121290738.218        -330.128          44.000    23080860.293    90574251.059        -246.552          43.000  
C25  25680333.266                       -2468.276          19.000    25680343.657   100775189.725       -1837.170          27.000  
C27  24927973.609   130997359.716        2381.683          32.000    24927972.196    97822720.393        1778.757          28.000  
C28  22551225.705   118507488.025         308.355          40.000    22551231.073    88495873.030         229.894          35.000  
C37  24204597.527   127196024.175        2155.300          35.000    24204609.110    94984082.697        1610.100          34.000  
C39  37495235.359   197038771.396       -1083.123          32.000    37495228.749                        -808.245          18.000  
E03  27464156.357   144325088.488       -2064.603          35.000                                                                  
E11  26061129.410   136952141.290       -1309.010          26.000                                                                  
G02  21311954.976   111995079.580         193.665          43.000                                                                  
G07  21388169.635   112395590.398         732.582          38.000                                                                  
G03  25858700.313   135888386.566        2134.897          26.000                                                                  
G17  24351766.385   127969337.802        1788.365          31.000                                                                  
G21  21338272.765   112133387.261       -1449.482          41.000                                                                  
C38  41028353.720                        1515.662          25.000                                                                  
> 2025 01 17 07 41 59.0030000  0 20                     
E25  25429759.693   133634290.545          -5.912          38.000    25429769.732    99791878.297          -4.786          37.000  
E08  28105492.641   147695347.661        -696.914          28.000    28105510.613                        -518.341          24.000  
G01  21645059.065   113745553.741        1307.013          42.000    21645063.744    84939883.547         975.470          35.000  
G09  25040073.120                       -2316.990          18.000    25040107.066                       -1730.851          21.000  
G30  23179742.092   121810367.440        2496.527          28.000    23179746.673                        1865.220          27.000  
E02  26121701.549   137270476.620        1253.411          36.000    26121713.899   102507217.785         936.683          33.000  
C23  23080922.712   121291068.482        -330.397          44.000    23080923.075    90574497.683        -246.938          43.000  
C25  25680801.871                       -2461.672          21.000    25680811.400   100777026.898       -1837.802          26.000  
C27  24927520.026   130994977.974        2380.930          32.000    24927518.911    97820941.796        1778.568          28.000  
C28  22551167.053   118507180.137         307.915          40.000    22551172.434    88495643.100         229.726          35.000  
C37  24204187.053   127193868.748        2155.366          35.000    24204198.900    94982473.182        1609.688          34.000  
C39  37495439.874   197039854.522       -1083.107          32.000    37495434.197                        -813.205          17.000  
E03  27464549.879   144327153.467       -2065.242          35.000                                                                  
E11  26061379.807                       -1310.377          26.000                                                                  
G02  21311918.225   111994886.397         192.877          43.000                                                                  
G07  21388030.232   112394857.827         732.269          38.000                                                                  
G03  25858293.753   135886250.795        2135.868          26.000                                                                  
G17  24351425.887   127967549.806        1787.377          31.000                                                                  
G21  21338548.487   112134837.131       -1450.344          41.000                                                                  
C38  41028064.985                        1515.973          25.000                                                                  
> 2025 01 17 07 42 00.0030000  0 20                     
E25  25429760.934   133634296.973          -6.522          37.000    25429770.890    99791883.104          -4.773          36.000  
E08  28105625.787   147696044.396        -697.082          29.000    28105642.172                        -519.842          24.000  
G01  21644810.404   113744247.197        1306.433          42.000    21644815.165    84938907.820         975.763          34.000  
G09  25040511.271                       -2323.607          17.000    25040549.554                       -1730.826          21.000  
G30  23179266.796   121807871.574        2495.948          28.000    23179272.273                        1865.170          26.000  
E02  26121463.158   137269222.930        1253.588          37.000    26121475.575   102506281.618         935.630          33.000  
C23  23080985.705   121291399.328        -331.218          44.000    23080986.051    90574744.744        -247.186          43.000  
C25  25681271.077                       -2464.586          20.000    25681281.088   100778864.306       -1837.847          26.000  
C27  24927066.508   130992596.608        2381.165          32.000    24927065.732    97819163.620        1777.672          27.000  
C28  22551108.351   118506872.895         306.748          39.000    22551114.030    88495413.649         229.147          35.000  
C37  24203777.130   127191713.723        2154.677          38.000    24203788.815    94980863.923        1608.729          34.000  
C39  37495643.401   197040937.956       -1084.350          31.000    37495641.979                        -813.022          18.000  
E03  27464943.072   144329218.632       -2065.229          35.000                                                                  
E11  26061629.947   136954789.2121      -1309.188          26.000                                                                  
G02  21311881.383   111994694.054         191.980          43.000                                                                  
G07  21387890.905   112394126.053         731.549          38.000                                                                  
G03  25857887.358   135884115.053        2135.803          27.000                                                                  
G17  24351085.665   127965762.281        1786.640          30.000                                                                  
G21  21338824.576   112136287.842       -1451.148          41.000                                                                  
C38  41027776.489                        1513.690          25.000                                                                  
> 2025 01 17 07 42 01.0030000  0 20                     
E25  25429761.104   133634303.641          -6.650          35.000    25429772.344    99791888.071          -5.321          37.000  
E08  28105758.609   147696741.756        -697.882          29.000    28105776.462                        -521.920          23.000  
G01  21644561.838   113742941.345        1305.396          41.000    21644566.633    84937932.715         974.799          35.000  
G09  25040953.829                       -2317.864          17.000    25040991.408                       -1734.574          22.000  
G30  23178792.162   121805376.404        2494.872          28.000    23178798.399                        1862.939          25.000  
E02  26121224.918   137267969.356        1253.316          36.000    26121236.877   102505345.521         935.763          34.000  
C23  23081049.095   121291730.737        -331.725          44.000    23081049.043    90574992.238        -247.911          43.000  
C25  25681738.956                       -2465.261          19.000    25681749.539   100780702.092       -1837.722          27.000  
C27  24926612.715   130990215.751        2380.368          33.000    24926612.614    97817385.711        1777.619          28.000  
C28  22551050.717   118506566.213         306.096          40.000    22551055.712    88495184.662         228.389          35.000  
C37  24203367.210   127189559.098        2153.896          35.000    24203378.654    94979254.875        1609.340          34.000  
C39  37495848.255   197042021.716       -1084.120          31.000    37495848.298                        -806.513          20.000  
E03  27465335.215   144331284.023       -2065.302          34.000                                                                  
E11  26061878.371   136956099.495       -1309.596          26.000                                                                  
G02  21311844.542   111994502.538         191.007          42.000                                                                  
G07  21387752.091   112393395.055         730.644          37.000                                                                  
G03  25857480.773   135881979.135        2136.146          27.000                                                                  
G17  24350745.701   127963975.086        1786.692          29.000                                                                  
G21  21339101.030   112137739.388       -1452.102          41.000                                                                  
C38  41027486.932                        1517.533          24.000                                                                  
> 2025 01 17 07 42 02.0030000  0 20                     
E25  25429762.097   133634310.406          -7.363          35.000    25429773.583    99791893.159          -5.370          37.000  
E08  28105891.294   147697439.411        -697.817          29.000    28105906.460                        -516.419          22.000  
G01  21644313.429   113741636.177        1304.401          42.000    21644318.174    84936958.113         974.365          35.000  
G09  25041396.709                       -2323.036          18.000    25041433.246                       -1730.684          22.000  
G30  23178317.374   121802881.555        2494.181          27.000    23178322.153                        1862.034          26.000  
E02  26120985.691   137266715.764        1253.389          36.000    26120998.391   102504409.431         935.990          34.000  
C23  23081112.001   121292062.605        -332.333          43.000    23081112.154    90575240.079        -247.985          43.000  
C25  25682208.174                       -2458.151          18.000    25682218.156   100782540.143       -1838.529          27.000  
C27  24926158.952   130987835.291        2380.051          32.000    24926159.665    97815608.071        1777.462          28.000  
C28  22550992.732   118506260.055         305.477          40.000    22550997.420    88494956.049         228.313          35.000  
C37  24202957.024   127187404.567        2154.002          36.000    24202968.675    94977646.072        1608.902          35.000  
C39  37496055.749   197043105.685       -1084.760          32.000    37496055.643                        -818.494          19.000  
E03  27465727.088   144333349.479       -2065.609          34.000                                                                  
E11  26062128.233   136957410.428       -1311.552          27.000                                                                  
G02  21311808.274   111994311.709         190.270          42.000                                                                  
G07  21387613.096   112392664.746         730.216          38.000                                                                  
G03  25857074.215   135879842.997        2135.583          27.000                                                                  
G17  24350405.747   127962188.359        1786.612          29.000                                                                  
G21  21339377.302   112139191.643       -1452.853          41.000                                                                  
C38  41027197.033                        1515.048          23.000                                                                  
> 2025 01 17 07 42 03.0030000  0 20                     
E25  25429762.025   133634317.459          -7.229          35.000    25429774.965    99791898.394          -5.176          37.000  
E08  28106024.093   147698137.657        -698.370          29.000    28106038.963                        -522.089          22.000  
G01  21644064.869   113740331.784        1303.973          42.000    21644070.037    84935984.081         974.072          35.000  
G09  25041839.800                       -2325.294          20.000    25041875.783                       -1738.047          21.000  
G30  23177842.656   121800387.368        2494.242          28.000    23177847.893    90954853.3981       1862.633          26.000  
E02  26120747.118   137265462.382        1252.963          37.000    26120759.834   102503473.433         936.311          33.000  
C23  23081175.538   121292395.113        -332.875          44.000    23081175.487    90575488.377        -248.475          43.000  
C25  25682675.961                       -2462.847          22.000    25682685.638   100784378.535       -1838.816          26.000  
C27  24925705.685   130985455.308        2379.467          33.000    24925706.830    97813830.832        1777.173          27.000  
C28  22550934.567   118505954.556         304.859          40.000    22550939.257    88494727.963         227.413          34.000  
C37  24202547.774   127185250.517        2153.965          36.000    24202558.818    94976037.566        1607.960          34.000  
C39  37496263.301   197044190.001       -1084.483          33.000    37496260.958                        -809.452          18.000  
E03  27466120.236   144335415.262       -2065.774          34.000                                                                  
E11  26062378.137   136958721.892       -1312.288          27.000                                                                  
G02  21311772.310   111994121.771         189.470          42.000                                                                  
G07  21387474.271   112391935.287         728.706          38.000                                                                  
G03  25856667.863   135877706.709        2136.826          26.000                                                                  
G17  24350066.020   127960402.132        1785.316          28.000                                                                  
G21  21339653.751   112140644.778       -1453.449          41.000                                                                  
C38  41026910.334                        1514.210          25.000                                                                  
> 2025 01 17 07 42 04.0030000  0 19                     
E25  25429763.232   133634324.585          -7.310          36.000    25429776.329    99791903.722          -5.374          37.000  
E08  28106157.183   147698836.339        -699.265          29.000    28106172.045                        -520.307          23.000  
G01  21643816.829   113739028.021        1303.308          42.000    21643822.277    84935010.489         973.407          36.000  
G09  25042284.774                       -2322.813          21.000    25042319.184                       -1724.732          21.000  
G30  23177368.008   121797893.567        2493.619          28.000    23177371.816    90952991.252        1861.544          27.000  
E02  26120508.468   137264208.892        1253.373          38.000    26120521.298   102502537.415         936.339          34.000  
C23  23081239.025   121292728.034        -333.217          44.000    23081238.785    90575736.990        -248.632          43.000  
C25  25683144.053                       -2460.896          24.000    25683152.765   100786217.070       -1839.211          27.000  
C27  24925252.147   130983075.697        2379.036          33.000    24925253.930    97812053.838        1776.900          28.000  
C28  22550876.393   118505649.525         304.901          40.000    22550881.197    88494500.159         227.763          35.000  
C37  24202138.333   127183096.710        2153.400          36.000    24202148.936    94974429.176        1607.787          35.000  
C39  37496469.766   197045274.474       -1084.811          33.000    37496465.522                        -795.722          18.000  
E03  27466512.851   144337481.083       -2065.971          34.000                                                                  
E11  26062626.121   136960033.742       -1312.067          28.000                                                                  
G02  21311735.786   111993932.524         188.847          42.000                                                                  
G07  21387335.829   112391206.460         727.985          38.000                                                                  
G17  24349726.422   127958616.216        1785.497          29.000                                                                  
G21  21339930.464   112142098.623       -1454.145          41.000                                                                  
C38  41026621.306   215596349.8111       1515.491          26.000                                                                  
> 2025 01 17 07 42 05.0030000  0 19                     
E25  25429764.740   133634331.934          -7.174          37.000    25429777.709    99791909.230          -5.924          37.000  
E08  28106290.130   147699535.488        -699.794          29.000    28106305.381                        -518.209          22.000  
G01  21643568.730   113737725.017        1302.399          41.000    21643574.499    84934037.471         972.656          35.000  
G09  25042727.545                       -2329.315          22.000    25042761.417                       -1733.045          21.000  
G30  23176893.570   121795400.488        2492.994          27.000    23176898.173    90951129.468        1861.182          27.000  
E02  26120270.383   137262955.561        1253.225          38.000    26120282.764   102501601.465         936.240          33.000  
C23  23081302.525   121293061.536        -333.851          44.000    23081302.202    90575986.041        -249.534          43.000  
C25  25683614.519                       -2461.546          22.000    25683621.227   100788055.943       -1839.220          26.000  
C27  24924799.688   130980696.546        2379.615          34.000    24924801.302    97810277.196        1776.653          28.000  
C28  22550818.320   118505345.142         304.094          40.000    22550823.170    88494272.869         227.378          34.000  
C37  24201728.416   127180943.214        2153.169          36.000    24201739.110    94972821.021        1608.266          34.000  
E03  27466906.738   144339547.184       -2066.357          34.000                                                                  
E11  26062873.157   136961346.228       -1312.869          28.000                                                                  
G02  21311699.747   111993744.137         187.637          42.000                                                                  
G07  21387197.339   112390478.402         727.308          39.000                                                                  
G17  24349386.847   127956830.814        1785.068          29.000                                                                  
G21  21340207.156   112143553.306       -1455.146          41.000                                                                  
C38  41026337.453   215594834.256        1515.306          25.000                                                                  
C39  37496676.776   197046359.289       -1084.698          33.000                                                                  
> 2025 01 17 07 42 06.0030000  0 20                     
E25  25429766.355   133634339.499          -7.386          37.000    25429779.163    99791914.852          -5.793          37.000  
E08  28106423.589   147700235.076        -700.091          29.000    28106436.615                        -521.796          23.000  
G01  21643320.944   113736422.740        1301.990          41.000    21643326.665    84933064.967         972.479          36.000  
G09  25043167.609                       -2322.887          20.000    25043204.708                       -1738.792          21.000  
G30  23176419.277   121792907.920        2492.074          27.000    23176423.046    90949268.066        1861.432          28.000  
E02  26120031.823   137261702.318        1252.989          38.000    26120044.300   102500665.612         935.419          34.000  
C23  23081366.291   121293395.615        -334.342          44.000    23081365.868    90576235.485        -249.806          44.000  
C25  25684082.270                       -2464.571          22.000    25684089.019   100789895.083       -1839.182          26.000  
C27  24924346.400   130978317.832        2378.582          34.000    24924348.670    97808500.883        1776.671          29.000  
C28  22550760.462   118505041.385         303.126          40.000    22550765.361    88494046.010         226.298          35.000  
C37  24201318.961   127178790.053        2153.111          36.000    24201329.336    94971213.168        1607.382          35.000  
C39  37496883.522   197047444.424       -1085.298          33.000    37496878.789                        -812.598          18.000  
E03  27467299.970   144341613.403       -2066.367          34.000                                                                  
E11  26063122.421   136962659.300       -1313.861          27.000                                                                  
G02  21311664.034   111993556.557         187.226          42.000                                                                  
G07  21387059.036   112389751.135         727.250          38.000                                                                  
G03  25855448.297   135871297.1621       2136.561          26.000                                                                  
G17  24349047.354   127955045.917        1784.265          30.000                                                                  
G21  21340483.980   112145008.813       -1455.871          41.000                                                                  
C38  41026051.564   215593318.810        1515.787          25.000                                                                  
> 2025 01 17 07 42 07.0030000  0 19                     
E25  25429767.755   133634347.223          -7.988          37.000    25429780.570    99791920.605          -5.555          37.000  
E08  28106557.530   147700935.094        -700.338          29.000    28106569.861                        -519.786          22.000  
G01  21643073.243   113735121.124        1301.453          42.000    21643079.024    84932093.013         971.552          36.000  
G09  25043612.260                       -2327.405          19.000    25043647.027                       -1739.057          21.000  
G30  23175945.114   121790415.801        2492.263          27.000    23175949.863    90947407.127        1860.530          28.000  
E02  26119792.595   137260449.076        1253.640          37.000    26119805.720   102499729.766         935.659          34.000  
C23  23081429.775   121293730.148        -334.622          44.000    23081429.474    90576485.309        -249.945          44.000  
C25  25684550.434                       -2458.721          22.000    25684557.815                       -1839.291          25.000  
C27  24923893.918   130975939.582        2377.669          34.000    24923896.065    97806724.914        1775.947          29.000  
C28  22550703.036   118504738.129         302.887          40.000    22550707.519    88493819.535         226.498          35.000  
C37  24200909.502   127176637.170        2152.875          36.000    24200919.721    94969605.509        1607.314          35.000  
C39  37497090.515   197048529.734       -1085.586          33.000    37497086.709                        -807.702          18.000  
E03  27467693.477   144343679.790       -2066.210          34.000                                                                  
E11  26063373.196   136963972.816       -1313.692          27.000                                                                  
G02  21311628.443   111993369.714         186.436          43.000                                                                  
G07  21386920.949   112389024.558         726.693          38.000                                                                  
G17  24348707.737   127953261.335        1784.511          29.000                                                                  
G21  21340760.969   112146465.050       -1456.488          41.000                                                                  
C38  41025765.597   215591803.381        1515.397          26.000                                                                  
> 2025 01 17 07 42 08.0030000  0 19                     
E25  25429769.359   133634355.033          -8.076          37.000    25429781.972    99791926.401          -5.364          37.000  
E08  28106690.431   147701635.450        -700.487          30.000    28106704.420                        -527.228          21.000  
G01  21642825.733   113733820.145        1300.647          42.000    21642831.475    84931121.472         971.387          35.000  
G09  25044057.209                       -2324.838          18.000    25044088.574                       -1726.789          19.000  
G30  23175470.842   121787924.141        2491.129          28.000    23175475.198    90945546.405        1861.021          27.000  
E02  26119554.607   137259195.836        1253.434          37.000    26119567.103   102498793.899         935.862          33.000  
C23  23081493.532   121294065.132        -335.143          44.000    23081493.326    90576735.444        -250.215          43.000  
C25  25685018.875                       -2464.248          24.000    25685027.406                       -1839.141          26.000  
C27  24923441.664   130973561.564        2378.072          33.000    24923443.570    97804949.141        1775.839          28.000  
C28  22550645.884   118504435.349         302.691          40.000    22550649.866    88493593.483         225.290          34.000  
C37  24200499.493   127174484.486        2152.297          36.000    24200510.196    94967997.963        1607.582          34.000  
C39  37497297.500   197049615.272       -1085.468          34.000    37497292.561                        -809.976          17.000  
E03  27468086.269   144345746.249       -2066.298          33.000                                                                  
E11  26063625.568   136965286.847       -1313.870          28.000                                                                  
G02  21311593.131   111993183.563         185.691          42.000                                                                  
G07  21386782.616   112388298.642         725.669          38.000                                                                  
G17  24348368.132   127951477.096        1783.904          29.000                                                                  
G21  21341038.191   112147921.986       -1457.154          41.000                                                                  
C38  41025477.786   215590287.854        1515.590          27.000                                                                  
> 2025 01 17 07 42 09.0030000  0 19                     
E25  25429770.968   133634362.953          -8.076          37.000    25429783.488    99791932.403          -6.595          37.000  
E08  28106824.141   147702336.286        -701.357          29.000    28106837.850                        -529.375          21.000  
G01  21642578.331   113732519.825        1299.780          42.000    21642584.131    84930150.506         969.983          36.000  
G09  25044503.608                       -2325.443          18.000    25044530.472                       -1731.063          18.000  
G30  23174996.834   121785433.001        2490.548          28.000    23175000.003    90943686.158        1860.154          27.000  
E02  26119316.178   137257942.581        1253.288          38.000    26119328.637   102497858.097         935.230          33.000  
C23  23081557.441   121294400.594        -335.785          44.000    23081557.078    90576986.002        -251.354          43.000  
C25  25685491.049                       -2464.598          25.000    25685496.304                       -1840.186          26.000  
C27  24922989.349   130971183.966        2378.002          33.000    24922991.311    97803173.760        1774.582          28.000  
C28  22550589.117   118504133.115         301.937          41.000    22550592.356    88493367.789         225.065          34.000  
C37  24200089.714   127172332.087        2152.258          36.000    24200100.496    94966390.727        1605.816          34.000  
C39  37497504.796   197050701.015       -1085.600          33.000    37497499.566                        -815.480          17.000  
E03  27468479.915   144347812.837       -2066.644          34.000                                                                  
E11  26063873.762   136966601.374       -1315.126          28.000                                                                  
G02  21311558.125   111992998.164         184.762          42.000                                                                  
G07  21386644.546   112387573.440         724.909          38.000                                                                  
G17  24348028.381   127949693.201        1783.194          28.000                                                                  
G21  21341315.564   112149379.673       -1458.131          41.000                                                                  
C38  41025186.412   215588772.311        1515.123          27.000                                                                  
> 2025 01 17 07 42 10.0030000  0 19                     
E25  25429772.745   133634371.096          -8.117          36.000    25429785.042    99791938.504          -6.835          36.000  
E08  28106957.502   147703037.563        -701.676          29.000    28106971.403                        -522.508          21.000  
G01  21642330.904   113731220.258        1298.914          42.000    21642336.877    84929180.037         970.117          35.000  
G09  25044948.124                       -2314.470          18.000    25044972.592                       -1733.141          18.000  
G30  23174522.592   121782942.404        2490.290          28.000    23174527.443    90941826.373        1859.230          27.000  
E02  26119077.972   137256689.474        1252.819          38.000    26119090.302   102496922.292         935.208          33.000  
C23  23081621.488   121294736.633        -336.370          44.000    23081621.065    90577236.935        -251.401          42.000  
C25  25685961.423                       -2462.942          26.000    25685965.460                       -1839.935          25.000  
C27  24922536.922   130968806.898        2376.653          33.000    24922538.937    97801398.616        1775.049          27.000  
C28  22550531.830   118503831.492         301.167          40.000    22550534.923    88493142.547         225.211          34.000  
C37  24199679.865   127170180.012        2151.652          36.000    24199690.901    94964783.613        1607.300          34.000  
C39  37497711.246   197051787.104       -1086.543          33.000    37497703.762                        -789.001          16.000  
E03  27468872.790   144349879.690       -2067.413          33.000                                                                  
E11  26064125.211   136967916.457       -1315.800          28.000                                                                  
G02  21311523.083   111992813.592         183.841          42.000                                                                  
G07  21386506.765   112386849.032         723.673          39.000                                                                  
G17  24347688.758   127947909.786        1783.201          28.000                                                                  
G21  21341593.123   112150838.217       -1459.115          41.000                                                                  
C38  41024893.231   215587256.801        1514.996          27.000                                                                  
> 2025 01 17 07 42 11.0030000  0 20                     
E25  25429774.259   133634379.500          -8.224          36.000    25429786.478    99791944.770          -6.614          37.000  
E08  28107091.697   147703739.388        -701.957          29.000    28107104.715                        -521.319          22.000  
G01  21642083.637   113729921.458        1298.547          42.000    21642089.807    84928210.171         969.562          36.000  
G09  25045387.945                       -2320.958          19.000    25045416.202                       -1735.644          20.000  
G30  23174048.648   121780452.446        2489.653          27.000    23174053.591    90939967.008        1858.648          27.000  
E02  26118839.675   137255436.452        1253.121          38.000    26118851.819   102495986.603         935.727          33.000  
C23  23081685.501   121295073.267        -336.808          44.000    23081685.160    90577488.301        -251.335          43.000  
C25  25686432.927   134983115.1151      -2464.644          27.000    25686434.766                       -1840.964          26.000  
C27  24922084.778   130966430.299        2376.250          33.000    24922086.654    97799623.882        1774.947          28.000  
C28  22550474.148   118503530.519         300.779          40.000    22550477.702    88492917.788         224.871          34.000  
C37  24199270.980   127168028.285        2151.912          36.000    24199281.519    94963176.865        1606.205          35.000  
C39  37497917.192   197052873.521       -1086.271          33.000    37497909.428                        -780.320          16.000  
E03  27469265.577   144351946.727       -2066.775          33.000                                                                  
E11  26064378.833   136969232.088       -1315.414          28.000                                                                  
G02  21311488.053   111992629.857         183.256          42.000                                                                  
G07  21386368.947   112386125.418         723.094          39.000                                                                  
G03  25853414.734                        2137.658          23.000                                                                  
G17  24347349.114   127946126.855        1782.958          27.000                                                                  
G21  21341870.841   112152297.591       -1459.791          41.000                                                                  
C38  41024604.352   215585741.308        1515.243          26.000                                                                  
> 2025 01 17 07 42 12.0030000  0 20                     
E25  25429775.664   133634388.133          -9.112          36.000    25429788.325    99791951.201          -6.703          37.000  
E08  28107225.084   147704441.665        -702.987          28.000    28107238.405                        -528.208          23.000  
G01  21641836.611   113728623.400        1297.693          42.000    21641842.906    84927240.853         968.530          36.000  
G09  25045829.118                       -2327.916          20.000    25045856.387                       -1729.912          21.000  
G30  23173574.974   121777962.928        2489.261          26.000    23173580.198    90938108.009        1858.195          27.000  
E02  26118601.156   137254183.529        1252.841          38.000    26118613.363   102495050.992         935.315          33.000  
C23  23081749.325   121295410.455        -337.519          44.000    23081749.347    90577740.107        -252.039          43.000  
C25  25686902.429   134985580.393       -2466.198          27.000    25686903.387                       -1842.345          26.000  
C27  24921632.727   130964054.100        2376.172          34.000    24921634.509    97797849.501        1774.128          28.000  
C28  22550416.775   118503230.127         300.298          40.000    22550420.684    88492693.467         224.420          34.000  
C37  24198861.501   127165876.974        2150.854          36.000    24198872.128    94961570.325        1606.336          35.000  
C39  37498123.798   197053960.242       -1087.525          32.000    37498112.627                        -811.570          15.000  
E03  27469659.537   144354013.970       -2066.865          33.000                                                                  
E11  26064630.923   136970548.401       -1317.009          28.000                                                                  
G02  21311453.123   111992446.933         182.543          42.000                                                                  
G07  21386231.549   112385402.567         722.376          39.000                                                                  
G03  25853004.167                        2136.658          22.000                                                                  
G17  24347009.783   127944344.494        1781.724          26.000                                                                  
G21  21342148.531   112153757.790       -1460.837          41.000                                                                  
C38  41024314.522   215584225.983        1515.110          26.000                                                                  
> 2025 01 17 07 42 13.0030000  0 20                     
E25  25429777.310   133634396.888          -9.006          36.000    25429790.087    99791957.704          -6.713          37.000  
E08  28107358.600   147705144.382        -703.060          28.000    28107371.920                        -525.802          22.000  
G01  21641589.681   113727326.006        1297.021          42.000    21641596.060    84926271.958         968.640          36.000  
G09  25046269.135                       -2321.166          19.000    25046299.589                       -1738.571          21.000  
G30  23173101.342   121775474.072        2487.687          26.000    23173106.093    90936249.279        1858.604          28.000  
E02  26118362.970   137252930.644        1252.755          38.000    26118374.932   102494115.332         935.810          33.000  
C23  23081813.811   121295748.102        -337.748          44.000    23081813.609    90577992.227        -252.395          43.000  
C25  25687370.984   134988045.796       -2465.801          27.000    25687372.383                       -1841.178          26.000  
C27  24921180.182   130961678.355        2375.577          34.000    24921182.582    97796075.342        1774.186          28.000  
C28  22550359.473   118502930.280         299.702          41.000    22550363.415    88492469.550         223.594          35.000  
C37  24198452.520   127163725.861        2151.451          37.000    24198462.808    94959963.994        1605.634          35.000  
C39  37498330.145   197055047.112       -1086.359          32.000    37498321.444                        -811.063          15.000  
E03  27470052.315   144356081.316       -2067.435          32.000                                                                  
E11  26064880.635   136971865.165       -1317.011          28.000                                                                  
G02  21311418.422   111992264.750         181.761          42.000                                                                  
G07  21386094.041   112384680.386         721.819          39.000                                                                  
G03  25852595.904                        2137.256          21.000                                                                  
G17  24346670.563   127942562.406        1781.817          26.000                                                                  
G21  21342426.552   112155218.717       -1461.490          41.000                                                                  
C38  41024028.408   215582710.530        1515.564          26.000                                                                  
> 2025 01 17 07 42 14.0030000  0 19                     
E25  25429778.555   133634405.628          -8.797          35.000    25429791.742    99791964.246          -6.547          37.000  
E08  28107492.737   147705847.390        -703.420          28.000    28107504.898                        -516.533          23.000  
G01  21641342.940   113726029.159        1296.368          42.000    21641349.347    84925303.559         968.042          36.000  
G09  25046710.542                       -2314.814          17.000    25046741.526                       -1732.682          22.000  
G30  23172627.802   121772985.431        2488.192          27.000    23172632.019    90934384.9211       1858.609          28.000  
E02  26118124.281   137251677.635        1252.987          38.000    26118136.507   102493179.676         935.693          34.000  
C23  23081877.575   121296086.144        -338.314          44.000    23081877.906    90578244.658        -252.656          43.000  
C25  25687841.391   134990511.480       -2465.881          27.000    25687841.817                       -1842.438          25.000  
C27  24920727.901   130959302.797        2375.131          34.000    24920730.573    97794301.484        1773.095          28.000  
C28  22550302.642   118502630.841         299.013          40.000    22550306.355    88492245.955         222.985          34.000  
C37  24198043.368   127161574.947        2149.969          37.000    24198053.429    94958357.758        1605.872          35.000  
C39  37498536.501   197056134.231       -1088.167          31.000    37498530.624                        -823.296          15.000  
E03  27470445.469   144358148.733       -2067.532          32.000                                                                  
E11  26065129.567   136973182.319       -1317.774          28.000                                                                  
G02  21311383.976   111992083.196         180.910          42.000                                                                  
G07  21385956.618   112383958.835         720.863          39.000                                                                  
G17  24346331.321   127940780.642        1781.364          25.000                                                                  
G21  21342704.804   112156680.297       -1462.073          41.000                                                                  
C38  41023740.016   215581194.980        1515.260          25.000                                                                  
> 2025 01 17 07 42 15.0030000  0 19                     
E25  25429779.861   133634414.557          -9.067          36.000    25429793.299    99791970.905          -6.565          37.000  
E08  28107625.973   147706550.785        -703.375          29.000    28107639.147                        -526.653          22.000  
G01  21641096.493   113724732.987        1295.789          42.000    21641102.645    84924335.618         967.749          36.000  
G09  25047152.654                       -2323.392          16.000    25047183.294                       -1731.932          21.000  
G30  23172154.149   121770497.378        2487.852          27.000    23172159.669    90932526.994        1857.628          27.000  
E02  26117886.102   137250424.680        1252.906          38.000    26117898.280   102492244.009         935.532          33.000  
C23  23081941.919   121296424.661        -338.773          44.000    23081942.249    90578497.443        -252.954          43.000  
C25  25688311.978   134992977.538       -2466.563          28.000    25688311.128                       -1840.864          24.000  
C27  24920275.034   130956927.687        2374.905          34.000    24920278.645    97792527.758        1773.901          27.000  
C28  22550245.205   118502331.945         298.602          41.000    22550249.350    88492022.740         222.716          34.000  
C37  24197634.759   127159424.242        2150.442          37.000    24197644.084    94956751.719        1606.332          34.000  
C39  37498743.055   197057221.433       -1086.358          31.000    37498737.867                        -816.077          15.000  
E03  27470838.419   144360216.237       -2067.542          31.000                                                                  
E11  26065381.679   136974499.907       -1317.505          28.000                                                                  
G02  21311349.461   111991902.375         180.381          42.000                                                                  
G07  21385819.604   112383237.963         720.482          38.000                                                                  
G17  24345991.939   127938999.185        1781.340          24.000                                                                  
G21  21342983.095   112158142.598       -1462.370          41.000                                                                  
C38  41023452.736   215579679.303        1516.034          24.000                                                                  
> 2025 01 17 07 42 16.0030000  0 19                     
E25  25429781.285   133634423.742          -9.101          35.000    25429795.090    99791977.772          -6.871          38.000  
E08  28107759.655   147707254.845        -704.525          29.000    28107773.287                        -537.423          24.000  
G01  21640850.016   113723437.615        1295.001          42.000    21640856.220    84923368.314         967.175          37.000  
G09  25047596.754                       -2331.674          15.000    25047625.790                       -1739.553          22.000  
G30  23171680.553   121768009.868        2487.740          26.000    23171687.744    90930669.491        1857.483          28.000  
E02  26117648.040   137249171.865        1252.615          38.000    26117659.909   102491308.498         935.659          34.000  
C23  23082006.750   121296763.821        -339.615          44.000    23082006.780    90578750.704        -253.431          43.000  
C25  25688779.851   134995444.111       -2466.801          27.000    25688781.527                       -1842.523          25.000  
C27  24919823.484   130954553.124        2374.230          34.000    24919826.618    97790754.587        1772.740          28.000  
C28  22550188.305   118502033.711         297.885          41.000    22550192.642    88491800.044         222.577          35.000  
C37  24197225.085   127157273.957        2150.239          37.000    24197234.726    94955146.003        1605.779          35.000  
C39  37498949.638   197058309.099       -1087.296          31.000    37498944.127                        -799.230          16.000  
E03  27471231.487   144362284.062       -2067.754          32.000                                                                  
E11  26065632.434   136975818.146       -1317.578          27.000                                                                  
G02  21311315.266   111991722.465         179.459          42.000                                                                  
G07  21385682.588   112382517.945         719.727          39.000                                                                  
G17  24345652.728   127937218.287        1780.509          26.000                                                                  
G21  21343261.465   112159605.830       -1463.469          41.000                                                                  
C38  41023164.205                        1518.801          23.000                                                                  
> 2025 01 17 07 42 17.0030000  0 19                     
E25  25429782.350   133634433.054          -8.876          35.000    25429796.990    99791984.774          -7.318          37.000  
E08  28107893.145   147707959.141        -704.575          29.000    28107906.469                        -526.311          23.000  
G01  21640603.565   113722142.915        1294.434          41.000    21640609.989    84922401.512         966.803          36.000  
G09                                                                  25048066.911                       -1732.343          21.000  
G30  23171205.459                        2489.653          24.000    23171213.599    90928812.387        1857.044          27.000  
E02  26117409.543   137247919.066        1252.842          38.000    26117421.582   102490373.002         935.278          34.000  
C23  23082071.342   121297103.449        -339.987          44.000    23082071.334    90579004.363        -253.846          43.000  
C25  25689246.865                       -2467.652          26.000    25689248.847                       -1842.350          23.000  
C27  24919371.934   130952178.943        2373.615          35.000    24919374.814    97788981.705        1772.672          28.000  
C28  22550131.181   118501736.037         297.161          40.000    22550136.068    88491577.748         222.106          34.000  
C37  24196815.944   127155123.958        2149.658          37.000    24196825.646    94953540.540        1605.206          34.000  
C39  37499156.652   197059396.997       -1087.629          32.000    37499150.005                        -815.819          14.000  
E03  27471624.636   144364351.973       -2068.038          32.000                                                                  
E11  26065884.345   136977136.999       -1318.858          27.000                                                                  
G02  21311281.376   111991543.284         179.054          42.000                                                                  
G07  21385545.859   112381798.640         718.617          39.000                                                                  
G17  24345313.727   127935437.969        1779.009          26.000                                                                  
G21  21343539.951   112161069.804       -1464.486          41.000                                                                  
C38  41022875.779                        1516.563          21.000                                                                  
> 2025 01 17 07 42 18.0030000  0 19                     
E25  25429784.560   133634442.667          -9.958          34.000    25429798.819    99791991.924          -7.299          38.000  
E08  28108027.259   147708664.159        -705.861          29.000    28108042.092                        -528.776          25.000  
G01  21640357.285   113720848.987        1293.579          41.000    21640363.824    84921435.297         965.668          37.000  
G09  25048481.385                       -2320.475          15.000    25048508.478                       -1733.704          21.000  
G30  23170729.383                        2482.849          22.000    23170743.630    90926955.741        1856.289          28.000  
E02  26117170.957   137246666.391        1252.409          38.000    26117183.383   102489437.575         935.428          34.000  
C23  23082136.085   121297443.679        -340.590          44.000    23082136.171    90579258.420        -254.330          43.000  
C25  25689717.202                       -2463.986          24.000    25689717.608                       -1842.960          23.000  
C27  24918920.101   130949805.186        2373.921          35.000    24918923.332    97787209.146        1771.726          28.000  
C28  22550074.595   118501438.958         296.906          40.000    22550079.637    88491355.927         221.667          35.000  
C37  24196406.464   127152974.322        2149.206          37.000    24196416.515    94951935.314        1604.491          34.000  
C39  37499364.392   197060485.199       -1088.911          31.000    37499355.336                        -783.178          15.000  
E03  27472018.275   144366420.096       -2068.165          32.000                                                                  
E11  26066133.721   136978456.340       -1319.744          27.000                                                                  
G02  21311247.483   111991364.954         177.837          43.000                                                                  
G07  21385408.898   112381080.093         718.305          39.000                                                                  
G17  24344974.912   127933706.2983       1779.667          24.000                                                                  
G21  21343818.583   112162534.597       -1465.130          41.000                                                                  
C38  41022587.980                        1513.638          21.000                                                                  
> 2025 01 17 07 42 19.0030000  0 19                     
E25  25429786.056   133634452.501         -10.036          34.000    25429800.570    99791999.269          -7.493          37.000  
E08  28108161.367   147709369.537        -705.505          27.000    28108176.077                        -521.090          24.000  
G01  21640111.317   113719555.845        1292.804          42.000    21640117.778    84920469.621         965.430          36.000  
G09                                                                  25048951.775                       -1732.121          21.000  
G30  23170255.691                        2483.840          20.000    23170271.170    90925099.492        1855.958          28.000  
E02  26116932.530   137245413.887        1252.255          37.000    26116945.034   102488502.290         934.440          34.000  
C23  23082200.897   121297784.505        -341.146          44.000    23082200.953    90579512.955        -254.989          43.000  
C25  25690187.313                       -2467.751          25.000    25690186.610                       -1843.779          22.000  
C27  24918468.631   130947432.003        2372.843          35.000    24918471.537    97785436.931        1771.776          28.000  
C28  22550018.355   118501142.586         295.685          39.000    22550023.206    88491134.596         220.587          34.000  
C37  24195997.428   127150825.058        2148.835          37.000    24196007.416    94950330.306        1605.662          34.000  
C39  37499571.632   197061573.732       -1088.133          31.000    37499562.743                        -803.145          14.000  
E03  27472412.177   144368488.551       -2068.629          32.000                                                                  
E11  26066384.325   136979776.416       -1320.571          27.000                                                                  
G02  21311213.706   111991187.494         176.964          43.000                                                                  
G07  21385272.183   112380362.398         717.414          38.000                                                                  
G17  24344636.044   127931926.3281       1779.678          25.000                                                                  
G21  21344097.416   112164000.290       -1466.083          41.000                                                                  
C38  41022297.465                        1515.382          21.000                                                                  
> 2025 01 17 07 42 20.0030000  0 19                     
E25  25429788.009   133634462.458         -10.042          34.000    25429802.731    99792006.687          -7.550          37.000  
E08  28108296.193   147710075.465        -706.038          28.000    28108309.493                        -526.318          24.000  
G01  21639865.598   113718263.353        1292.377          42.000    21639871.834    84919504.416         965.295          36.000  
G09  25049365.499                       -2317.961          17.000    25049394.304                       -1732.147          21.000  
G30  23169781.483                        2480.124          22.000    23169796.498    90923243.632        1855.544          27.000  
E02  26116694.008   137244161.353        1252.680          37.000    26116706.740   102487566.906         935.745          34.000  
C23  23082266.143   121298125.818        -341.486          44.000    23082265.769    90579767.781        -254.988          42.000  
C25  25690655.561                       -2468.643          26.000    25690655.239                       -1844.911          21.000  
C27  24918016.525   130945059.206        2372.357          34.000    24918019.928    97783664.970        1771.755          27.000  
C28  22549961.941   118500846.682         295.610          40.000    22549966.861    88490913.602         220.885          33.000  
C37  24195588.791   127148676.066        2148.970          38.000    24195598.586    94948725.532        1604.813          33.000  
C39  37499779.040   197062662.540       -1089.087          32.000    37499769.379                        -792.284          15.000  
E03  27472806.019   144370557.087       -2069.060          32.000                                                                  
E11  26066635.461   136981096.847       -1320.875          26.000                                                                  
G02  21311180.219   111991010.761         176.464          43.000                                                                  
G07  21385135.474   112379645.411         716.500          38.000                                                                  
G17  24344296.305                        1777.633          25.000                                                                  
G21  21344376.546   112165466.704       -1466.786          40.000                                                                  
C38  41022007.706                        1509.829          22.000                                                                  
> 2025 01 17 07 42 21.0030000  0 19                     
E25  25429790.141   133634472.603         -10.235          34.000    25429804.758    99792014.289          -7.618          38.000  
E08  28108431.469   147710781.792        -706.669          29.000    28108445.323                        -523.972          24.000  
G01  21639619.768   113716971.621        1291.425          43.000    21639625.985    84918539.792         964.935          37.000  
G09  25049808.055                       -2330.435          18.000    25049835.233                       -1722.739          22.000  
G30  23169309.600                        2482.971          25.000    23169321.487    90921388.182        1855.147          27.000  
E02  26116455.310   137242908.951        1252.670          37.000    26116468.285   102486631.642         935.523          34.000  
C23  23082331.366   121298467.670        -341.908          44.000    23082330.864    90580023.072        -255.266          43.000  
C25  25691125.418                       -2469.618          26.000    25691126.642                       -1846.982          21.000  
C27  24917564.557   130942686.846        2371.748          34.000    24917568.352    97781893.428        1771.378          27.000  
C28  22549906.144   118500551.407         294.895          40.000    22549910.749    88490693.093         220.479          34.000  
C37  24195179.316   127146527.391        2148.521          38.000    24195189.734    94947121.019        1604.845          34.000  
C39  37499986.049   197063751.584       -1088.491          31.000    37499977.093                        -816.842          16.000  
E03  27473200.647   144372625.801       -2068.961          33.000                                                                  
E11  26066887.394   136982417.877       -1321.091          26.000                                                                  
G02  21311146.769   111990834.836         175.463          43.000                                                                  
G07  21384999.176   112378929.159         716.208          39.000                                                                  
G17  24343958.100                        1774.450          21.000                                                                  
G21  21344655.623   112166933.934       -1467.529          40.000                                                                  
C38  41021716.321                        1510.892          23.000                                                                  
> 2025 01 17 07 42 22.0030000  0 19                     
E25  25429791.533   133634482.975         -10.109          33.000    25429806.779    99792022.061          -7.969          38.000  
E08  28108566.429   147711488.671        -707.277          28.000    28108580.167                        -524.612          23.000  
G01  21639374.009   113715680.631        1290.631          43.000    21639380.259    84917575.778         963.800          36.000  
G09  25050248.813                       -2330.325          17.000    25050278.391                       -1737.597          22.000  
G30  23168839.677   121753073.8063       2484.324          27.000    23168848.261    90919533.067        1855.746          26.000  
E02  26116216.419   137241656.647        1252.065          36.000    26116230.171   102485696.496         935.099          34.000  
C23  23082396.245   121298810.125        -342.765          44.000    23082396.072    90580278.806        -256.008          42.000  
C25  25691597.559                       -2468.803          26.000    25691597.437                       -1843.767          20.000  
C27  24917112.599   130940315.001        2371.393          34.000    24917116.840    97780122.207        1771.242          26.000  
C28  22549850.244   118500256.752         294.399          40.000    22549854.612    88490473.079         219.268          33.000  
C37  24194770.300   127144379.085        2148.048          38.000    24194780.863    94945516.774        1604.284          33.000  
C39  37500193.293   197064840.990       -1090.023          30.000    37500187.705                        -808.260          17.000  
E03  27473594.649   144374694.776       -2069.345          33.000                                                                  
E11  26067139.984   136983739.509       -1321.813          26.000                                                                  
G02  21311113.682   111990659.772         174.614          43.000                                                                  
G07  21384863.155   112378213.733         715.110          39.000                                                                  
G17  24343618.740                        1765.244          19.000                                                                  
G21  21344934.768   112168402.013       -1468.346          40.000                                                                  
C38  41021423.647                        1516.315          21.000                                                                  
> 2025 01 17 07 42 23.0030000  0 18                     
E25  25429793.990   133634493.680         -10.887          34.000    25429809.006    99792030.061          -8.094          38.000  
E08  28108701.669   147712196.049        -707.746          28.000    28108716.059                        -534.711          24.000  
G01  21639128.476   113714390.435        1289.966          42.000    21639134.738    84916612.352         963.635          37.000  
G09  25050694.164                       -2324.425          16.000    25050722.433                       -1741.480          23.000  
G30  23168366.717                        2481.681          26.000    23168377.523    90917678.608        1855.100          25.000  
E02  26115977.389   137240404.522        1251.716          35.000    26115991.868   102484761.471         935.093          34.000  
C23  23082461.890   121299153.185        -343.573          44.000    23082461.297    90580535.004        -256.416          43.000  
C25  25692064.855                       -2469.885          26.000    25692067.575                       -1845.118          23.000  
C27  24916661.464   130937943.614        2370.474          33.000    24916665.718    97778351.408        1770.820          27.000  
C28  22549794.130   118499962.737         293.956          41.000    22549798.569    88490253.525         219.884          34.000  
C37  24194361.665   127142231.195        2147.675          38.000    24194372.085    94943912.883        1603.610          34.000  
C39  37500400.993   197065930.774       -1090.925          31.000    37500395.822                        -808.687          20.000  
E03  27473988.441   144376763.913       -2069.333          33.000                                                                  
E11  26067391.633   136985061.925       -1323.783          26.000                                                                  
G02  21311080.467   111990485.553         173.784          43.000                                                                  
G07  21384727.396   112377499.117         714.182          39.000                                                                  
G21  21345214.380   112169870.949       -1469.300          41.000                                                                  
C38  41021135.474                        1510.131          22.000                                                                  
> 2025 01 17 07 42 24.0030000  0 19                     
E25  25429795.919   133634504.630         -11.109          34.000    25429810.953    99792038.206          -8.177          38.000  
E08  28108837.099   147712903.902        -707.963          29.000    28108850.765                        -528.636          24.000  
G01  21638883.297   113713101.025        1289.270          42.000    21638889.348    84915649.486         962.573          37.000  
G09                                                                  25051165.839                       -1727.847          22.000  
G30  23167893.345                        2479.422          25.000    23167906.590                        1849.843          24.000  
E02  26115739.311   137239152.481        1252.102          36.000    26115753.662   102483826.537         934.779          33.000  
C23  23082527.367   121299496.840        -343.936          44.000    23082526.746    90580791.642        -256.899          43.000  
C25  25692533.234                       -2468.582          26.000    25692537.816                       -1843.126          24.000  
C27  24916210.068   130935572.714        2370.547          32.000    24916214.423    97776580.987        1770.018          27.000  
C28  22549738.647   118499669.394         293.165          41.000    22549742.672    88490034.481         219.621          34.000  
C37  24193953.075   127140083.664        2147.581          38.000    24193963.424    94942309.206        1603.966          34.000  
C39  37500607.809   197067020.842       -1090.206          30.000    37500605.182                        -810.305          21.000  
E03  27474382.619   144378833.391       -2069.317          33.000                                                                  
E11  26067646.601   136986384.852       -1323.788          26.000                                                                  
G02  21311047.706   111990312.208         173.090          43.000                                                                  
G07  21384591.448   112376785.339         713.438          39.000                                                                  
G17  24342936.126                        1776.521          15.000                                                                  
G21  21345494.045   112171340.765       -1470.112          40.000                                                                  
C38  41020848.665                        1512.436          21.000                                                                  
> 2025 01 17 07 42 25.0030000  0 20                     
E25  25429797.293   133634515.622         -11.071          34.000    25429813.049    99792046.467          -8.539          37.000  
E08  28108972.281   147713612.209        -708.257          28.000    28108983.896                        -525.369          23.000  
G01  21638637.984   113711812.253        1288.306          43.000    21638644.031    84914687.080         962.170          36.000  
G08                                                                  23076178.064                       -1783.000          26.000  
G09                                                                  25051605.228                       -1729.014          22.000  
G30  23167419.895                        2482.028          26.000    23167435.355                        1854.369          24.000  
E02  26115501.144   137237900.463        1252.100          36.000    26115515.402   102482891.566         934.898          32.000  
C23  23082592.628   121299840.934        -344.569          44.000    23082592.210    90581048.583        -257.156          42.000  
C25  25693004.815                       -2470.855          26.000    25693008.056                       -1849.865          24.000  
C27  24915758.825   130933202.186        2369.908          33.000    24915763.219    97774810.787        1770.238          26.000  
C28  22549683.020   118499376.542         292.519          41.000    22549686.875    88489815.801         218.592          33.000  
C37  24193544.595   127137936.341        2147.399          38.000    24193554.710    94940705.682        1603.880          33.000  
C39  37500815.148   197068111.099       -1091.209          30.000    37500814.311                        -817.643          21.000  
E03  27474776.473   144380902.936       -2069.938          32.000                                                                  
E11  26067897.929   136987708.075       -1323.669          26.000                                                                  
G02  21311015.107   111990139.563         172.122          43.000                                                                  
G07  21384455.681   112376072.226         712.558          39.000                                                                  
G17  24342596.245                        1779.619          18.000                                                                  
G21  21345773.696   112172811.278       -1471.061          40.000                                                                  
C38  41020562.675                        1518.477          22.000                                                                  
