     3.04           OBSERVATION DATA    M: Mixed            RINEX VERSION / TYPE
RTKCONV demo5 b34g                      20250111 013439 UTC PGM / RUN BY / DATE 
format: Septentrio SBF                                      COMMENT             
log: D:\PHD\matlab\GNSS_status_estimation\receiver_clock_modCOMMENT             
                                                            MARKER NAME         
                                                            MARKER NUMBER       
                                                            MARKER TYPE         
                                                            OBSERVER / AGENCY   
                                                            REC # / TYPE / VERS 
                                                            ANT # / TYPE        
 -2418076.3698  5386067.0413  2405173.2945                  APPROX POSITION XYZ 
        0.0000        0.0000        0.0000                  ANTENNA: DELTA H/E/N
G    4 C1C L1C D1C S1C                                      SYS / # / OBS TYPES 
R    4 C1C L1C D1C S1C                                      SYS / # / OBS TYPES 
E    8 C1C L1C D1C S1C C5Q L5Q D5Q S5Q                      SYS / # / OBS TYPES 
J    4 C1C L1C D1C S1C                                      SYS / # / OBS TYPES 
C    8 C2I L2I D2I S2I C7I L7I D7I S7I                      SYS / # / OBS TYPES 
  2025    01    06    07    59   04.0000000     GPS         TIME OF FIRST OBS   
  2025    01    06    09    05   31.0000000     GPS         TIME OF LAST OBS    
G L1C                                                       SYS / PHASE SHIFT   
R L1C                                                       SYS / PHASE SHIFT   
E L1C  0.50000                                              SYS / PHASE SHIFT   
E L5Q -0.25000                                              SYS / PHASE SHIFT   
J L1C                                                       SYS / PHASE SHIFT   
C L2I                                                       SYS / PHASE SHIFT   
C L7I                                                       SYS / PHASE SHIFT   
  9 R05  1 R13 -2 R14 -7 R15  0 R16 -1 R17  4 R18 -3 R19  3 GLONASS SLOT / FRQ #
    R24  2                                                  GLONASS SLOT / FRQ #
 C1C    0.000 C1P    0.000 C2C    0.000 C2P    0.000        GLONASS COD/PHS/BIS 
                                                            END OF HEADER       
> 2025 01 06 07 59 04.0000000  0 43                     
G17  23971962.762   125973510.9021       2310.108          40.750  
R13  23465346.886   125303655.3771      -2427.849          38.250  
G21  20018237.316   105196547.9961       -227.122          42.000  
J07  36423597.138   191407294.6841        -14.183          38.500  
E27  24789902.430   130271820.7611        795.419          45.500    24789928.542    97281003.7071        594.071          42.750  
C06  35497321.127   184843862.5771       -396.826          43.250    35497334.511   142933058.1611       -306.922          35.500  
E29  26132812.761   137328853.6141       -762.962          43.500    26132847.272   102550901.4981       -569.592          43.250  
G27  23902703.609   125609556.9631      -3098.408          40.750  
E34  26032142.508   136799834.3141      -1598.207          44.500    26032172.246   102155834.5011      -1193.353          45.750  
R15  21173640.341   113145511.4681       2616.231          48.250  
G30  22994515.210   120836989.0021       3047.291          42.000  
C16  35736277.656   186088178.9771       -372.555          45.000    35736296.812   143895261.1441       -288.247          34.500  
R24  21229829.446   113525433.6791      -3401.484          48.750  
R17  19042150.417   101898399.8601        372.868          48.250  
E13  25827999.432   135727056.1401       2865.983          42.500    25828027.719   101354728.9971       2140.279          44.250  
E30  25332108.537   133121125.8861       -449.758          44.750    25332134.532    99408735.3141       -335.864          41.750  
E15  23919200.833   125696249.4291        934.422          43.500    23919226.655    93864184.4501        697.781          46.750  
G14  24781058.560   130225349.4591       2155.946          35.250  
G04  23890711.611   125546535.4451      -2817.737          38.500  
C09  35926681.261   187079659.4231        158.688          41.750    35926698.521   144661924.3081        122.304          35.250  
C26  22174196.536   115466861.9111       1403.804          45.250                                                                  
C44  22394162.939   116612280.6451       1819.572          46.250                                                                  
R14  20142373.095   107370177.5591        173.539          49.500  
C01  37376579.574   194629659.9241         -1.800          42.750    37376598.580   150500074.9291         -1.690          33.750  
C35  21499090.782   111951408.0221       -776.275          46.500                                                                  
C45  22876729.798   119125136.6111      -1223.791          48.250                                                                  
C03  36125722.726   188116123.7781          1.662          43.250                                                                  
C07  36363311.100   189353298.1511       -317.118          40.500    36363325.846   146420042.1691       -245.154          36.000  
J02  39527334.059   207717544.0461        573.621          42.750  
R18  21246359.459   113414512.6011       3613.692          48.000  
C10  37128741.263   193339097.4511       -286.476          41.750    37128759.227                        -219.609          32.750  
J03  37453579.118   196819888.0431       -579.206          43.500  
C12  24496172.627   127557997.6631       2740.558          41.250    24496193.536    98636017.4951       2119.323          34.500  
G07  20709899.466   108831258.7891       1670.190          43.250  
G08  21301289.805   111939030.7901      -2260.569          45.500  
C39  36150864.745   188247040.1651       -816.562          44.000                                                                  
C29  25109227.197   130750337.7931      -2955.330          44.000                                                                  
C40  36476303.394   189941683.3231       -540.556          44.750                                                                  
G09  23250128.973   122180252.5661      -2360.829          42.500  
E21  27928843.474   146767063.6381       1401.274          40.000    27928878.985   109598921.8451       1046.442          35.000  
G16  24633780.265   129451389.7611      -1926.475          40.500  
G02  20506856.700   107764257.6561       1278.282          45.750  
E07  26150223.412   137420349.5431      -2309.984          44.000    26150252.041   102619204.0761      -1725.019          37.000  
> 2025 01 06 07 59 05.0000000  0 43                     
G17  23971522.778   125971198.538        2311.027          40.500  
R13  23465800.903   125306080.975       -2426.879          38.000  
G21  20018280.161   105196772.921        -226.425          41.750  
J07  36423599.608   191407306.575         -12.899          38.500  
E27  24789750.614   130271022.885         796.684          45.500    24789776.765    97280407.895         594.967          43.000  
C06  35497396.849   184844257.116        -395.675          43.000    35497410.242   142933363.235        -306.269          35.750  
E29  26132957.499   137329614.284        -762.002          43.500    26132991.995   102551469.523        -569.008          43.000  
G27  23903292.775   125612652.944       -3096.928          40.750  
E34  26032446.114   136801430.244       -1597.331          44.500    26032475.917   102157026.275       -1192.725          45.750  
R15  21173150.205   113142892.776        2617.464          48.250  
G30  22993934.971   120833939.430        3048.391          42.250  
C16  35736348.821   186088549.353        -371.614          45.000    35736367.949   143895547.518        -287.297          34.750  
R24  21230465.179   113528832.907       -3400.568          48.750  
R17  19042080.279   101898024.939         373.297          48.250  
E13  25827453.580   135724187.786        2867.286          42.750    25827481.830   101352587.057        2140.971          44.250  
E30  25332193.727   133121573.262        -448.574          45.000    25332219.614    99409069.397        -334.948          41.750  
E15  23919022.612   125695312.821         935.228          43.250    23919048.409    93863485.034         698.437          46.750  
G14  24780647.504   130223190.938        2157.325          35.750  
G04  23891247.183   125549350.691       -2816.499          38.250  
C09  35926650.487   187079498.484         159.622          41.500    35926668.004   144661799.820         123.877          35.000  
C26  22173926.578   115465455.862        1404.715          45.250                                                                  
C44  22393813.187   116610459.000        1820.306          46.250                                                                  
R14  20142340.233   107370001.814         174.368          49.500  
C01  37376579.373   194629659.561          -0.735          42.750    37376598.168   150500074.637          -0.601          34.000  
C35  21499239.503   111952182.141        -775.527          46.500                                                                  
C45  22876964.518   119126358.143       -1222.876          48.250                                                                  
C03  36125722.051   188116119.817           2.905          43.000                                                                  
C07  36363371.472   189353612.915        -315.814          40.750    36363385.679   146420285.597        -244.389          36.000  
J02  39527224.301   207716967.953         575.017          43.000  
R18  21245682.273   113410896.713        3614.521          48.000  
C10  37128795.866   193339381.519        -285.310          41.500    37128814.045                        -219.849          33.250  
J03  37453688.819   196820464.925        -578.089          43.750  
C12  24495645.883   127555254.611        2741.787          41.250    24495666.545    98633896.427        2120.169          34.750  
G07  20709581.460   108829586.391        1671.014          43.500  
G08  21301719.606   111941289.017       -2259.504          45.250  
C39  36151021.294   188247854.390        -815.535          44.000                                                                  
C29  25109794.514   130753290.710       -2954.003          44.000                                                                  
C40  36476406.879   189942221.427        -539.160          44.500                                                                  
G09  23250577.798   122182611.173       -2359.777          42.500  
E21  27928576.426   146765659.989        1402.626          40.000    27928611.835   109597873.687        1047.510          34.500  
G16  24634146.317   129453313.842       -1925.121          40.750  
G02  20506613.053   107762977.227        1279.042          45.250  
E07  26150662.443   137422657.266       -2308.846          43.750    26150691.149   102620927.368       -1724.083          37.250  
> 2025 01 06 07 59 06.0000000  0 43                     
G17  23971082.671   125968886.253        2311.913          40.500  
R13  23466254.650   125308506.688       -2425.985          38.250  
G21  20018322.969   105196998.358        -226.083          42.000  
J07  36423601.754   191407318.233         -11.987          38.750  
E27  24789598.738   130270224.719         797.875          45.500    24789624.873    97279811.866         595.912          43.000  
C06  35497472.608   184844651.563        -394.715          43.250    35497486.087   142933668.241        -305.325          35.750  
E29  26133102.319   137330375.076        -761.247          43.500    26133136.770   102552037.654        -568.588          42.500  
G27  23903881.932   125615748.627       -3095.787          41.000  
E34  26032749.800   136803026.327       -1596.544          44.250    26032779.555   102158218.160       -1192.244          45.500  
R15  21172660.194   113140273.955        2618.494          48.500  
G30  22993354.572   120830889.863        3049.229          42.250  
C16  35736420.042   186088919.658        -370.632          45.000    35736438.876   143895833.861        -286.607          35.250  
R24  21231100.842   113532232.298       -3399.825          49.000  
R17  19042010.380   101897650.625         373.685          48.250  
E13  25826907.813   135721319.318        2868.172          42.750    25826935.926   101350445.012        2141.835          44.250  
E30  25332278.756   133122020.438        -447.475          45.000    25332304.680    99409403.320        -334.161          41.750  
E15  23918844.391   125694376.415         936.000          43.500    23918870.216    93862785.779         698.945          46.500  
G14  24780236.453   130221032.036        2158.902          36.000  
G04  23891782.927   125552165.556       -2815.121          37.750  
C09  35926619.738   187079337.470         160.733          41.250    35926636.564   144661675.348         124.227          35.500  
C26  22173656.552   115464049.837        1405.658          45.250                                                                  
C44  22393463.485   116608637.514        1821.039          46.250                                                                  
R14  20142307.144   107369826.239         175.080          49.250  
C01  37376579.180   194629658.958           0.346          42.500    37376597.905   150500074.151           0.249          34.500  
C35  21499388.191   111952956.468        -774.884          46.500                                                                  
C45  22877199.252   119127579.774       -1222.052          48.500                                                                  
C03  36125721.335   188116115.609           4.058          43.250                                                                  
C07  36363431.850   189353927.461        -314.867          40.500    36363446.019   146420528.795        -243.090          36.250  
J02  39527114.616   207716391.525         576.265          43.250  
R18  21245004.817   113407281.085        3615.109          48.250  
C10  37128850.179   193339665.313        -284.059          41.500    37128868.111                        -219.387          33.500  
J03  37453798.592   196821041.626        -577.004          43.750  
C12  24495119.022   127552511.603        2742.582          41.500    24495139.200    98631775.334        2120.716          35.250  
G07  20709263.251   108827914.280        1671.636          43.750  
G08  21302149.378   111943547.144       -2258.395          45.250  
C39  36151177.778   188248668.529        -814.427          44.000                                                                  
C29  25110361.556   130756243.459       -2952.981          43.750                                                                  
C40  36476510.253   189942759.295        -538.047          44.500                                                                  
G09  23251026.603   122184969.598       -2358.662          42.750  
E21  27928309.278   146764256.008        1403.770          40.000    27928344.807   109596825.278        1048.423          35.000  
G16  24634512.590   129455237.774       -1924.208          40.250  
G02  20506369.389   107761697.189        1279.503          45.250  
E07  26151101.524   137424964.773       -2307.756          43.750    26151130.204   102622650.489       -1723.330          37.000  
> 2025 01 06 07 59 07.0000000  0 43                     
G17  23970642.583   125966573.879        2312.559          40.000  
R13  23466709.092   125310932.424       -2425.927          38.000  
G21  20018366.055   105197224.193        -225.996          42.000  
J07  36423603.833   191407329.516         -11.175          38.500  
E27  24789446.719   130269426.149         798.789          45.500    24789472.859    97279215.552         596.408          42.750  
C06  35497548.183   184845045.850        -394.202          43.250    35497561.699   142933973.139        -304.793          35.750  
E29  26133247.184   137331135.844        -760.798          43.500    26133281.506   102552605.747        -568.108          42.750  
G27  23904470.822   125618843.879       -3095.135          41.000  
E34  26033053.493   136804622.457       -1596.195          44.500    26033083.289   102159410.072       -1191.934          45.750  
R15  21172170.200   113137654.822        2619.288          48.500  
G30  22992774.247   120827840.202        3049.687          42.500  
C16  35736491.210   186089289.785        -370.115          44.750    35736509.948   143896120.047        -285.982          35.000  
R24  21231736.423   113535631.746       -3399.492          48.750  
R17  19041940.678   101897276.799         373.506          48.500  
E13  25826362.035   135718450.592        2868.925          42.500    25826390.038   101348302.791        2142.276          44.000  
E30  25332363.801   133122467.286        -446.669          45.000    25332389.692    99409736.997        -333.522          41.500  
E15  23918666.244   125693440.110         936.245          43.750    23918692.054    93862086.586         699.113          46.500  
G14  24779825.607   130218872.698        2159.732          36.500  
G04  23892318.528   125554979.939       -2814.142          38.000  
C09  35926588.692   187079176.240         161.431          41.250    35926605.683   144661550.672         124.767          35.500  
C26  22173386.593   115462643.693        1406.192          45.500                                                                  
C44  22393113.565   116606816.065        1821.436          46.250                                                                  
R14  20142274.155   107369650.745         175.425          49.500  
C01  37376579.033   194629657.977           1.206          42.500    37376597.976   150500073.417           0.912          34.000  
C35  21499536.937   111953730.872        -774.515          46.250                                                                  
C45  22877433.881   119128801.388       -1221.595          48.250                                                                  
C03  36125720.522   188116111.057           4.646          43.250                                                                  
C07  36363492.092   189354241.606        -313.948          40.500    36363506.723   146420771.721        -242.947          36.250  
J02  39527004.918   207715814.624         577.063          43.000  
R18  21244327.582   113403665.587        3615.368          48.500  
C10  37128904.495   193339948.750        -283.317          41.500    37128922.656                        -219.055          33.000  
J03  37453908.259   196821618.012        -576.247          43.750  
C12  24494592.300   127549768.502        2743.101          41.250    24494612.554    98629654.209        2121.234          35.000  
G07  20708945.212   108826242.312        1671.856          43.750  
G08  21302578.935   111945805.034       -2257.796          45.500  
C39  36151334.071   188249482.487        -813.938          44.000                                                                  
C29  25110928.372   130759195.922       -2952.228          43.750                                                                  
C40  36476613.412   189943296.797        -537.325          44.500                                                                  
G09  23251475.229   122187327.744       -2357.997          42.500  
E21  27928041.929   146762851.569        1404.650          40.000    27928077.677   109595776.532        1048.825          35.250  
G16  24634878.726   129457161.392       -1923.379          40.250  
G02  20506125.805   107760417.396        1279.661          45.500  
E07  26151540.599   137427271.953       -2307.023          43.750    26151569.303   102624373.394       -1722.830          37.500  
> 2025 01 06 07 59 08.0000000  0 43                     
G17  23970202.466   125964262.249        2311.208          40.250  
R13  23467162.977   125313358.923       -2427.053          38.000  
G21  20018409.166   105197451.211        -227.756          42.000  
J07  36423606.137   191407341.228         -12.134          38.750  
E27  24789294.771   130268627.964         797.824          45.750    24789320.882    97278619.494         595.798          43.000  
C06  35497623.796   184845440.717        -395.381          43.250    35497637.677   142934278.475        -305.968          35.500  
E29  26133392.126   137331897.388        -762.121          43.500    26133426.502   102553174.427        -569.164          42.750  
G27  23905060.092   125621939.455       -3096.140          40.750  
E34  26033357.338   136806219.384       -1597.500          44.500    26033387.186   102160602.586       -1192.963          45.750  
R15  21171680.077   113135036.169        2618.188          48.500  
G30  22992194.004   120824791.198        3048.417          42.500  
C16  35736562.463   186089660.501        -371.192          44.750    35736581.272   143896406.707        -286.763          35.000  
R24  21232372.347   113539032.092       -3401.037          48.750  
R17  19041871.197   101896904.264         371.617          48.500  
E13  25825816.159   135715582.416        2867.732          42.750    25825844.283   101346160.966        2141.561          44.000  
E30  25332448.858   133122914.588        -447.742          45.000    25332474.785    99410071.008        -334.328          41.750  
E15  23918488.227   125692504.662         934.875          43.500    23918514.101    93861388.044         698.119          46.500  
G14  24779414.846   130216713.673        2158.680          36.750  
G04  23892854.341   125557794.609       -2815.058          38.250  
C09  35926557.735   187079015.611         160.200          41.000    35926575.061   144661426.439         124.056          35.000  
C26  22173116.561   115461238.245        1404.906          45.250                                                                  
C44  22392763.877   116604995.450        1820.001          46.000                                                                  
R14  20142241.251   107369476.119         173.951          49.500  
C01  37376578.872   194629657.435           0.146          42.500    37376597.887   150500072.986           0.146          34.250  
C35  21499685.821   111954506.156        -775.951          46.250                                                                  
C45  22877668.499   119130023.775       -1222.935          48.250                                                                  
C03  36125719.645   188116106.907           3.746          43.250                                                                  
C07  36363552.554   189354556.194        -314.944          40.500    36363566.762   146421014.977        -243.684          36.500  
J02  39526895.223   207715238.059         576.181          43.000  
R18  21243650.546   113400050.976        3613.927          48.750  
C10  37128958.963   193340232.631        -284.232          41.500    37128976.790                        -219.425          33.250  
J03  37454018.207   196822194.911        -577.416          43.500  
C12  24494065.667   127547026.103        2741.833          41.250    24494085.993    98627533.615        2120.051          35.250  
G07  20708627.342   108824571.277        1670.356          43.750  
G08  21303008.647   111948063.503       -2258.979          45.500  
C39  36151490.486   188250297.026        -815.054          44.000                                                                  
C29  25111495.319   130762148.872       -2953.369          43.500                                                                  
C40  36476716.652   189943834.711        -538.337          44.500                                                                  
G09  23251924.090   122189686.387       -2359.042          42.500  
E21  27927774.650   146761447.439        1403.785          40.000    27927810.617   109594727.991        1048.109          34.750  
G16  24635244.845   129459085.518       -1924.651          40.500  
G02  20505882.501   107759138.661        1277.954          45.500  
E07  26151979.654   137429579.595       -2308.139          43.750    26152008.545   102626096.645       -1723.679          37.500  
> 2025 01 06 07 59 09.0000000  0 43                     
G17  23969762.608   125961951.630        2308.834          41.000  
R13  23467617.598   125315786.478       -2429.477          37.500  
G21  20018452.702   105197679.692        -230.533          42.000  
J07  36423608.521   191407353.643         -13.967          38.750  
E27  24789142.985   130267830.449         795.791          45.750    24789169.104    97278023.945         594.354          42.750  
C06  35497699.944   184845836.467        -397.562          43.250    35497714.002   142934584.494        -307.223          35.750  
E29  26133537.256   137332659.996        -764.526          43.750    26133571.655   102553743.907        -570.965          43.000  
G27  23905649.109   125625035.665       -3097.935          41.250  
E34  26033661.514   136807817.431       -1599.878          44.500    26033691.341   102161795.939       -1194.829          45.500  
R15  21171190.142   113132418.282        2616.107          48.500  
G30  22991614.075   120821743.183        3046.171          42.500  
C16  35736633.868   186090032.089        -373.248          44.750    35736652.782   143896694.069        -288.777          34.750  
R24  21233008.497   113542433.606       -3403.537          48.750  
R17  19041801.763   101896533.326         368.740          48.500  
E13  25825270.494   135712715.061        2865.595          42.500    25825298.621   101344019.771        2139.813          44.000  
E30  25332534.110   133123362.647        -449.829          44.750    25332560.017    99410405.606        -336.006          41.750  
E15  23918310.468   125691570.379         932.428          43.500    23918336.314    93860690.368         696.308          46.500  
G14  24779004.009   130214555.249        2156.577          36.500  
G04  23893390.170   125560609.881       -2816.981          38.500  
C09  35926526.887   187078855.840         158.097          41.000    35926543.911   144661302.907         122.115          35.250  
C26  22172846.886   115459833.730        1402.665          45.500                                                                  
C44  22392414.577   116603175.925        1817.690          46.000                                                                  
R14  20142208.726   107369302.655         171.512          49.250  
C01  37376578.854   194629657.595          -1.967          42.500    37376597.985   150500073.099          -1.380          34.000  
C35  21499834.921   111955282.578        -778.313          46.250                                                                  
C45  22877903.455   119131247.203       -1225.279          48.250                                                                  
C03  36125719.059   188116103.463           1.839          43.250                                                                  
C07  36363613.166   189354871.446        -316.966          40.500    36363626.685   146421258.763        -244.977          36.250  
J02  39526785.432   207714662.099         574.270          43.000  
R18  21242973.766   113396437.575        3611.474          48.750  
C10  37129013.565   193340517.199        -286.201          41.250    37129031.411                        -219.987          33.000  
J03  37454128.104   196822772.565        -579.313          43.750  
C12  24493539.165   127544284.667        2739.460          41.250    24493559.740    98625413.754        2118.553          35.000  
G07  20708309.684   108822901.470        1667.848          43.750  
G08  21303438.517   111950322.795       -2261.043          45.500  
C39  36151647.097   188251112.442        -817.202          44.000                                                                  
C29  25112062.432   130765102.591       -2955.417          43.500                                                                  
C40  36476820.195   189944373.320        -540.236          44.500                                                                  
G09  23252373.036   122192045.781       -2360.969          42.500  
E21  27927507.437   146760043.951        1401.854          40.000    27927543.510   109593679.943        1046.631          35.000  
G16  24635611.212   129461010.395       -1926.625          40.500  
G02  20505639.413   107757861.244        1275.389          45.250  
E07  26152418.892   137431887.983       -2310.088          43.750    26152447.810   102627820.438       -1725.079          37.250  
> 2025 01 06 07 59 10.0000000  0 43                     
G17  23969322.812   125959640.443        2310.707          40.500  
R13  23468071.973   125318213.463       -2427.378          36.750  
G21  20018496.089   105197908.014        -228.969          42.250  
J07  36423610.735   191407365.181         -11.736          38.750  
E27  24788991.089   130267031.998         798.122          45.750    24789017.176    97277427.697         596.072          42.750  
C06  35497775.844   184846231.481        -395.366          43.250    35497790.127   142934889.944        -305.696          35.500  
E29  26133682.300   137333422.051        -762.527          43.750    26133716.682   102554312.961        -569.418          42.750  
G27  23906238.056   125628130.908       -3095.449          41.000  
E34  26033965.507   136809414.966       -1598.060          44.750    26033995.343   102162988.903       -1193.343          45.500  
R15  21170700.038   113129799.533        2618.429          48.500  
G30  22991033.986   120818694.506        3048.255          42.500  
C16  35736705.187   186090402.979        -371.254          44.750    35736724.009   143896980.869        -287.349          34.750  
R24  21233644.638   113545834.674       -3401.621          49.000  
R17  19041732.388   101896162.389         370.149          48.750  
E13  25824724.715   135709846.923        2867.812          42.500    25824752.768   101341877.979        2141.519          44.250  
E30  25332619.199   133123809.838        -447.536          45.000    25332645.140    99410739.551        -334.311          41.750  
E15  23918132.579   125690635.651         934.289          43.500    23918158.391    93859992.363         697.561          46.500  
G14  24778593.140   130212395.775        2159.326          37.000  
G04  23893925.877   125563424.116       -2814.435          38.250  
C09  35926496.178   187078695.343         160.154          41.000    35926512.854   144661178.791         123.855          35.000  
C26  22172577.062   115458428.579        1404.779          45.500                                                                  
C44  22392064.951   116601355.929        1819.473          46.250                                                                  
R14  20142176.037   107369128.732         173.419          49.000  
C01  37376578.626   194629656.842           0.509          42.750    37376598.410   150500072.548           0.431          34.250  
C35  21499984.036   111956058.546        -776.524          46.250                                                                  
C45  22878138.316   119132470.089       -1223.327          48.250                                                                  
C03  36125718.281   188116099.148           4.026          43.250                                                                  
C07  36363673.446   189355185.816        -314.658          40.500    36363686.940   146421501.857        -243.539          36.000  
J02  39526675.591   207714085.145         576.673          43.250  
R18  21242296.887   113392823.761        3613.262          48.500  
C10  37129067.971   193340800.856        -283.974          41.500    37129086.407                        -219.389          33.250  
J03  37454237.841   196823349.400        -577.119          43.750  
C12  24493012.544   127541542.636        2741.641          41.500    24493033.456    98623293.433        2120.091          35.250  
G07  20707991.978   108821231.285        1669.638          44.000  
G08  21303868.308   111952581.333       -2258.967          45.500  
C39  36151803.586   188251927.119        -815.065          44.250                                                                  
C29  25112629.586   130768055.486       -2953.271          44.000                                                                  
C40  36476923.475   189944911.045        -538.039          44.250                                                                  
G09  23252821.814   122194404.378       -2358.926          42.750  
E21  27927240.062   146758639.473        1404.167          40.000    27927276.171   109592631.135        1048.644          35.500  
G16  24635977.214   129462934.458       -1924.442          40.250  
G02  20505396.376   107756583.570        1277.087          45.500  
E07  26152858.008   137434195.517       -2307.909          43.750    26152886.988   102629543.572       -1723.261          37.500  
> 2025 01 06 07 59 11.0000000  0 43                     
G17  23968883.113   125957329.741        2311.473          40.250  
R13  23468526.790   125320641.071       -2426.911          37.000  
G21  20018539.792   105198137.303        -228.741          42.250  
J07  36423612.964   191407376.931         -10.808          38.500  
E27  24788839.239   130266233.715         799.153          45.750    24788865.276    97276831.578         596.831          43.000  
C06  35497851.819   184846626.886        -394.619          43.250    35497866.042   142935195.684        -305.173          35.500  
E29  26133827.415   137334184.666        -761.878          43.750    26133861.819   102554882.460        -569.072          42.750  
G27  23906827.032   125631226.288       -3094.473          41.000  
E34  26034269.668   136811013.104       -1597.435          44.500    26034299.470   102164182.318       -1192.913          45.500  
R15  21170210.093   113127181.067        2619.391          48.750  
G30  22990453.934   120815646.315        3048.979          42.250  
C16  35736776.507   186090774.245        -370.495          44.750    35736795.462   143897267.928        -286.398          35.250  
R24  21234280.898   113549236.394       -3400.930          49.250  
R17  19041663.438   101895792.576         370.223          48.750  
E13  25824179.002   135706979.129        2868.609          42.500    25824207.026   101339736.449        2142.168          44.000  
E30  25332704.275   133124257.276        -446.565          44.750    25332730.333    99411073.667        -333.502          41.500  
E15  23917954.857   125689701.582         934.821          43.750    23917980.641    93859294.847         697.935          46.500  
G14  24778182.319   130210236.435        2160.353          36.750  
G04  23894461.359   125566238.448       -2813.357          38.000  
C09  35926465.201   187078535.236         160.846          40.750    35926482.018   144661054.996         124.228          35.000  
C26  22172307.297   115457023.911        1405.366          45.500                                                                  
C44  22391715.523   116599536.534        1820.093          46.250                                                                  
R14  20142143.485   107368955.439         173.995          49.000  
C01  37376578.492   194629656.317           1.513          42.500    37376597.753   150500072.121           1.253          34.250  
C35  21500133.253   111956835.189        -775.998          46.000                                                                  
C45  22878373.247   119133693.536       -1222.796          48.250                                                                  
C03  36125717.499   188116095.032           4.989          43.000                                                                  
C07  36363733.848   189355500.381        -313.621          40.500    36363747.482   146421745.110        -242.754          36.250  
J02  39526565.832   207713508.300         577.803          43.000  
R18  21241620.150   113389210.682        3613.703          48.750  
C10  37129122.527   193341084.728        -283.053          41.250    37129140.880                        -219.400          33.500  
J03  37454347.588   196823926.518        -576.284          43.750  
C12  24492485.972   127538801.064        2742.293          41.250    24492506.246    98621173.500        2120.420          34.750  
G07  20707674.368   108819561.821        1670.106          44.000  
G08  21304298.090   111954840.218       -2258.023          45.500  
C39  36151960.287   188252742.185        -814.252          44.000                                                                  
C29  25113196.680   130771008.647       -2952.324          43.750                                                                  
C40  36477026.981   189945448.965        -537.050          44.500                                                                  
G09  23253270.619   122196763.245       -2357.945          42.250  
E21  27926972.868   146757235.092        1405.350          39.750    27927008.906   109591582.440        1049.147          35.000  
G16  24636343.630   129464858.812       -1923.640          40.250  
G02  20505153.359   107755306.723        1277.378          45.500  
E07  26153297.223   137436503.286       -2306.848          43.750    26153326.144   102631266.926       -1722.812          37.250  
> 2025 01 06 07 59 12.0000000  0 43                     
G17  23968443.423   125955018.700        2311.163          40.750  
R13  23468981.273   125323068.309       -2427.104          37.250  
G21  20018583.364   105198366.682        -229.665          42.500  
J07  36423615.082   191407388.025         -10.926          38.500  
E27  24788687.238   130265434.739         799.086          45.500    24788713.286    97276234.939         596.806          42.750  
C06  35497927.697   184847021.823        -394.953          43.000    35497941.482   142935501.092        -305.627          35.500  
E29  26133972.498   137334946.983        -762.401          43.750    26134006.907   102555451.706        -569.397          42.750  
G27  23907415.876   125634320.947       -3094.621          41.250  
E34  26034573.714   136812610.991       -1597.876          44.500    26034603.549   102165375.550       -1193.363          45.500  
R15  21169719.974   113124562.007        2619.116          48.500  
G30  22989873.860   120812597.722        3048.626          42.500  
C16  35736847.651   186091145.050        -370.784          44.500    35736866.750   143897554.677        -286.847          34.750  
R24  21234916.962   113552637.877       -3401.525          49.000  
R17  19041594.485   101895422.940         369.328          48.500  
E13  25823633.273   135704110.789        2868.339          42.250    25823661.217   101337594.514        2141.962          44.000  
E30  25332789.189   133124704.097        -446.661          45.000    25332815.335    99411407.327        -333.580          41.750  
E15  23917777.124   125688767.308         934.182          43.500    23917802.840    93858597.175         697.554          46.500  
G14  24777771.383   130208076.338        2160.270          37.000  
G04  23894996.685   125569052.012       -2813.401          38.000  
C09  35926434.246   187078374.623         160.576          41.000    35926451.163   144660930.794         124.139          35.250  
C26  22172037.483   115455618.818        1405.112          45.250                                                                  
C44  22391366.026   116597716.904        1819.512          46.000                                                                  
R14  20142110.892   107368781.916         173.432          48.750  
C01  37376578.358   194629655.141           1.318          42.500    37376597.466   150500071.234           0.861          33.750  
C35  21500282.248   111957611.611        -776.533          46.000                                                                  
C45  22878608.127   119134916.669       -1223.154          48.250                                                                  
C03  36125716.605   188116090.275           4.846          43.000                                                                  
C07  36363794.258   189355814.297        -313.846          40.500    36363808.081   146421987.816        -242.616          36.250  
J02  39526455.923   207712930.701         577.777          43.000  
R18  21240943.341   113385597.413        3613.108          48.500  
C10  37129176.918   193341367.952        -283.128          41.500    37129195.707                        -219.244          33.000  
J03  37454457.249   196824503.031        -576.440          44.000  
C12  24491959.170   127536059.120        2741.882          41.000    24491979.559    98619053.249        2120.142          35.500  
G07  20707356.681   108817892.227        1669.481          44.000  
G08  21304727.943   111957098.582       -2258.257          45.500  
C39  36152116.594   188253556.771        -814.558          43.750                                                                  
C29  25113763.763   130773961.240       -2952.516          43.500                                                                  
C40  36477130.046   189945986.228        -537.178          44.250                                                                  
G09  23253719.405   122199121.519       -2358.154          42.250  
E21  27926705.395   146755829.969        1405.321          40.000    27926741.436   109590533.157        1049.287          35.000  
G16  24636709.791   129466782.567       -1923.652          40.000  
G02  20504910.445   107754029.847        1276.707          45.250  
E07  26153736.295   137438810.455       -2307.115          43.500    26153765.259   102632989.796       -1722.773          37.250  
> 2025 01 06 07 59 13.0000000  0 42                     
G17  23968003.875   125952708.039        2313.955          40.250  
R13  23469435.631   125325496.038       -2424.488          37.000  
G21  20018627.328   105198596.878        -227.327          42.250  
J07  36423616.913   191407399.184          -7.905          38.500  
E27  24788535.169   130264635.780         802.127          45.500    24788561.186    97275638.313         599.207          43.000  
C06  35498003.658   184847416.976        -391.970          43.250    35498017.292   142935806.631        -303.024          35.750  
E29  26134117.683   137335709.708        -759.767          43.750    26134152.007   102556021.262        -567.256          42.750  
G27  23908004.812   125637415.577       -3091.325          41.250  
E34  26034877.905   136814209.335       -1595.225          44.500    26034907.714   102166569.117       -1191.375          45.500  
R15  21169229.790   113121943.086        2622.240          48.500  
G30  22989293.678   120809549.457        3051.347          42.750  
C16  35736918.809   186091516.079        -367.910          44.500    35736938.345   143897841.568        -284.580          35.000  
R24  21235553.130   113556039.832       -3398.823          49.250  
R17  19041525.727   101895054.216         371.665          48.750  
E13  25823087.406   135701242.635        2871.252          42.250    25823115.419   101335452.709        2144.158          44.000  
E30  25332874.189   133125151.017        -443.684          44.500    25332900.373    99411741.062        -331.368          41.750  
E15  23917599.489   125687833.555         936.698          43.500    23917625.153    93857899.890         699.457          46.500  
G14  24777360.222   130205916.161        2163.374          37.500  
G04  23895532.032   125571865.487       -2810.283          38.250  
C09  35926403.443   187078214.229         163.515          41.000    35926420.370   144660806.768         126.411          35.500  
C26  22171767.833   115454214.065        1407.765          45.000                                                                  
C44  22391016.690   116595897.732        1822.203          46.000                                                                  
R14  20142078.484   107368608.901         176.068          49.000  
C01  37376577.933   194629654.035           4.228          42.250    37376597.520   150500070.364           3.360          34.250  
C35  21500431.439   111958388.548        -773.997          46.250                                                                  
C45  22878843.189   119136140.218       -1220.521          48.250                                                                  
C07  36363854.661   189356128.237        -310.784          40.500    36363868.549   146422230.600        -240.374          36.000  
J02  39526346.109   207712353.075         580.924          43.000  
R18  21240266.593   113381984.675        3615.887          48.750  
C10  37129231.400   193341651.227        -280.003          41.250    37129250.408                        -219.021          33.250  
J03  37454567.016   196825079.684        -573.391          43.750  
C12  24491432.552   127533317.506        2744.750          41.000    24491453.060    98616933.243        2122.452          35.250  
G07  20707039.020   108816223.217        1671.961          44.000  
G08  21305157.719   111959357.157       -2255.519          45.250  
C39  36152273.062   188254371.577        -811.596          44.000                                                                  
C29  25114330.891   130776913.950       -2949.608          43.500                                                                  
C40  36477233.150   189946523.558        -534.220          44.500                                                                  
G09  23254168.194   122201479.926       -2355.220          42.500  
E21  27926438.050   146754424.828        1408.472          40.000    27926474.029   109589483.879        1051.711          35.000  
G16  24637075.827   129468706.444       -1920.609          39.750  
G02  20504667.402   107752753.662        1279.040          45.500  
E07  26154175.373   137441117.712       -2304.139          43.500    26154204.298   102634712.739       -1720.512          37.250  
> 2025 01 06 07 59 14.0000000  0 42                     
G17  23967564.484   125950398.428        2308.713          39.750  
R13  23469890.690   125327924.919       -2429.971          36.750  
G21  20018671.362   105198828.580        -232.838          42.500  
J07  36423619.154   191407411.108         -12.971          38.250  
E27  24788383.243   130263837.524         797.584          45.500    24788409.219    97275042.235         595.415          43.000  
C06  35498079.677   184847813.047        -396.926          43.250    35498093.311   142936112.921        -306.727          35.500  
E29  26134263.072   137336473.522        -764.719          43.750    26134297.369   102556591.647        -571.155          42.750  
G27  23908593.902   125640510.863       -3095.921          41.250  
E34  26035182.299   136815808.818       -1600.547          44.500    26035212.067   102167763.544       -1195.292          45.500  
R15  21168739.925   113119325.015        2617.260          48.750  
G30  22988713.658   120806502.178        3046.327          42.500  
C16  35736990.234   186091888.032        -372.816          44.750    35737009.801   143898129.183        -288.470          35.000  
R24  21236189.450   113559442.990       -3404.152          49.250  
R17  19041457.220   101894687.125         365.840          48.750  
E13  25822541.695   135698375.345        2866.544          41.750    25822569.833   101333311.556        2140.520          44.000  
E30  25332959.378   133125598.729        -448.493          44.500    25332985.616    99412075.388        -334.977          41.500  
E15  23917422.027   125686900.980         931.522          43.250    23917447.727    93857203.495         695.576          46.500  
G14  24776949.077   130203756.623        2158.808          37.250  
G04  23896067.741   125574679.610       -2814.866          38.000  
C09  35926372.707   187078054.747         158.701          40.750    35926390.144   144660683.437         122.618          35.250  
C26  22171498.212   115452810.295        1402.900          45.250                                                                  
C44  22390667.376   116594079.694        1817.077          46.000                                                                  
R14  20142046.299   107368437.091         170.856          48.750  
C01  37376577.924   194629653.659          -0.459          42.250    37376597.355   150500070.072          -0.600          34.000  
C35  21500580.726   111959166.670        -779.197          46.250                                                                  
C45  22879078.374   119137364.845       -1225.474          48.250                                                                  
C07  36363914.878   189356442.912        -315.410          40.500    36363929.471   146422473.906        -243.728          36.250  
J02  39526236.382   207711776.085         576.285          43.000  
R18  21239590.123   113378373.186        3610.435          48.500  
C10  37129285.987   193341935.249        -284.684          41.250    37129305.007                        -219.599          33.250  
J03  37454676.931   196825657.137        -578.167          43.750  
C12  24490906.304   127530576.915        2739.636          41.250    24490926.775    98614814.077        2118.324          35.000  
G07  20706721.810   108814555.451        1666.769          43.750  
G08  21305587.777   111961616.596       -2260.345          45.250  
C39  36152429.567   188255187.296        -816.496          43.750                                                                  
C29  25114897.981   130779867.464       -2954.251          43.750                                                                  
C40  36477336.377   189947061.615        -538.789          44.500                                                                  
G09  23254617.196   122203839.153       -2360.219          42.500  
E21  27926170.727   146753020.347        1403.649          40.000    27926206.805   109588435.037        1048.512          35.250  
G16  24637442.256   129470631.158       -1925.511          40.000  
G02  20504424.710   107751478.846        1273.752          45.250  
E07  26154614.558   137443425.748       -2308.844          43.500    26154643.621   102636436.270       -1724.102          37.250  
> 2025 01 06 07 59 15.0000000  0 43                     
G17  23967125.012   125948089.365        2309.091          39.500  
R13  23470345.582   125330354.390       -2429.428          36.500  
G21  20018715.644   105199061.307        -232.791          42.500  
J07  36423621.302   191407423.282         -11.981          38.250  
E27  24788231.376   130263039.497         798.284          45.000    24788257.306    97274446.298         596.170          43.000  
C06  35498155.806   184848209.553        -396.351          43.250    35498169.440   142936419.512        -306.575          36.000  
E29  26134408.497   137337237.959        -764.334          43.250    26134442.853   102557162.492        -570.819          42.750  
G27  23909183.057   125643606.354       -3095.344          40.750  
E34  26035486.837   136817408.956       -1600.133          44.500    26035516.528   102168958.451       -1194.840          45.250  
R15  21168249.946   113116707.250        2617.951          48.750  
G30  22988134.033   120803455.435        3046.860          42.750  
C16  35737061.730   186092260.414        -372.231          44.750    35737081.120   143898417.149        -287.827          35.250  
R24  21236825.950   113562846.883       -3403.880          49.000  
R17  19041388.733   101894321.215         365.706          49.000  
E13  25821996.146   135695508.427        2867.153          42.000    25822024.294   101331170.683        2141.028          43.500  
E30  25333044.607   133126046.740        -447.803          44.250    25333070.922    99412409.926        -334.326          41.750  
E15  23917244.701   125685969.131         931.833          43.250    23917270.438    93856507.637         695.873          46.500  
G14  24776537.997   130201597.247        2159.745          37.500  
G04  23896603.385   125577493.869       -2814.154          38.500  
C09  35926342.134   187077895.681         159.255          41.000    35926359.343   144660560.447         123.102          35.250  
C26  22171228.681   115451407.036        1403.362          45.250                                                                  
C44  22390318.277   116592262.344        1817.393          46.000                                                                  
R14  20142014.206   107368265.989         171.163          49.000  
C01  37376577.946   194629653.535           0.454          42.500    37376597.623   150500069.983           0.370          34.000  
C35  21500730.191   111959945.499        -778.790          46.250                                                                  
C45  22879313.774   119138590.086       -1225.183          48.250                                                                  
C03  36125714.320   188116073.9041          4.562          43.000                                                                  
C07  36363975.525   189356757.852        -314.783          40.500    36363989.990   146422717.407        -243.166          36.000  
J02  39526126.643   207711199.262         577.014          42.750  
R18  21238913.518   113374762.471        3610.722          48.750  
C10  37129340.699   193342219.536        -284.145          41.500    37129359.243                        -219.930          33.250  
J03  37454786.883   196826234.931        -577.563          43.500  
C12  24490380.055   127527836.855        2740.152          41.500    24490400.706    98612695.295        2118.792          35.250  
G07  20706404.592   108812888.481        1667.026          44.000  
G08  21306017.625   111963876.422       -2259.598          45.250  
C39  36152586.105   188256003.434        -815.949          44.000                                                                  
C29  25115465.184   130782821.306       -2953.614          44.000                                                                  
C40  36477439.827   189947599.927        -538.071          44.250                                                                  
G09  23255066.369   122206198.713       -2359.347          42.750  
E21  27925903.565   146751616.029        1404.349          39.500    27925939.582   109587386.374        1049.166          36.250  
G16  24637808.754   129472556.217       -1924.985          39.750  
G02  20504182.436   107750204.912        1273.843          45.250  
E07  26155053.752   137445734.091       -2308.104          43.000    26155082.793   102638160.060       -1723.600          37.000  
> 2025 01 06 07 59 16.0000000  0 43                     
G17  23966685.670   125945780.290        2307.255          38.750  
R13  23470801.061   125332783.903       -2431.305          37.250  
G21  20018760.100   105199294.461        -235.116          42.500  
J07  36423623.644   191407435.111         -13.298          38.500  
E27  24788079.426   130262241.089         796.904          45.250    24788105.375    97273850.092         595.053          42.750  
C06  35498232.031   184848605.897        -397.919          43.000    35498245.903   142936725.998        -307.962          35.750  
E29  26134553.978   137338002.397        -766.128          43.500    26134588.272   102557733.339        -572.241          42.500  
G27  23909772.242   125646701.429       -3096.680          41.250  
E34  26035791.347   136819009.152       -1601.921          44.250    26035821.026   102170153.400       -1196.231          45.500  
R15  21167760.101   113114089.202        2616.449          48.250  
G30  22987554.399   120800408.612        3045.047          42.250  
C16  35737133.286   186092632.646        -373.850          44.750    35737152.137   143898704.977        -289.121          34.750  
R24  21237462.467   113566250.884       -3405.853          49.250  
R17  19041320.553   101893955.855         363.347          48.750  
E13  25821450.553   135692641.290        2865.562          41.500    25821478.723   101329029.649        2139.837          43.750  
E30  25333129.852   133126494.441        -449.337          44.000    25333156.129    99412744.253        -335.496          41.500  
E15  23917067.472   125685037.386         929.994          43.250    23917093.168    93855811.862         694.405          46.500  
G14  24776127.303   130199437.391        2158.315          37.750  
G04  23897138.978   125580307.661       -2815.138          38.250  
C09  35926311.560   187077736.449         157.589          41.000    35926328.504   144660437.294         121.889          35.000  
C26  22170959.317   115450003.699        1401.641          45.250                                                                  
C44  22389969.253   116590445.036        1815.612          46.000                                                                  
R14  20141982.112   107368095.033         169.111          48.750  
C01  37376577.852   194629653.110          -1.234          42.250    37376597.842   150500069.642          -0.760          34.250  
C35  21500879.778   111960724.442        -780.720          46.000                                                                  
C45  22879549.199   119139815.336       -1227.006          48.250                                                                  
C03  36125713.483   188116069.859           2.542          43.000                                                                  
C07  36364035.988   189357072.416        -316.051          40.250    36364050.283   146422960.686        -244.551          36.000  
J02  39526016.929   207710622.000         575.653          43.000  
R18  21238236.985   113371151.921        3608.755          49.000  
C10  37129395.239   193342503.476        -285.415          41.500    37129413.658                        -219.783          33.000  
J03  37454896.921   196826812.459        -579.091          43.500  
C12  24489853.884   127525096.740        2738.216          41.500    24489874.769    98610576.438        2117.684          34.750  
G07  20706087.423   108811221.691        1664.954          43.750  
G08  21306447.674   111966136.081       -2261.300          45.000  
C39  36152742.779   188256819.424        -817.669          44.000                                                                  
C29  25116032.495   130785774.885       -2955.089          43.750                                                                  
C40  36477543.035   189948137.898        -539.502          44.250                                                                  
G09  23255515.367   122208557.999       -2360.755          42.500  
E21  27925636.371   146750211.253        1403.241          39.500    27925672.319   109586337.394        1047.835          36.750  
G16  24638175.079   129474480.979       -1926.316          40.000  
G02  20503939.982   107748931.278        1271.717          45.250  
E07  26155493.097   137448042.129       -2309.557          43.000    26155522.020   102639883.570       -1724.770          37.000  
> 2025 01 06 07 59 17.0000000  0 43                     
G17  23966246.212   125943471.126        2309.067          39.250  
R13  23471256.090   125335213.392       -2429.484          37.500  
G21  20018804.380   105199527.979        -233.768          42.750  
J07  36423625.833   191407446.589         -11.356          38.250  
E27  24787927.444   130261442.276         798.982          45.250    24787953.347    97273253.567         596.637          42.750  
C06  35498308.140   184849002.053        -396.197          43.250    35498321.580   142937032.306        -306.359          36.000  
E29  26134699.515   137338766.838        -764.527          43.500    26134733.701   102558304.164        -570.886          42.750  
G27  23910361.258   125649796.038       -3094.406          41.500  
E34  26036095.821   136820609.374       -1600.353          44.250    26036125.528   102171348.368       -1195.129          45.250  
R15  21167270.024   113111470.822        2618.437          48.000  
G30  22986974.499   120797361.670        3046.965          42.250  
C16  35737204.718   186093004.678        -371.966          44.750    35737223.700   143898992.654        -287.668          35.000  
R24  21238099.072   113569654.938       -3404.184          49.000  
R17  19041252.224   101893590.985         364.543          48.750  
E13  25820904.899   135689773.914        2867.487          41.500    25820933.117   101326888.427        2141.223          44.000  
E30  25333215.059   133126941.818        -447.300          44.000    25333241.282    99413078.328        -334.094          41.750  
E15  23916890.195   125684105.747         931.363          43.250    23916915.892    93855116.147         695.576          46.250  
G14  24775716.440   130197277.088        2160.597          36.500  
G04  23897674.539   125583120.956       -2813.298          38.250  
C09  35926281.008   187077577.000         159.534          41.000    35926297.700   144660314.026         123.152          35.250  
C26  22170689.706   115448600.247        1403.417          45.500                                                                  
C44  22389620.283   116588627.790        1817.170          46.000                                                                  
R14  20141950.031   107367924.112         170.867          49.000  
C01  37376577.682   194629652.287           0.863          42.500    37376597.690   150500069.016           0.637          33.750  
C35  21501029.363   111961503.457        -779.152          46.000                                                                  
C45  22879784.384   119141040.558       -1225.300          48.500                                                                  
C03  36125712.602   188116065.457           4.548          43.000                                                                  
C07  36364096.327   189357386.607        -314.036          40.500    36364110.683   146423203.640        -243.025          36.000  
J02  39525906.964   207710044.282         577.863          42.750  
R18  21237560.696   113367541.493        3610.300          49.000  
C10  37129449.730   193342787.054        -283.451          41.750    37129468.364                        -219.340          33.500  
J03  37455006.692   196827389.684        -577.243          43.500  
C12  24489327.505   127522356.527        2740.117          41.500    24489349.050    98608457.549        2118.783          34.750  
G07  20705770.221   108809555.050        1666.424          43.750  
G08  21306877.563   111968395.484       -2259.410          45.250  
C39  36152899.314   188257635.213        -815.813          44.000                                                                  
C29  25116599.471   130788728.171       -2953.189          43.750                                                                  
C40  36477646.259   189948675.505        -537.458          44.250                                                                  
G09  23255964.375   122210917.002       -2359.032          42.750  
E21  27925368.995   146748806.031        1405.273          39.250    27925405.055   109585288.070        1049.343          35.500  
G16  24638541.281   129476405.439       -1924.337          39.750  
G02  20503697.592   107747657.889        1273.230          45.250  
E07  26155932.182   137450349.837       -2307.615          43.250    26155961.117   102641606.884       -1723.420          36.750  
> 2025 01 06 07 59 18.0000000  0 43                     
G17  23965806.754   125941162.594        2307.812          39.000  
R13  23471711.655   125337643.549       -2431.163          37.000  
G21  20018849.055   105199762.574        -235.585          42.500  
J07  36423628.146   191407458.404         -12.547          38.500  
E27  24787775.501   130260643.742         797.989          45.500    24787801.384    97272657.266         595.849          42.750  
C06  35498384.287   184849398.692        -397.345          43.250    35498398.043   142937339.021        -307.345          35.750  
E29  26134845.075   137339531.927        -765.943          43.750    26134879.254   102558875.492        -571.907          42.750  
G27  23910950.260   125652890.914       -3095.411          41.250  
E34  26036400.485   136822210.313       -1601.776          44.250    26036430.211   102172543.873       -1196.135          45.250  
R15  21166779.935   113108852.811        2617.315          48.250  
G30  22986394.864   120794315.309        3045.698          42.250  
C16  35737276.145   186093377.216        -373.227          44.500    35737295.757   143899280.710        -288.548          34.750  
R24  21238735.852   113573059.761       -3405.740          49.000  
R17  19041184.433   101893227.286         362.604          48.750  
E13  25820359.284   135686906.971        2866.261          41.250    25820387.605   101324747.536        2140.395          43.750  
E30  25333300.265   133127389.555        -448.395          44.250    25333326.445    99413412.662        -334.772          41.500  
E15  23916713.076   125683174.844         930.067          43.500    23916738.732    93854421.004         694.491          46.500  
G14  24775305.256   130195116.976        2159.541          36.750  
G04  23898210.043   125585934.474       -2814.106          38.500  
C09  35926250.514   187077418.044         158.245          41.000    35926267.315   144660191.120         122.390          35.250  
C26  22170420.103   115447197.368        1402.092          45.250                                                                  
C44  22389271.392   116586811.244        1815.783          46.000                                                                  
R14  20141918.226   107367753.894         169.406          48.750  
C01  37376577.378   194629651.807          -0.210          42.500    37376597.256   150500068.641          -0.008          34.250  
C35  21501179.152   111962283.232        -780.648          46.000                                                                  
C45  22880019.674   119142266.447       -1226.714          48.500                                                                  
C03  36125711.824   188116061.378           3.487          43.000                                                                  
C07  36364156.659   189357701.101        -315.097          40.750    36364170.712   146423446.832        -243.835          36.250  
J02  39525797.158   207709466.773         576.860          43.000  
R18  21236884.469   113363931.876        3608.765          49.500  
C10  37129504.254   193343070.943        -284.582          41.750    37129522.404                        -219.332          33.500  
J03  37455116.430   196827967.290        -578.293          43.500  
C12  24488801.499   127519616.900        2738.789          41.500    24488823.019    98606339.087        2117.936          35.000  
G07  20705453.250   108807889.246        1664.944          43.750  
G08  21307307.646   111970655.342       -2260.532          45.250  
C39  36153055.917   188258451.460        -816.952          43.750                                                                  
C29  25117166.783   130791681.835       -2954.271          44.000                                                                  
C40  36477749.483   189949213.414        -538.511          44.500                                                                  
G09  23256413.716   122213276.382       -2359.980          42.500  
E21  27925101.721   146747401.056        1404.473          39.750    27925137.767   109584238.872        1048.623          35.250  
G16  24638907.634   129478330.280       -1925.450          39.250  
G02  20503455.424   107746385.451        1271.543          45.250  
E07  26156371.327   137452657.904       -2308.675          43.750    26156400.251   102643330.407       -1723.990          36.500  
> 2025 01 06 07 59 19.0000000  0 43                     
G17  23965367.357   125938854.219        2306.901          39.500  
R13  23472166.773   125340073.912       -2431.930          37.250  
G21  20018893.767   105199997.746        -236.786          42.500  
J07  36423630.429   191407470.063         -12.975          38.500  
E27  24787623.623   130259845.019         797.471          45.500    24787649.357    97272060.804         595.559          42.750  
C06  35498460.495   184849795.357        -398.062          43.250    35498474.075   142937645.739        -307.533          35.750  
E29  26134990.695   137340297.222        -766.741          43.500    26135024.940   102559446.967        -572.572          42.750  
G27  23911539.037   125655985.570       -3095.869          41.500  
E34  26036705.156   136823811.493       -1602.576          44.500    26036734.865   102173739.559       -1196.761          45.250  
R15  21166289.860   113106234.707        2616.775          48.250  
G30  22985815.135   120791269.063        3044.936          42.250  
C16  35737347.616   186093749.780        -373.935          44.750    35737367.322   143899568.805        -289.101          35.000  
R24  21239372.465   113576464.852       -3406.607          49.250  
R17  19041116.509   101892864.314         361.273          48.500  
E13  25819813.649   135684040.009        2865.594          41.500    25819842.058   101322606.612        2139.910          43.750  
E30  25333385.520   133127837.183        -448.874          44.250    25333411.616    99413746.930        -335.186          41.500  
E15  23916535.972   125682244.261         929.071          43.500    23916561.576    93853726.087         693.789          46.500  
G14  24774894.185   130192956.587        2159.252          37.000  
G04  23898745.531   125588747.678       -2814.524          37.750  
C09  35926220.181   187077259.081         157.760          41.250    35926236.901   144660068.213         121.690          35.250  
C26  22170150.721   115445794.599        1401.412          45.500                                                                  
C44  22388922.600   116584994.966        1814.810          46.250                                                                  
R14  20141886.212   107367583.943         168.457          48.750  
C01  37376577.235   194629651.168          -0.611          42.500    37376596.402   150500068.136          -0.248          34.250  
C35  21501329.090   111963063.314        -781.561          46.000                                                                  
C45  22880255.108   119143492.532       -1227.493          48.500                                                                  
C03  36125710.939   188116057.145           2.988          43.000                                                                  
C07  36364217.082   189358015.448        -315.527          40.750    36364230.912   146423689.889        -243.891          36.250  
J02  39525687.198   207708889.018         576.529          43.250  
R18  21236208.392   113360322.577        3607.772          49.500  
C10  37129558.957   193343354.673        -284.904          41.750    37129576.689                        -219.079          33.250  
J03  37455226.206   196828544.813        -578.859          43.500  
C12  24488275.653   127516877.391        2738.168          41.750    24488296.606    98604220.712        2117.688          35.250  
G07  20705136.264   108806223.802        1663.961          43.750  
G08  21307737.644   111972915.185       -2261.250          45.250  
C39  36153212.788   188259267.740        -817.575          44.000                                                                  
C29  25117734.027   130794635.406       -2954.786          44.000                                                                  
C40  36477852.770   189949751.181        -539.054          44.500                                                                  
G09  23256862.576   122215635.670       -2360.546          42.250  
E21  27924834.325   146745995.820        1404.024          40.000    27924870.394   109583189.499        1048.562          35.000  
G16  24639273.864   129480255.087       -1926.105          39.000  
G02  20503213.375   107745113.483        1270.446          45.250  
E07  26156810.587   137454965.852       -2309.201          43.500    26156839.313   102645053.878       -1724.432          36.750  
> 2025 01 06 07 59 20.0000000  0 43                     
G17  23964928.056   125936546.091        2307.133          39.250  
R13  23472622.220   125342504.629       -2431.674          37.500  
G21  20018938.436   105200233.618        -237.210          42.750  
J07  36423632.762   191407481.655         -12.441          38.250  
E27  24787471.558   130259046.184         797.879          45.500    24787497.348    97271464.284         595.853          42.750  
C06  35498536.688   184850192.129        -397.745          43.000    35498550.386   142937952.545        -307.703          35.750  
E29  26135136.424   137341062.800        -766.632          43.750    26135170.633   102560018.675        -572.545          43.000  
G27  23912127.848   125659080.069       -3095.335          41.250  
E34  26037009.963   136825413.015       -1602.646          44.500    26037039.578   102174935.498       -1196.751          45.250  
R15  21165799.967   113103616.622        2617.103          48.250  
G30  22985235.641   120788223.017        3045.013          42.500  
C16  35737419.156   186094122.458        -373.661          44.750    35737438.195   143899857.001        -289.016          35.000  
R24  21240009.396   113579870.323       -3406.587          49.250  
R17  19041048.811   101892502.189         360.762          48.500  
E13  25819268.078   135681173.102        2865.937          41.250    25819296.502   101320465.749        2140.183          43.750  
E30  25333470.679   133128284.788        -448.410          44.000    25333496.803    99414081.176        -335.057          41.250  
E15  23916358.989   125681314.065         929.093          43.500    23916384.512    93853031.468         693.762          46.500  
G14  24774482.862   130190796.038        2159.855          37.250  
G04  23899280.764   125591560.716       -2813.819          38.000  
C09  35926189.701   187077100.251         157.896          41.000    35926206.634   144659945.379         122.158          35.000  
C26  22169881.425   115444392.021        1401.554          45.500                                                                  
C44  22388573.912   116583179.022        1814.897          46.000                                                                  
R14  20141854.449   107367414.376         168.422          49.000  
C01  37376577.199   194629650.450          -0.141          42.500    37376596.335   150500067.630          -0.655          34.000  
C35  21501478.972   111963843.777        -781.553          46.000                                                                  
C45  22880490.588   119144718.910       -1227.455          48.500                                                                  
C03  36125710.156   188116052.861           3.372          43.000                                                                  
C07  36364277.695   189358329.741        -315.264          41.000    36364290.920   146423932.927        -243.659          36.250  
J02  39525577.216   207708311.106         577.088          43.000  
R18  21235532.547   113356713.719        3607.658          49.750  
C10  37129613.518   193343638.343        -284.553          41.750    37129631.046                        -219.209          33.250  
J03  37455336.187   196829122.337        -578.409          43.250  
C12  24487749.839   127514138.107        2738.168          41.750    24487770.591    98602102.522        2117.454          35.250  
G07  20704819.445   108804558.829        1663.767          44.000  
G08  21308167.580   111975175.101       -2260.834          45.250  
C39  36153369.642   188260084.136        -817.434          43.750                                                                  
C29  25118301.379   130797588.989       -2954.458          44.000                                                                  
C40  36477956.077   189950288.867        -538.563          44.500                                                                  
G09  23257311.536   122217994.981       -2360.303          42.250  
E21  27924566.956   146744590.437        1404.654          40.000    27924602.993   109582140.030        1048.937          36.000  
G16  24639639.981   129482179.854       -1925.715          39.000  
G02  20502971.313   107743842.076        1270.219          45.000  
E07  26157249.824   137457273.769       -2308.727          43.500    26157278.340   102646777.330       -1724.183          37.000  
> 2025 01 06 07 59 21.0000000  0 43                     
G17  23964488.827   125934237.889        2310.478          39.250  
R13  23473077.239   125344935.306       -2428.209          38.000  
G21  20018983.464   105200469.864        -234.186          42.750  
J07  36423634.849   191407492.876          -8.636          38.500  
E27  24787319.450   130258246.932         801.770          45.500    24787345.335    97270867.445         598.702          42.750  
C06  35498612.760   184850588.695        -394.223          43.000    35498625.869   142938259.210        -304.769          35.500  
E29  26135282.000   137341828.355        -763.304          43.750    26135316.314   102560590.349        -569.894          43.000  
G27  23912716.515   125662174.128       -3091.573          41.250  
E34  26037314.777   136827014.530       -1599.247          44.250    26037344.325   102176131.449       -1194.254          45.500  
R15  21165309.838   113100998.224        2620.942          48.500  
G30  22984655.846   120785176.824        3048.656          42.250  
C16  35737490.795   186094494.929        -370.026          44.750    35737509.798   143900145.025        -286.214          34.750  
R24  21240646.280   113583275.878       -3403.231          49.500  
R17  19040981.310   101892140.583         363.648          48.750  
E13  25818722.515   135678305.919        2869.654          41.250    25818750.779   101318324.688        2142.734          43.500  
E30  25333555.766   133128732.046        -444.810          43.750    25333581.907    99414415.167        -332.141          41.500  
E15  23916181.949   125680383.939         932.325          43.500    23916207.490    93852336.902         696.224          46.500  
G14  24774071.568   130188634.995        2163.677          37.000  
G04  23899815.906   125594373.240       -2809.980          38.250  
C09  35926159.244   187076941.182         161.513          41.000    35926175.923   144659822.376         124.825          35.250  
C26  22169612.072   115442989.323        1405.012          45.750                                                                  
C44  22388225.209   116581363.112        1818.182          46.000                                                                  
R14  20141822.672   107367244.895         171.687          49.000  
C01  37376577.128   194629649.377           3.592          42.500    37376596.196   150500066.788           2.544          34.000  
C35  21501628.764   111964624.297        -778.309          46.000                                                                  
C45  22880726.112   119145945.254       -1224.037          48.250                                                                  
C03  36125709.298   188116048.199           7.160          43.000                                                                  
C07  36364337.974   189358643.624        -311.399          40.750    36364351.705   146424175.637        -240.929          36.250  
J02  39525467.060   207707732.708         580.918          43.000  
R18  21234856.681   113353104.996        3610.985          50.000  
C10  37129668.012   193343921.619        -280.865          41.500    37129685.555                        -219.166          33.000  
J03  37455446.077   196829699.564        -574.819          43.250  
C12  24487223.826   127511398.721        2741.764          41.500    24487244.452    98599984.255        2120.205          35.500  
G07  20704502.553   108802893.978        1667.056          43.750  
G08  21308597.617   111977434.773       -2257.246          45.250  
C39  36153526.396   188260900.320        -813.783          44.000                                                                  
C29  25118868.696   130800542.257       -2950.891          44.000                                                                  
C40  36478059.299   189950826.182        -534.862          44.500                                                                  
G09  23257760.275   122220353.963       -2356.427          42.750  
E21  27924299.415   146743184.580        1408.371          39.750    27924335.428   109581090.216        1051.820          36.000  
G16  24640006.603   129484104.337       -1922.078          39.000  
G02  20502729.484   107742570.912        1273.326          45.250  
E07  26157689.019   137459581.358       -2305.134          43.500    26157717.324   102648500.530       -1721.165          36.750  
> 2025 01 06 07 59 22.0000000  0 43                     
G17  23964049.954   125931930.800        2308.703          37.000  
R13  23473533.392   125347367.188       -2430.660          34.250  
G21  20019028.847   105200707.707        -236.750          40.750  
J07  36423637.238   191407504.926         -10.435          36.750  
E27  24787167.539   130257448.468         800.141          44.000    24787193.380    97270271.176         597.604          43.000  
C06  35498689.117   184850986.273        -396.328          39.750    35498702.276   142938566.635        -306.229          36.000  
E29  26135427.852   137342595.073        -765.282          42.000    26135462.213   102561162.892        -571.382          42.750  
G27  23913305.468   125665268.931       -3093.161          39.500  
E34  26037619.749   136828617.292       -1601.430          42.750    26037649.340   102177328.307       -1195.790          45.250  
R15  21164820.232   113098380.779        2618.795          45.250  
G30  22984076.364   120782131.738        3046.608          40.750  
C16  35737562.529   186094868.442        -372.282          41.250    35737581.413   143900433.768        -287.416          35.000  
R24  21241283.322   113586682.729       -3405.610          46.250  
R17  19040914.073   101891780.703         360.880          45.250  
E13  25818177.107   135675439.705        2867.753          39.750    25818205.255   101316184.323        2141.580          43.500  
E30  25333641.112   133129180.171        -446.641          42.000    25333667.160    99414749.793        -333.410          41.250  
E15  23916005.146   125679455.093         930.271          41.750    23916030.738    93851643.266         694.598          46.500  
G14  24773660.441   130186474.683        2162.006          36.000  
G04  23900351.165   125597186.471       -2811.371          36.250  
C09  35926129.303   187076782.641         159.369          37.250    35926145.448   144659700.141         123.429          35.250  
C26  22169342.840   115441587.725        1402.796          42.250                                                                  
C44  22387876.710   116579548.443        1815.876          42.500                                                                  
R14  20141791.422   107367076.765         169.371          45.500  
C01  37376577.047   194629649.152           1.720          39.500    37376596.080   150500066.570           1.334          34.000  
C35  21501778.965   111965405.601        -780.497          42.750                                                                  
C45  22880961.801   119147172.782       -1226.259          45.000                                                                  
C03  36125708.542   188116044.381           5.179          39.750                                                                  
C07  36364398.551   189358957.852        -313.348          37.500    36364412.238   146424418.978        -242.143          36.000  
J02  39525357.199   207707155.044         579.279          41.000  
R18  21234180.862   113349497.619        3608.562          46.750  
C10  37129722.680   193344205.237        -282.749          38.250    37129740.328                        -219.412          33.000  
J03  37455556.227   196830277.671        -576.571          42.000  
C12  24486697.887   127508659.935        2739.649          38.500    24486718.883    98597866.833        2118.603          35.000  
G07  20704185.826   108801230.483        1664.939          42.250  
G08  21309027.821   111979695.413       -2259.165          43.500  
C39  36153683.414   188261717.006        -815.933          40.250                                                                  
C29  25119435.966   130803495.945       -2952.853          40.750                                                                  
C40  36478162.709   189951363.825        -536.701          41.250                                                                  
G09  23258209.439   122222713.848       -2358.299          40.750  
E21  27924031.962   146741779.448        1406.881          38.250    27924068.138   109580040.952        1050.502          36.750  
G16  24640372.630   129486029.704       -1923.808          37.000  
G02  20502488.101   107741301.195        1270.969          43.500  
E07  26158128.295   137461889.813       -2307.003          41.750    26158156.615   102650224.390       -1722.857          36.500  
> 2025 01 06 07 59 23.0000000  0 43                     
G17  23963610.996   125929624.027        2306.552          37.500  
R13  23473988.159   125349799.425       -2432.667          36.500  
G21  20019074.230   105200946.288        -239.171          42.250  
J07  36423639.655   191407516.978         -12.234          38.500  
E27  24787015.642   130256649.947         798.479          45.500    24787041.474    97269674.883         596.258          43.000  
C06  35498765.314   184851383.953        -397.904          43.000    35498779.058   142938874.148        -307.579          36.000  
E29  26135573.830   137343362.140        -767.321          43.500    26135608.158   102561735.692        -573.049          42.750  
G27  23913894.275   125668363.628       -3094.705          41.000  
E34  26037924.829   136830220.420       -1603.441          44.500    26037954.395   102178525.450       -1197.425          45.500  
R15  21164330.453   113095763.299        2617.228          48.250  
G30  22983496.903   120779086.888        3044.625          42.750  
C16  35737634.261   186095242.053        -373.765          44.750    35737653.127   143900722.719        -289.325          35.000  
R24  21241920.602   113590089.922       -3407.545          49.000  
R17  19040846.887   101891421.582         358.676          48.250  
E13  25817631.571   135672573.575        2865.886          41.250    25817659.890   101314044.039        2140.166          43.250  
E30  25333726.414   133129628.317        -448.220          43.750    25333752.425    99415084.446        -334.774          41.250  
E15  23915828.486   125678526.679         928.036          43.500    23915854.106    93850949.981         693.007          46.500  
G14  24773249.464   130184313.714        2160.456          36.750  
G04  23900886.437   125599999.572       -2813.219          38.000  
C09  35926099.075   187076624.683         157.654          40.750    35926115.067   144659578.025         121.666          35.000  
C26  22169073.770   115440186.293        1401.207          45.500                                                                  
C44  22387528.372   116577734.111        1813.952          46.000                                                                  
R14  20141759.929   107366909.000         167.390          48.500  
C01  37376577.083   194629648.865           0.152          42.250    37376596.111   150500066.367           0.096          33.750  
C35  21501929.328   111966187.813        -782.422          46.250                                                                  
C45  22881197.509   119148400.593       -1228.051          48.250                                                                  
C03  36125707.795   188116040.490           3.802          43.000                                                                  
C07  36364458.923   189359272.489        -314.752          40.500    36364472.852   146424662.301        -243.211          36.250  
J02  39525247.306   207706577.261         577.685          42.500  
R18  21233505.134   113345890.633        3606.569          50.000  
C10  37129777.130   193344489.301        -284.081          41.500    37129795.150                        -219.615          33.000  
J03  37455666.298   196830855.828        -578.311          43.250  
C12  24486172.145   127505921.869        2737.797          42.000    24486193.106    98595749.619        2116.952          35.250  
G07  20703869.378   108799567.488        1662.600          43.750  
G08  21309458.078   111981956.161       -2260.880          45.000  
C39  36153840.407   188262534.293        -817.468          44.000                                                                  
C29  25120003.358   130806450.123       -2954.335          44.000                                                                  
C40  36478266.118   189951901.907        -538.232          44.500                                                                  
G09  23258658.553   122225073.786       -2360.081          42.750  
E21  27923764.505   146740374.212        1405.271          39.750    27923800.868   109578991.607        1049.188          36.750  
G16  24640739.195   129487955.144       -1925.564          38.500  
G02  20502246.566   107740032.096        1268.665          45.000  
E07  26158567.546   137464198.261       -2308.490          43.250    26158595.939   102651948.222       -1723.908          37.000  
> 2025 01 06 07 59 24.0000000  0 43                     
G17  23963171.968   125927317.666        2308.335          38.000  
R13  23474443.477   125352232.177       -2430.663          36.500  
G21  20019119.988   105201185.737        -237.605          42.500  
J07  36423642.258   191407529.135         -10.063          38.750  
E27  24786863.714   130255851.509         800.523          45.500    24786889.556    97269078.651         597.816          42.750  
C06  35498841.708   184851781.950        -395.931          43.500    35498856.160   142939181.916        -306.095          35.750  
E29  26135719.850   137344129.656        -765.596          43.750    26135754.193   102562308.842        -571.682          42.750  
G27  23914483.087   125671458.373       -3092.535          41.000  
E34  26038229.982   136831824.054       -1601.611          44.500    26038259.512   102179722.973       -1196.100          45.250  
R15  21163840.790   113093146.039        2619.443          48.750  
G30  22982917.470   120776042.417        3046.536          42.500  
C16  35737706.056   186095615.982        -371.859          45.000    35737724.823   143901011.860        -287.519          34.500  
R24  21242557.873   113593497.692       -3405.807          49.500  
R17  19040780.007   101891063.484         359.882          48.500  
E13  25817086.222   135669707.673        2868.028          41.250    25817114.487   101311903.920        2141.650          43.000  
E30  25333811.676   133130076.610        -446.026          43.750    25333837.689    99415419.209        -333.151          41.250  
E15  23915651.937   125677598.826         929.754          43.500    23915677.543    93850257.111         694.293          46.500  
G14  24772838.564   130182153.256        2162.702          38.000  
G04  23901421.625   125602812.672       -2810.803          38.250  
C09  35926068.604   187076467.035         159.706          41.000    35926085.250   144659456.110         123.508          35.250  
C26  22168804.856   115438785.279        1402.977          46.000                                                                  
C44  22387180.003   116575920.322        1815.703          46.250                                                                  
R14  20141728.468   107366741.801         169.111          48.750  
C01  37376577.123   194629648.686           2.391          42.750    37376596.120   150500066.237           1.792          34.000  
C35  21502079.779   111966970.588        -780.805          46.500                                                                  
C45  22881433.416   119149628.891       -1226.315          48.750                                                                  
C03  36125707.071   188116036.759           5.810          43.000                                                                  
C07  36364519.325   189359587.275        -312.580          41.000    36364533.350   146424905.710        -241.718          36.000  
J02  39525137.352   207705999.501         579.978          42.750  
R18  21232829.725   113342284.299        3608.278          50.250  
C10  37129831.603   193344773.497        -281.986          42.000    37129849.883                        -219.904          33.250  
J03  37455776.359   196831434.166        -576.200          43.250  
C12  24485646.464   127503184.196        2739.738          42.000    24485667.065    98593632.657        2118.807          35.250  
G07  20703552.963   108797905.129        1664.294          44.000  
G08  21309888.380   111984217.162       -2258.859          44.750  
C39  36153997.470   188263351.886        -815.509          44.250                                                                  
C29  25120570.599   130809404.506       -2952.248          44.500                                                                  
C40  36478369.592   189952440.122        -536.123          45.000                                                                  
G09  23259107.738   122227433.916       -2358.020          42.500  
E21  27923496.990   146738969.017        1407.276          39.750    27923533.475   109577942.245        1050.985          36.500  
G16  24641105.358   129489880.759       -1923.414          38.250  
G02  20502005.183   107738763.728        1270.228          45.000  
E07  26159006.874   137466506.885       -2306.427          43.500    26159035.309   102653672.178       -1722.323          36.750  
> 2025 01 06 07 59 25.0000000  0 43                     
G17  23962732.912   125925010.938        2307.832          38.000  
R13  23474898.911   125354664.501       -2430.901          36.750  
G21  20019165.725   105201425.270        -238.540          42.500  
J07  36423644.098   191407540.629         -10.066          38.250  
E27  24786711.642   130255052.363         800.359          45.500    24786737.512    97268481.878         597.761          42.500  
C06  35498918.036   184852179.468        -396.338          43.500    35498932.511   142939489.281        -306.259          35.750  
E29  26135865.867   137344896.865        -766.193          43.750    26135900.222   102562881.738        -571.930          42.250  
G27  23915072.032   125674552.372       -3092.663          41.000  
E34  26038535.028   136833427.418       -1602.278          44.500    26038564.631   102180920.290       -1196.392          45.250  
R15  21163350.850   113090528.145        2619.174          48.750  
G30  22982338.091   120772997.547        3045.879          42.500  
C16  35737777.647   186095989.421        -372.201          45.000    35737796.944   143901300.634        -287.837          35.000  
R24  21243195.205   113596905.256       -3406.486          49.250  
R17  19040713.070   101890705.590         358.774          48.500  
E13  25816540.677   135666841.237        2867.714          41.250    25816569.041   101309763.397        2141.557          43.250  
E30  25333896.870   133130524.284        -446.375          43.750    25333922.875    99415753.511        -333.206          41.000  
E15  23915475.279   125676670.775         929.101          43.750    23915500.969    93849564.078         693.832          46.500  
G14  24772427.391   130179992.506        2162.818          37.000  
G04  23901956.934   125605624.964       -2811.019          38.750  
C09  35926037.978   187076308.884         159.391          41.000    35926054.767   144659333.821         123.275          35.250  
C26  22168535.738   115437383.846        1402.556          46.000                                                                  
C44  22386831.649   116574106.283        1815.115          46.500                                                                  
R14  20141697.113   107366574.339         168.516          49.250  
C01  37376577.052   194629647.896           1.959          42.750    37376596.290   150500065.624           1.558          33.500  
C35  21502230.007   111967753.151        -781.469          46.500                                                                  
C45  22881669.162   119150856.876       -1226.862          48.750                                                                  
C03  36125705.882   188116032.346           5.792          43.250                                                                  
C07  36364579.529   189359901.379        -312.793          41.000    36364594.089   146425148.583        -241.824          36.000  
J02  39525027.174   207705420.972         579.940          43.000  
R18  21232154.235   113338677.805        3607.571          50.500  
C10  37129885.869   193345057.012        -282.173          42.000    37129904.517                        -219.101          33.500  
J03  37455886.257   196832011.904        -576.494          43.500  
C12  24485120.601   127500446.156        2739.112          42.500    24485141.651    98591515.440        2118.036          35.500  
G07  20703236.543   108796242.610        1663.665          44.250  
G08  21310318.527   111986477.633       -2259.250          45.000  
C39  36154154.241   188264168.989        -815.852          44.250                                                                  
C29  25121137.737   130812358.295       -2952.562          44.750                                                                  
C40  36478472.730   189952977.673        -536.291          45.000                                                                  
G09  23259556.606   122229793.450       -2358.282          42.750  
E21  27923229.288   146737563.021        1407.397          39.500    27923265.924   109576892.362        1050.900          37.000  
G16  24641471.592   129491805.770       -1923.569          38.500  
G02  20501763.793   107737495.333        1269.319          45.000  
E07  26159445.940   137468814.870       -2306.677          43.250    26159474.679   102655395.686       -1722.593          37.250  
> 2025 01 06 07 59 26.0000000  0 43                     
G17  23962293.984   125922704.918        2305.937          38.000  
R13  23475355.068   125357097.672       -2433.254          37.250  
G21  20019211.497   105201665.973        -240.985          42.500  
J07  36423646.227   191407552.551         -11.942          38.500  
E27  24786559.598   130254253.570         798.881          45.250    24786585.467    97267885.392         596.492          42.500  
C06  35498994.423   184852577.548        -398.118          43.250    35499008.541   142939797.120        -307.779          35.750  
E29  26136012.005   137345664.833        -768.086          43.500    26136046.352   102563455.240        -573.679          42.250  
G27  23915660.818   125677646.707       -3094.189          41.500  
E34  26038840.254   136835031.595       -1604.279          44.250    26038869.886   102182118.221       -1198.165          45.250  
R15  21162860.933   113087910.719        2617.406          48.750  
G30  22981758.724   120769953.321        3044.325          42.500  
C16  35737849.439   186096363.460        -374.113          45.000    35737868.675   143901589.851        -289.146          35.000  
R24  21243832.658   113600313.712       -3408.599          49.500  
R17  19040646.317   101890349.016         356.214          48.500  
E13  25815995.305   135663975.341        2865.802          40.750    25816023.640   101307623.303        2139.959          43.250  
E30  25333982.213   133130972.415        -448.086          43.500    25334008.044    99416088.145        -334.716          41.500  
E15  23915298.877   125675743.573         926.982          43.500    23915324.524    93848871.699         692.145          46.250  
G14  24772016.399   130177831.585        2160.968          38.000  
G04  23902492.072   125608437.531       -2812.285          39.000  
C09  35926007.699   187076151.279         157.753          41.250    35926024.265   144659211.968         121.964          35.000  
C26  22168266.730   115435983.085        1400.686          45.750                                                                  
C44  22386483.534   116572293.057        1813.062          46.500                                                                  
R14  20141665.997   107366407.733         166.464          49.250  
C01  37376577.079   194629647.494           0.465          42.750    37376595.785   150500065.292           0.410          33.750  
C35  21502380.492   111968536.571        -783.641          46.250                                                                  
C45  22881905.163   119152085.621       -1228.967          48.750                                                                  
C03  36125704.764   188116028.367           3.900          43.000                                                                  
C07  36364639.983   189360215.874        -314.528          41.000    36364654.265   146425391.778        -243.312          36.250  
J02  39524916.995   207704842.768         578.299          43.000  
R18  21231478.942   113335072.223        3605.354          50.500  
C10  37129940.397   193345340.958        -283.831          42.000    37129958.669                        -219.484          33.000  
J03  37455996.259   196832590.130        -578.167          43.500  
C12  24484594.952   127497708.796        2737.293          42.500    24484615.886    98589398.738        2116.624          35.250  
G07  20702920.461   108794581.034        1661.335          44.000  
G08  21310748.743   111988738.658       -2261.096          45.250  
C39  36154311.376   188264986.681        -817.721          44.000                                                                  
C29  25121705.156   130815312.562       -2954.268          44.500                                                                  
C40  36478575.956   189953515.627        -537.903          44.750                                                                  
G09  23260005.522   122232153.466       -2359.965          42.750  
E21  27922961.826   146736157.391        1405.795          39.750    27922998.338   109575842.691        1049.964          36.500  
G16  24641837.955   129493731.299       -1925.428          38.250  
G02  20501522.601   107736227.965        1267.058          45.000  
E07  26159885.261   137471123.314       -2308.427          43.250    26159914.003   102657119.526       -1723.879          36.750  
> 2025 01 06 07 59 27.0000000  0 42                     
G17  23961855.475   125920399.575        2304.770          38.000  
R13  23475810.877   125359531.556       -2434.372          37.250  
G21  20019257.440   105201907.763        -242.540          42.250  
J07  36423648.701   191407564.835         -12.723          38.500  
E27  24786407.597   130253455.109         798.088          45.500    24786433.543    97267289.139         595.989          42.750  
C06  35499070.870   184852976.164        -399.113          43.500    35499085.095   142940105.340        -308.475          36.000  
E29  26136158.244   137346433.512        -769.200          43.750    26136192.651   102564029.231        -574.298          42.500  
G27  23916249.713   125680741.344       -3095.030          41.250  
E34  26039145.645   136836636.518       -1605.462          44.250    26039175.295   102183316.703       -1198.881          45.250  
R15  21162371.254   113085293.708        2616.592          48.750  
G30  22981179.348   120766909.749        3042.936          42.500  
C16  35737921.213   186096738.011        -375.057          45.000    35737940.643   143901879.487        -290.038          34.750  
R24  21244470.277   113603722.939       -3409.770          49.500  
R17  19040579.774   101889993.689         354.526          48.500  
E13  25815450.064   135661109.896        2865.150          40.750    25815478.381   101305483.529        2139.412          43.250  
E30  25334067.632   133131420.937        -448.916          43.250    25334093.421    99416423.071        -335.183          41.250  
E15  23915122.615   125674817.179         925.864          43.750    23915148.229    93848179.909         691.299          46.500  
G14  24771605.590   130175670.898        2160.185          37.750  
G04  23903027.507   125611250.350       -2813.007          39.000  
C09  35925977.392   187075994.236         156.488          41.250    35925994.557   144659090.536         121.053          35.250  
C26  22167997.801   115434582.928        1399.650          45.500                                                                  
C44  22386135.319   116570480.588        1811.939          46.500                                                                  
R14  20141634.959   107366241.928         165.219          49.250  
C01                                                                  37376595.816   150500065.257          -0.287          34.000  
C35  21502531.092   111969320.791        -784.780          46.250                                                                  
C45  22882141.265   119153315.052       -1229.985          48.750                                                                  
C07  36364700.392   189360530.706        -315.154          41.000    36364714.539   146425635.222        -243.656          36.000  
J02  39524806.931   207704264.811         577.642          43.000  
R18  21230803.799   113331467.482        3604.125          50.750  
C10  37129994.916   193345625.230        -284.482          42.000    37130013.106                        -220.124          33.000  
J03  37456106.470   196833168.767        -578.919          43.250  
C12  24484069.352   127494972.061        2736.221          42.250    24484090.860    98587282.511        2115.930          35.500  
G07  20702604.486   108792920.337        1660.040          44.000  
G08  21311179.197   111991000.166       -2261.925          45.250  
C39  36154468.560   188265804.879        -818.619          44.000                                                                  
C29  25122272.679   130818267.247       -2955.125          44.750                                                                  
C40  36478679.266   189954053.925        -538.705          44.750                                                                  
G09  23260454.758   122234513.895       -2360.720          42.500  
E21  27922694.482   146734751.980        1405.175          39.250    27922730.839   109574793.207        1049.167          36.250  
G16  24642204.374   129495657.215       -1926.377          38.500  
G02  20501281.731   107734961.576        1265.663          45.250  
E07  26160324.523   137473432.139       -2309.244          43.000    26160353.370   102658843.644       -1724.431          37.000  
> 2025 01 06 07 59 28.0000000  0 42                     
G17  23961416.525   125918093.789        2306.101          38.000  
R13  23476266.586   125361965.050       -2433.270          37.000  
G21  20019303.308   105202149.564        -241.757          42.250  
J07  36423651.023   191407576.368         -11.312          38.750  
E27  24786255.520   130252655.861         799.724          45.250    24786281.439    97266692.294         597.142          42.500  
C06  35499147.330   184853374.217        -397.738          43.000    35499161.403   142940413.143        -307.567          35.500  
E29  26136304.426   137347201.796        -768.083          43.750    26136338.811   102564602.946        -573.603          42.250  
G27  23916838.372   125683835.133       -3093.296          41.250  
E34  26039450.984   136838241.094       -1604.420          44.250    26039480.670   102184514.922       -1198.090          45.250  
R15  21161881.359   113082676.019        2618.022          48.750  
G30  22980600.045   120763865.674        3044.310          42.500  
C16  35737992.954   186097112.008        -373.743          45.000    35738012.752   143902168.689        -288.949          35.000  
R24  21245107.878   113607131.835       -3408.713          49.750  
R17  19040513.333   101889638.483         355.164          48.500  
E13  25814904.711   135658243.866        2866.290          40.500    25814933.002   101303343.306        2140.371          43.250  
E30  25334152.919   133131868.753        -447.549          43.250    25334178.649    99416757.474        -333.994          41.250  
E15  23914946.280   125673890.500         926.810          43.500    23914971.908    93847487.908         692.127          46.500  
G14  24771194.240   130173509.321        2162.080          36.750  
G04  23903562.563   125614062.305       -2811.424          39.000  
C09  35925947.147   187075836.591         157.809          41.000    35925963.976   144658968.604         122.317          35.250  
C26  22167728.761   115433182.291        1400.907          45.500                                                                  
C44  22385787.210   116568667.771        1812.993          46.500                                                                  
R14  20141603.883   107366075.797         166.323          49.250  
C01                                                                  37376595.955   150500064.659           0.957          34.000  
C35  21502681.598   111970104.713        -783.755          46.250                                                                  
C45  22882377.351   119154544.097       -1228.836          48.500                                                                  
C07  36364760.662   189360844.792        -313.762          40.750    36364775.152   146425878.099        -242.694          36.000  
J02  39524696.755   207703686.014         579.270          43.000  
R18  21230128.683   113327862.494        3605.078          50.750  
C10  37130049.354   193345908.786        -283.128          42.000    37130067.843                        -219.340          33.250  
J03  37456216.627   196833746.734        -577.478          43.500  
C12  24483543.710   127492234.853        2737.439          42.250    24483565.153    98585165.943        2116.938          35.250  
G07  20702288.446   108791259.408        1661.038          44.000  
G08  21311609.551   111993261.067       -2260.653          45.250  
C39  36154625.551   188266622.512        -817.399          43.750                                                                  
C29  25122840.109   130821221.244       -2953.661          44.750                                                                  
C40  36478782.476   189954591.473        -537.134          44.750                                                                  
G09  23260903.825   122236873.657       -2359.279          42.500  
E21  27922426.785   146733345.774        1406.527          39.500    27922463.283   109573743.099        1050.526          36.000  
G16  24642570.541   129497582.469       -1924.968          38.500  
G02  20501040.817   107733695.076        1266.574          45.250  
E07  26160763.674   137475740.265       -2307.757          43.000    26160792.603   102660567.238       -1723.418          37.000  
> 2025 01 06 07 59 29.0000000  0 43                     
G17  23960978.077   125915789.266        2301.780          38.000  
R13  23476722.151   125364399.880       -2437.412          36.750  
G21  20019349.616   105202393.071        -246.477          42.250  
J07  36423653.278   191407588.843         -15.093          38.500  
E27  24786103.577   130251857.532         795.752          45.250    24786129.517    97266096.144         594.216          42.500  
C06  35499223.982   184853773.374        -401.827          43.250    35499238.374   142940721.794        -310.761          35.500  
E29  26136450.895   137347971.380        -772.375          43.750    26136485.190   102565177.626        -576.829          42.500  
G27  23917427.380   125686929.812       -3097.249          40.750  
E34  26039756.656   136839847.015       -1608.709          44.250    26039786.301   102185714.148       -1201.325          45.250  
R15  21161391.735   113080059.402        2613.890          48.750  
G30  22980021.091   120760822.825        3040.062          42.500  
C16  35738064.990   186097487.126        -377.828          44.750    35738084.578   143902458.733        -292.123          34.750  
R24  21245745.589   113610542.116       -3413.196          49.750  
R17  19040447.398   101889285.108         350.265          48.750  
E13  25814359.599   135655378.877        2862.287          40.500    25814387.849   101301203.864        2137.404          43.250  
E30  25334238.284   133132317.550        -451.506          43.250    25334264.157    99417092.617        -337.186          41.250  
E15  23914770.142   125672965.212         922.472          43.500    23914795.850    93846796.954         688.748          46.500  
G14  24770782.617   130171348.602        2158.205          36.750  
G04  23904097.905   125616875.081       -2815.430          39.000  
C09  35925916.988   187075680.041         153.886          41.000    35925934.353   144658847.546         119.303          35.000  
C26  22167459.986   115431782.857        1396.685          45.500                                                                  
C44  22385439.254   116566856.326        1808.563          46.500                                                                  
R14  20141573.064   107365911.078         161.843          49.250  
C01  37376577.235   194629645.8041         -2.686          42.500    37376596.103   150500064.782          -1.923          33.750  
C35  21502832.251   111970890.023        -788.122          46.000                                                                  
C45  22882613.610   119155774.434       -1233.025          48.500                                                                  
C03  36125702.541   188116011.9171          0.841          43.000                                                                  
C07  36364820.890   189361159.816        -317.688          40.750    36364835.807   146426121.694        -245.650          36.000  
J02  39524586.610   207703108.074         575.365          43.250  
R18  21229453.551   113324258.972        3600.589          50.500  
C10  37130104.050   193346193.262        -287.074          42.000    37130122.169                        -220.277          33.500  
J03  37456326.830   196834325.727        -581.730          43.500  
C12  24483018.250   127489498.860        2733.351          42.250    24483039.933    98583050.320        2113.375          35.250  
G07  20701972.676   108789599.951        1656.603          43.750  
G08  21312040.089   111995523.053       -2264.761          45.000  
C39  36154782.650   188267441.264        -821.486          43.750                                                                  
C29  25123407.491   130824176.267       -2957.642          44.750                                                                  
C40  36478885.894   189955129.976        -541.063          44.500                                                                  
G09  23261353.008   122239234.437       -2363.449          42.500  
E21  27922159.051   146731940.407        1402.710          39.750    27922195.823   109572693.655        1047.463          36.250  
G16  24642937.324   129499508.748       -1928.948          38.500  
G02  20500800.227   107732430.152        1261.952          45.250  
E07  26161203.020   137478049.377       -2311.812          42.750    26161232.137   102662291.569       -1726.225          36.750  
> 2025 01 06 07 59 30.0000000  0 43                     
G17  23960539.195   125913483.695        2308.101          38.250  
R13  23477178.619   125366833.702       -2430.876          37.000  
G21  20019395.847   105202635.950        -240.433          42.250  
J07  36423655.333   191407599.967          -8.369          38.500  
E27  24785951.477   130251057.794         802.524          45.500    24785977.349    97265498.930         599.254          42.500  
C06  35499300.467   184854171.365        -395.362          43.000    35499314.697   142941029.552        -305.704          36.000  
E29  26136597.156   137348739.937        -765.929          43.750    26136631.390   102565751.547        -571.926          42.250  
G27  23918015.982   125690023.036       -3090.385          41.000  
E34  26040062.104   136841451.974       -1602.410          44.250    26040091.701   102186912.652       -1196.524          45.000  
R15  21160901.890   113077441.471        2620.677          48.750  
G30  22979441.915   120757778.860        3046.511          42.500  
C16  35738136.808   186097861.072        -371.316          45.000    35738156.039   143902747.895        -287.180          35.000  
R24  21246383.299   113613951.469       -3406.797          49.750  
R17  19040381.342   101888931.224         356.194          48.750  
E13  25813814.055   135652512.665        2868.925          40.750    25813842.437   101299063.507        2142.418          43.250  
E30  25334323.468   133132765.025        -444.651          43.250    25334349.366    99417426.767        -331.933          41.250  
E15  23914593.850   125672039.023         928.714          43.750    23914619.594    93846105.310         693.598          46.250  
G14  24770371.386   130169186.426        2164.971          37.000  
G04  23904632.891   125619686.364       -2808.615          39.000  
C09  35925886.596   187075522.327         160.273          41.000    35925904.080   144658725.613         124.014          35.250  
C26  22167190.958   115430382.317        1403.144          45.500                                                                  
C44  22385091.105   116565043.908        1814.954          46.500                                                                  
R14  20141541.954   107365745.410         168.255          49.500  
C01  37376576.940   194629644.615           3.892          42.750    37376596.125   150500063.860           3.079          33.750  
C35  21502982.835   111971674.437        -781.966          46.000                                                                  
C45  22882849.705   119157003.765       -1226.748          48.500                                                                  
C03  36125701.799   188116007.138           7.587          43.000                                                                  
C07  36364881.310   189361473.474        -310.931          40.750    36364896.350   146426364.249        -240.573          36.000  
J02  39524476.384   207702528.666         582.206          43.000  
R18  21228778.283   113320654.552        3607.039          50.750  
C10  37130158.368   193346476.415        -280.476          41.750    37130176.700                        -219.004          33.250  
J03  37456436.714   196834903.412        -574.947          43.250  
C12  24482492.629   127486761.806        2739.536          42.250    24482514.404    98580933.827        2118.514          35.500  
G07  20701656.808   108787939.647        1662.818          43.500  
G08  21312470.278   111997783.811       -2258.110          45.000  
C39  36154939.740   188268258.810        -814.899          43.750                                                                  
C29  25123974.821   130827130.006       -2950.999          44.750                                                                  
C40  36478989.127   189955667.111        -534.371          44.750                                                                  
G09  23261802.067   122241593.926       -2356.860          42.500  
E21  27921891.493   146730533.604        1409.489          39.500    27921928.025   109571643.136        1052.294          36.000  
G16  24643303.704   129501433.721       -1922.185          38.250  
G02  20500559.357   107731164.495        1268.084          45.000  
E07  26161642.114   137480357.154       -2304.937          43.000    26161671.225   102664014.905       -1721.269          37.000  
> 2025 01 06 07 59 31.0000000  0 42                     
G17  23960100.760   125911178.958        2301.821          38.000  
R13  23477634.706   125369268.431       -2437.884          37.000  
G21  20019442.320   105202880.165        -247.577          42.250  
J07  36423657.586   191407611.672         -14.881          38.500  
E27  24785799.376   130250258.581         796.097          45.500    24785825.233    97264902.111         594.742          42.500  
C06  35499377.141   184854570.093        -402.004          43.000    35499391.108   142941337.845        -310.522          35.500  
E29  26136743.599   137349509.413        -772.712          43.750    26136777.830   102566326.154        -576.871          42.250  
G27  23918604.722   125693116.784       -3096.994          41.000  
E34  26040367.819   136843057.880       -1609.036          44.500    26040397.332   102188111.870       -1201.484          45.250  
R15  21160412.022   113074824.176        2613.980          48.500  
G30  22978862.940   120754735.710        3040.052          42.500  
C16  35738208.878   186098235.752        -377.830          44.750    35738228.363   143903037.629        -292.131          35.000  
R24  21247021.016   113617361.863       -3413.918          49.750  
R17  19040315.541   101888578.799         348.815          48.750  
E13  25813268.903   135649647.132        2862.297          41.000    25813297.167   101296923.664        2137.670          43.250  
E30  25334408.692   133133213.105        -451.068          43.000    25334434.719    99417761.368        -336.593          41.500  
E15  23914417.839   125671113.843         921.874          43.750    23914443.513    93845414.436         688.593          46.500  
G14  24769959.601   130167024.657        2158.821          37.500  
G04  23905167.778   125622498.087       -2814.927          39.250  
C09  35925856.224   187075365.325         154.020          41.000    35925873.928   144658604.217         119.053          35.000  
C26  22166922.254   115428982.591        1396.520          45.500                                                                  
C44  22384743.220   116563232.472        1808.060          46.500                                                                  
R14  20141511.120   107365580.757         161.355          50.000  
C01                                                                  37376595.445   150500063.371          -1.809          33.750  
C35  21503133.632   111972459.836        -788.744          45.750                                                                  
C45  22883085.960   119158234.000       -1233.385          48.500                                                                  
C07  36364941.739   189361787.695        -317.333          40.750    36364956.083   146426607.208        -245.168          36.000  
J02  39524366.303   207701949.722         576.138          43.250  
R18  21228103.142   113317051.198        3600.009          50.750  
C10  37130212.812   193346760.095        -286.759          42.000    37130230.619                        -218.863          33.250  
J03  37456546.700   196835481.739        -581.450          43.500  
C12  24481967.110   127484025.590        2733.011          42.250    24481988.969    98578818.023        2113.663          35.750  
G07  20701341.035   108786280.431        1656.000          43.500  
G08  21312900.587   112000045.265       -2264.488          45.000  
C39  36155096.812   188269077.099        -821.246          44.000                                                                  
C29  25124542.169   130830084.358       -2957.277          44.750                                                                  
C40  36479092.434   189956204.803        -540.740          44.750                                                                  
G09  23262251.287   122243954.031       -2363.376          42.250  
E21  27921623.946   146729127.244        1403.222          39.250    27921660.388   109570592.946        1047.908          36.500  
G16  24643670.390   129503359.355       -1928.730          38.750  
G02  20500318.835   107729900.018        1260.968          45.000  
E07  26162081.412   137482665.535       -2311.552          43.000    26162110.378   102665738.698       -1725.965          37.000  
> 2025 01 06 07 59 32.0000000  0 42                     
G17  23959662.224   125908874.041        2303.320          37.500  
R13  23478090.701   125371703.032       -2436.412          37.000  
G21  20019488.908   105203124.606        -246.207          42.000  
J07  36423659.805   191407622.859         -12.807          38.500  
E27  24785647.157   130249458.804         798.369          45.500    24785673.054    97264304.884         596.159          42.750  
C06  35499453.634   184854968.454        -399.874          43.250    35499468.084   142941645.899        -309.162          35.500  
E29  26136890.015   137350278.729        -770.906          44.000    26136924.246   102566900.638        -575.653          42.250  
G27  23919193.444   125696209.889       -3094.520          41.000  
E34  26040673.395   136844663.666       -1607.442          44.750    26040702.930   102189311.003       -1200.371          45.250  
R15  21159922.014   113072206.380        2616.253          48.500  
G30  22978283.843   120751692.316        3041.744          42.500  
C16  35738280.778   186098610.101        -375.906          45.000    35738300.620   143903327.091        -290.577          34.750  
R24  21247658.651   113620772.161       -3412.014          49.750  
R17  19040249.693   101888226.750         350.194          48.500  
E13  25812723.488   135646781.190        2864.414          41.000    25812751.848   101294783.525        2138.959          43.500  
E30  25334493.950   133133660.716        -449.186          43.250    25334519.818    99418095.606        -335.303          41.000  
E15  23914241.692   125670188.592         923.524          43.750    23914267.493    93844723.507         689.722          46.500  
G14  24769548.261   130164862.297        2160.975          37.750  
G04  23905702.707   125625309.165       -2812.395          39.250  
C09  35925825.912   187075207.990         155.807          41.000    35925843.758   144658482.520         120.493          35.000  
C26  22166653.543   115427582.608        1398.402          45.500                                                                  
C44  22384395.216   116561420.915        1809.882          46.250                                                                  
R14  20141480.322   107365416.045         163.038          50.000  
C01                                                                  37376594.676   150500062.483          -0.230          33.500  
C35  21503284.515   111973245.179        -787.038          46.000                                                                  
C45  22883322.227   119159464.068       -1231.693          48.500                                                                  
C07  36365001.869   189362101.378        -315.007          40.750    36365016.378   146426849.767        -243.460          35.500  
J02  39524256.048   207701370.175         578.139          43.250  
R18  21227428.051   113313447.799        3601.684          50.750  
C10  37130267.259   193347043.278        -284.474          41.750    37130285.043                        -219.135          33.000  
J03  37456656.591   196836059.602        -579.287          43.500  
C12  24481441.656   127481289.123        2734.871          42.250    24481463.567    98576702.005        2114.986          35.500  
G07  20701025.304   108784621.216        1657.422          43.500  
G08  21313330.857   112002306.338       -2262.605          44.750  
C39  36155253.807   188269895.042        -819.535          44.000                                                                  
C29  25125109.445   130833038.265       -2955.272          44.500                                                                  
C40  36479195.580   189956741.974        -538.585          44.750                                                                  
G09  23262700.170   122246313.697       -2361.212          42.500  
E21  27921356.372   146727720.301        1405.660          39.500    27921392.665   109569542.281        1049.516          36.750  
G16  24644036.596   129505284.519       -1926.539          38.500  
G02  20500078.159   107728635.653        1262.583          45.250  
E07  26162520.689   137484973.431       -2309.294          43.000    26162549.578   102667462.137       -1724.464          37.000  
> 2025 01 06 07 59 33.0000000  0 44                     
G17  23959224.070   125906570.290        2302.812          37.000  
R13  23478546.863   125374138.835       -2436.723          36.500  
G21  20019535.593   105203370.683        -247.174          42.000  
J07  36423662.249   191407634.911         -12.638          38.500  
E27  24785495.113   130248659.862         798.346          45.500    24785521.021    97263708.280         596.165          43.000  
C06  35499530.123   184855367.865        -400.186          43.000    35499544.750   142941954.776        -309.560          35.250  
E29  26137036.557   137351049.257        -771.362          43.750    26137070.896   102567476.029        -575.958          42.500  
G27  23919782.005   125699303.801       -3094.471          40.500  
E34  26040979.147   136846270.713       -1607.847          44.750    26041008.734   102190511.068       -1200.661          45.250  
R15  21159432.257   113069589.503        2616.240          48.500  
G30  22977704.990   120748650.039        3041.434          42.750  
C16  35738353.034   186098985.466        -376.078          44.750    35738372.565   143903617.356        -290.861          34.750  
R24  21248296.622   113624183.743       -3412.392          49.750  
R17  19040184.315   101887876.445         349.281          48.500  
E13  25812178.198   135643916.243        2864.256          41.250    25812206.681   101292644.124        2138.899          43.250  
E30  25334579.314   133134109.205        -449.150          43.250    25334605.074    99418430.514        -335.319          41.250  
E15  23914065.894   125669264.662         922.964          43.750    23914091.671    93844033.572         689.291          46.500  
G14  24769137.218   130162700.685        2161.102          37.750  
G04  23906237.762   125628120.991       -2812.437          39.250  
C09  35925795.990   187075052.149         155.552          41.000    35925813.537   144658361.623         120.253          34.750  
C26  22166384.894   115426183.740        1398.073          45.250                                                                  
C44  22384047.472   116559610.621        1809.495          46.500                                                                  
R14  20141449.633   107365252.649         162.508          50.250  
C01  37376576.457   194629641.5591         -0.382          42.750    37376594.886   150500062.265          -0.061          34.000  
C35  21503435.621   111974032.321        -787.505          46.000                                                                  
C45  22883558.750   119160695.341       -1232.089          48.500                                                                  
C03  36125699.693   188115997.3381          3.203          43.250                                                                  
C07  36365062.264   189362416.405        -315.148          40.750    36365076.715   146427092.973        -243.542          36.000  
J02  39524146.000   207700791.375         578.226          43.250  
R18  21226753.260   113309845.778        3601.076          50.750  
C10  37130321.775   193347327.813        -284.600          42.000    37130340.040                        -219.643          33.000  
J03  37456766.561   196836638.411        -579.488          43.500  
C12  24480916.440   127478554.293        2734.634          42.000    24480937.957    98574586.894        2114.369          35.500  
G07  20700709.770   108782963.395        1656.937          43.250  
G08  21313761.255   112004568.426       -2262.816          44.750  
C24  25159056.310   131009808.2841       2689.479          41.000                                                                  
C39  36155411.171   188270714.497        -819.764          44.000                                                                  
C29  25125676.971   130835993.594       -2955.479          44.500                                                                  
C40  36479298.997   189957280.496        -538.561          44.500                                                                  
G09  23263149.390   122248674.285       -2361.200          42.250  
E21  27921088.769   146726314.098        1405.658          39.250    27921125.053   109568492.229        1049.464          36.500  
G16  24644403.161   129507210.645       -1926.790          39.000  
G02  20499837.806   107727372.772        1261.883          45.250  
E07  26162960.049   137487282.233       -2309.576          43.000    26162988.973   102669186.253       -1724.798          37.000  
> 2025 01 06 07 59 34.0000000  0 44                     
G17  23958785.489   125904266.594        2304.951          36.500  
R13  23479003.021   125376574.774       -2434.493          36.750  
G21  20019582.535   105203617.244        -245.509          42.000  
J07  36423664.503   191407646.733         -10.362          38.750  
E27  24785343.024   130247860.639         800.613          45.500    24785368.888    97263111.461         597.801          42.750  
C06  35499606.779   184855767.208        -398.013          43.000    35499621.397   142942263.560        -307.810          35.500  
E29  26137183.152   137351819.898        -769.534          43.500    26137217.573   102568051.501        -574.626          42.750  
G27  23920370.586   125702397.411       -3092.184          40.500  
E34  26041284.980   136847877.918       -1606.028          44.500    26041314.558   102191711.251       -1199.267          45.250  
R15  21158942.558   113066972.447        2618.434          48.500  
G30  22977126.100   120745607.792        3043.542          42.750  
C16  35738425.283   186099360.786        -374.081          44.750    35738444.634   143903907.570        -289.188          34.250  
R24  21248934.551   113627595.535       -3410.598          49.750  
R17  19040118.865   101887526.743         350.670          48.500  
E13  25811632.964   135641051.176        2866.398          41.250    25811661.440   101290504.625        2140.443          43.250  
E30  25334664.686   133134557.517        -446.949          43.250    25334690.303    99418765.291        -333.754          41.250  
E15  23913890.176   125668340.940         924.868          43.750    23913915.929    93843343.776         690.684          46.750  
G14  24768726.081   130160538.729        2163.441          37.000  
G04  23906772.746   125630932.441       -2810.048          39.000  
C09  35925765.961   187074895.729         157.629          41.250    35925783.586   144658240.684         122.070          34.750  
C26  22166116.332   115424784.888        1400.090          45.500                                                                  
C44  22383699.953   116557800.494        1811.379          46.250                                                                  
R14  20141419.095   107365089.434         164.454          50.250  
C01  37376576.363   194629641.043           1.909          42.500    37376595.284   150500061.383           1.198          33.250  
C35  21503586.727   111974819.178        -785.720          46.000                                                                  
C45  22883795.311   119161926.724       -1230.259          48.500                                                                  
C03  36125698.897   188115993.224           5.443          43.250                                                                  
C07  36365122.596   189362730.663        -312.806          41.000    36365136.597   146427335.987        -241.893          35.750  
J02  39524035.867   207700212.260         580.573          43.000  
R18  21226078.529   113306244.016        3602.945          50.750  
C10  37130376.160   193347611.598        -282.417          41.750    37130394.357                        -219.666          33.000  
J03  37456876.705   196837217.039        -577.231          43.250  
C12  24480391.189   127475819.006        2736.482          42.250    24480412.328    98572471.790        2116.134          35.250  
G07  20700394.301   108781305.841        1658.695          43.250  
G08  21314191.648   112006830.382       -2260.653          44.750  
C24  25158539.614   131007117.995        2691.584          41.500                                                                  
C39  36155568.495   188271533.387        -817.614          44.000                                                                  
C29  25126244.338   130838948.274       -2953.401          44.750                                                                  
C40  36479402.243   189957818.285        -536.414          44.500                                                                  
G09  23263598.450   122251034.707       -2358.950          42.500  
E21  27920821.200   146724907.587        1408.079          39.250    27920857.385   109567441.912        1051.200          36.750  
G16  24644769.772   129509136.577       -1924.611          39.000  
G02  20499597.518   107726110.285        1263.493          45.000  
E07  26163399.399   137489590.837       -2307.194          43.000    26163428.222   102670910.188       -1722.934          36.750  
> 2025 01 06 07 59 35.0000000  0 44                     
G17  23958347.137   125901963.076        2303.069          35.750  
R13  23479459.165   125379010.955       -2436.608          36.500  
G21  20019629.474   105203864.409        -247.903          42.000  
J07  36423666.592   191407658.387         -12.040          38.750  
E27  24785190.884   130247061.207         799.153          45.750    24785216.789    97262514.487         596.786          42.750  
C06  35499683.370   184856166.576        -399.806          43.000    35499698.160   142942572.352        -309.089          36.000  
E29  26137329.833   137352590.711        -771.337          43.750    26137364.326   102568627.104        -576.056          42.750  
G27  23920959.147   125705490.770       -3093.683          40.750  
E34  26041590.783   136849485.354       -1607.954          44.500    26041620.389   102192911.620       -1200.808          45.000  
R15  21158452.769   113064355.283        2616.800          48.250  
G30  22976547.175   120742565.647        3041.581          43.000  
C16  35738497.373   186099736.121        -375.747          45.000    35738516.164   143904197.795        -290.478          34.250  
R24  21249572.713   113631007.599       -3412.590          49.750  
R17  19040053.542   101887177.722         348.256          48.500  
E13  25811087.787   135638186.061        2864.712          41.500    25811116.179   101288365.109        2139.234          43.500  
E30  25334749.944   133135005.713        -448.639          43.500    25334775.611    99419099.966        -334.850          41.000  
E15  23913714.446   125667417.521         922.763          43.750    23913740.191    93842654.215         689.140          46.500  
G14  24768314.562   130158376.462        2162.181          37.250  
G04  23907307.660   125633743.602       -2811.429          39.250  
C09  35925735.973   187074739.336         156.020          41.250    35925753.792   144658119.759         120.789          34.500  
C26  22165847.701   115423386.136        1398.318          45.250                                                                  
C44  22383352.495   116555990.609        1809.362          46.250                                                                  
R14  20141388.543   107364926.508         162.375          50.500  
C01  37376576.135   194629640.366           0.286          42.750    37376594.788   150500060.845           0.107          33.500  
C35  21503737.926   111975606.314        -787.742          46.000                                                                  
C45  22884031.849   119163158.294       -1232.098          48.750                                                                  
C03  36125698.240   188115988.952           3.889          43.000                                                                  
C07  36365182.873   189363044.780        -314.426          40.750    36365197.103   146427578.877        -243.188          36.000  
J02  39523925.758   207699632.875         579.076          43.000  
R18  21225403.764   113302642.590        3600.824          50.750  
C10  37130430.679   193347895.220        -283.853          41.750    37130448.642                        -219.566          32.750  
J03  37456986.842   196837795.576        -578.883          43.250  
C12  24479865.923   127473083.835        2734.579          42.500    24479886.899    98570356.779        2114.686          35.750  
G07  20700078.970   108779648.655        1656.634          43.500  
G08  21314622.034   112009092.319       -2262.245          44.750  
C24  25158023.285   131004427.507        2690.323          41.750                                                                  
C39  36155725.874   188272352.285        -819.305          44.250                                                                  
C29  25126811.772   130841902.835       -2954.934          44.750                                                                  
C40  36479505.465   189958355.900        -537.975          44.500                                                                  
G09  23264047.583   122253395.057       -2360.858          42.750  
E21  27920553.540   146723500.828        1406.504          39.000    27920589.676   109566391.391        1050.321          37.000  
G16  24645136.239   129511062.417       -1926.219          38.750  
G02  20499357.260   107724848.256        1261.356          45.250  
E07  26163838.743   137491899.313       -2308.851          43.000    26163867.565   102672634.034       -1724.090          37.250  
> 2025 01 06 07 59 36.0000000  0 44                     
G17  23957909.071   125899660.091        2302.002          36.000  
R13  23479915.425   125381447.790       -2437.975          37.250  
G21  20019676.834   105204112.601        -249.295          42.000  
J07  36423668.836   191407670.329         -12.542          38.500  
E27  24785038.842   130246262.024         798.426          45.500    24785064.702    97261917.699         596.074          42.750  
C06  35499759.929   184856566.374        -400.767          43.000    35499774.770   142942881.506        -309.798          35.500  
E29  26137476.664   137353362.174        -772.514          43.750    26137511.179   102569203.193        -576.891          42.500  
G27  23921547.851   125708584.331       -3094.296          40.250  
E34  26041896.806   136851093.462       -1609.085          44.500    26041926.358   102194112.461       -1201.576          45.000  
R15  21157962.894   113061738.493        2615.890          48.250  
G30  22975968.359   120739524.038        3040.624          43.000  
C16  35738569.512   186100111.903        -376.698          45.000    35738588.186   143904488.385        -291.483          34.750  
R24  21250210.898   113634420.393       -3413.914          49.750  
R17  19039988.341   101886829.898         346.470          48.250  
E13  25810542.613   135635321.367        2863.776          41.500    25810570.998   101286225.878        2138.571          43.250  
E30  25334835.234   133135454.217        -449.472          43.250    25334860.984    99419434.887        -335.585          41.500  
E15  23913538.819   125666494.812         921.802          43.750    23913564.643    93841965.192         688.193          46.500  
G14  24767903.130   130156214.422        2160.983          37.500  
G04  23907842.533   125636554.925       -2811.884          39.500  
C09  35925706.071   187074583.375         154.937          41.250    35925723.538   144657999.162         119.925          35.250  
C26  22165579.232   115421987.911        1397.373          45.250                                                                  
C44  22383004.961   116554181.414        1808.161          46.250                                                                  
R14  20141358.155   107364764.301         161.103          50.500  
C01  37376575.965   194629639.960          -0.392          42.500    37376594.569   150500061.043          -0.271          33.750  
C35  21503889.092   111976394.167        -788.772          45.750                                                                  
C45  22884268.450   119164390.486       -1233.226          48.500                                                                  
C03  36125697.251   188115984.987           2.992          43.000                                                                  
C07  36365243.238   189363359.162        -315.138          40.750    36365257.344   146427821.966        -243.668          36.000  
J02  39523815.736   207699053.673         578.372          43.000  
R18  21224729.139   113299041.944        3599.617          50.750  
C10  37130485.046   193348179.119        -284.788          42.000    37130502.986                        -219.605          33.250  
J03  37457097.035   196838374.466        -579.834          43.000  
C12  24479340.734   127470349.191        2733.656          42.500    24479361.617    98568242.165        2114.033          35.250  
G07  20699763.800   108777992.264        1655.315          43.000  
G08  21315052.530   112011354.681       -2263.359          44.750  
C24  25157506.700   131001737.250        2689.480          41.750                                                                  
C39  36155883.247   188273171.624        -820.174          44.000                                                                  
C29  25127379.212   130844857.748       -2955.879          44.500                                                                  
C40  36479608.760   189958893.794        -538.687          44.500                                                                  
G09  23264497.071   122255755.720       -2361.562          42.500  
E21  27920286.005   146722094.249        1405.717          39.500    27920322.085   109565341.037        1049.816          36.250  
G16  24645502.924   129512988.631       -1927.130          39.250  
G02  20499117.229   107723587.135        1259.934          45.250  
E07  26164278.160   137494208.100       -2309.706          43.000    26164306.903   102674358.146       -1724.669          37.000  
> 2025 01 06 07 59 37.0000000  0 44                     
G17  23957470.269   125897357.072        2302.948          36.000  
R13  23480371.381   125383884.582       -2437.211          37.250  
G21  20019724.117   105204361.171        -249.082          42.000  
J07  36423671.042   191407681.922         -11.632          38.750  
E27  24784886.736   130245462.418         799.536          45.250    24784912.519    97261320.586         597.018          42.750  
C06  35499836.615   184856965.970        -399.845          42.750    35499851.319   142943190.505        -309.341          35.500  
E29  26137623.395   137354133.603        -771.808          44.000    26137658.009   102569779.253        -576.316          42.500  
G27  23922136.655   125711677.457       -3093.406          40.500  
E34  26042202.840   136852701.596       -1608.549          44.500    26042232.361   102195313.351       -1201.220          45.000  
R15  21157473.153   113059121.408        2616.955          48.500  
G30  22975389.724   120736482.308        3041.463          43.000  
C16  35738641.754   186100487.505        -375.816          44.750    35738659.942   143904778.833        -290.759          34.500  
R24  21250849.221   113637833.255       -3413.232          49.750  
R17  19039923.578   101886482.599         346.711          48.500  
E13  25809997.459   135632456.414        2864.633          41.250    25810025.733   101284086.476        2139.189          43.500  
E30  25334920.552   133135902.387        -448.470          43.500    25334946.290    99419769.567        -334.875          41.500  
E15  23913363.259   125665572.207         922.166          43.750    23913389.037    93841276.227         688.634          46.500  
G14  24767491.471   130154051.815        2162.654          36.500  
G04  23908377.453   125639365.752       -2810.841          39.500  
C09  35925676.013   187074427.199         155.941          41.000    35925693.367   144657878.401         120.397          35.000  
C26  22165310.634   115420589.590        1397.953          45.000                                                                  
C44  22382657.360   116552372.257        1808.665          46.250                                                                  
R14  20141327.708   107364602.179         161.667          50.500  
C01  37376575.648   194629639.207           0.456          42.500    37376594.734   150500060.446           0.348          33.750  
C35  21504040.466   111977182.110        -788.362          45.250                                                                  
C45  22884505.153   119165622.649       -1232.562          48.250                                                                  
C03  36125696.299   188115980.624           4.310          43.000                                                                  
C07  36365303.279   189363673.153        -314.057          40.750    36365317.961   146428064.785        -243.009          36.000  
J02  39523705.507   207698474.002         579.425          43.000  
R18  21224054.467   113295441.414        3600.088          50.750  
C10  37130539.340   193348462.617        -283.527          41.750    37130557.732                        -219.329          33.000  
J03  37457207.243   196838953.047        -578.857          43.000  
C12  24478815.662   127467614.475        2734.432          42.000    24478836.027    98566127.521        2114.589          35.250  
G07  20699448.556   108776336.014        1655.748          43.000  
G08  21315483.136   112013616.788       -2262.291          44.750  
C24  25156990.045   130999046.572        2690.456          41.500                                                                  
C39  36156040.779   188273990.768        -819.417          44.250                                                                  
C29  25127946.640   130847812.342       -2954.760          44.250                                                                  
C40  36479712.194   189959431.330        -537.761          44.500                                                                  
G09  23264946.352   122258116.095       -2360.524          42.000  
E21  27920018.370   146720687.202        1406.995          39.500    27920054.365   109564290.329        1050.696          36.750  
G16  24645869.200   129514914.528       -1926.315          39.250  
G02  20498877.257   107722326.263        1260.413          45.500  
E07  26164717.523   137496516.556       -2308.686          43.000    26164746.087   102676081.978       -1724.125          36.750  
> 2025 01 06 07 59 38.0000000  0 44                     
G17  23957032.082   125895054.515        2303.083          35.500  
R13  23480827.719   125386321.860       -2436.344          36.750  
G21  20019771.489   105204610.628        -248.754          41.750  
J07  36423673.391   191407693.631         -10.664          38.750  
E27  24784734.597   130244662.919         800.480          45.250    24784760.386    97260723.546         597.841          42.750  
C06  35499913.473   184857365.881        -399.033          43.000    35499927.955   142943499.750        -308.768          35.500  
E29  26137770.228   137354905.504        -771.043          43.750    26137804.861   102570355.656        -575.747          42.500  
G27  23922725.348   125714770.613       -3092.099          40.500  
E34  26042508.923   136854310.248       -1607.859          44.500    26042538.500   102196514.619       -1200.669          45.000  
R15  21156983.535   113056504.526        2617.818          48.250  
G30  22974810.927   120733440.987        3042.211          43.000  
C16  35738713.933   186100863.401        -374.903          44.750    35738732.598   143905069.505        -290.209          34.750  
R24  21251487.476   113641246.699       -3412.650          49.500  
R17  19039858.911   101886136.286         346.889          48.250  
E13  25809452.261   135629591.694        2865.705          41.250    25809480.543   101281947.239        2139.961          43.250  
E30  25335005.840   133136350.723        -447.358          43.500    25335031.687    99420104.358        -333.994          41.000  
E15  23913187.882   125664650.168         922.825          43.250    23913213.601    93840587.691         689.080          46.500  
G14  24767080.044   130151889.301        2163.681          37.250  
G04  23908912.320   125642176.587       -2809.641          39.250  
C09  35925645.978   187074271.336         156.747          41.000    35925663.284   144657757.853         121.322          34.750  
C26  22165042.062   115419191.626        1398.883          45.000                                                                  
C44  22382310.076   116550563.621        1809.365          46.250                                                                  
R14  20141297.523   107364440.643         162.359          50.500  
C01  37376575.451   194629638.557           1.615          42.500    37376594.895   150500059.968           1.175          33.750  
C35  21504191.904   111977970.610        -787.751          45.500                                                                  
C45  22884741.835   119166855.300       -1231.874          48.250                                                                  
C03  36125695.239   188115976.394           5.149          43.000                                                                  
C07  36365363.486   189363987.272        -313.214          40.750    36365378.051   146428307.662        -242.091          36.000  
J02  39523595.015   207697894.359         580.746          42.750  
R18  21223380.058   113291841.498        3600.708          50.500  
C10  37130594.048   193348746.273        -282.578          41.750    37130611.888                        -219.445          33.000  
J03  37457317.260   196839531.805        -577.795          43.250  
C12  24478290.562   127464880.137        2735.182          42.000    24478310.439    98564013.169        2114.929          35.000  
G07  20699133.609   108774680.422        1656.365          43.250  
G08  21315913.695   112015879.174       -2261.457          44.750  
C24  25156473.441   130996355.981        2691.609          41.500                                                                  
C39  36156198.306   188274810.204        -818.445          44.000                                                                  
C29  25128514.165   130850767.151       -2953.924          44.000                                                                  
C40  36479815.498   189959968.948        -536.500          44.250                                                                  
G09  23265395.508   122260476.666       -2359.640          41.500  
E21  27919750.476   146719280.200        1408.116          39.250    27919786.672   109563239.656        1051.163          36.750  
G16  24646235.544   129516840.612       -1925.077          40.000  
G02  20498637.508   107721066.154        1260.834          45.500  
E07  26165156.779   137498825.157       -2307.567          43.000    26165185.339   102677805.917       -1723.067          37.000  
> 2025 01 06 07 59 39.0000000  0 44                     
G17  23956593.908   125892752.011        2301.964          36.750  
R13  23481284.379   125388759.335       -2438.109          37.000  
G21  20019819.089   105204860.651        -250.911          41.500  
J07  36423675.664   191407705.167         -12.173          38.500  
E27  24784582.408   130243863.170         799.224          45.250    24784608.193    97260126.344         596.788          43.250  
C06  35499990.307   184857765.776        -400.526          42.750    35500004.946   142943808.970        -309.650          35.500  
E29  26137917.187   137355677.567        -772.856          44.000    26137951.757   102570932.205        -577.127          42.500  
G27  23923313.956   125717863.515       -3093.422          40.250  
E34  26042815.098   136855919.101       -1609.591          44.750    26042844.687   102197716.038       -1202.014          45.000  
R15  21156493.766   113053887.486        2616.403          48.500  
G30  22974232.163   120730399.722        3040.530          43.000  
C16  35738786.104   186101239.298        -376.601          44.500    35738804.375   143905360.161        -291.398          34.750  
R24  21252125.814   113644660.368       -3414.392          49.500  
R17  19039794.267   101885790.649         344.588          48.500  
E13  25808907.265   135626726.926        2864.120          41.500    25808935.364   101279807.972        2138.728          43.000  
E30  25335091.169   133136798.908        -448.716          43.250    25335117.028    99420439.039        -335.129          41.250  
E15  23913012.427   125663728.400         921.028          43.500    23913038.187    93839899.364         687.708          46.500  
G14  24766668.475   130149726.460        2162.354          35.750  
G04  23909447.135   125644987.091       -2810.986          39.750  
C09  35925616.013   187074115.415         155.334          41.000    35925633.138   144657637.282         120.303          35.000  
C26  22164773.474   115417793.747        1397.243          45.000                                                                  
C44  22381962.950   116548755.195        1807.746          46.000                                                                  
R14  20141267.267   107364279.357         160.467          50.500  
C01  37376575.491   194629637.733           0.277          42.500    37376595.096   150500059.322          -0.091          33.750  
C35  21504343.376   111978759.368        -789.593          45.500                                                                  
C45  22884978.489   119168088.093       -1233.518          48.000                                                                  
C03  36125694.331   188115971.987           3.895          42.750                                                                  
C07  36365423.793   189364301.183        -314.428          40.750    36365438.503   146428550.394        -243.153          36.000  
J02  39523484.636   207697314.428         579.438          43.250  
R18  21222705.757   113288241.897        3598.812          50.500  
C10  37130648.685   193349029.723        -284.014          42.000    37130666.455                        -219.293          33.250  
J03  37457427.475   196840110.454        -579.254          43.250  
C12  24477765.469   127462145.912        2733.610          42.000    24477785.776    98561898.899        2113.540          35.250  
G07  20698818.787   108773025.149        1654.509          43.000  
G08  21316344.338   112018141.490       -2262.978          45.000  
C24  25155956.903   130993665.154        2690.286          41.750                                                                  
C39  36156355.735   188275629.613        -820.061          44.000                                                                  
C29  25129081.581   130853721.817       -2955.314          44.000                                                                  
C40  36479918.743   189960506.401        -537.988          44.250                                                                  
G09  23265844.847   122262837.107       -2361.080          42.000  
E21  27919482.641   146717872.895        1406.835          39.000    27919518.842   109562188.747        1050.644          37.000  
G16  24646602.231   129518766.584       -1926.614          40.250  
G02  20498397.748   107719806.479        1258.807          45.250  
E07  26165596.057   137501133.633       -2308.987          43.250    26165624.585   102679529.783       -1724.310          37.000  
> 2025 01 06 07 59 40.0000000  0 43                     
G17  23956156.224   125890449.802        2300.999          36.250  
R13  23481740.841   125391197.070       -2439.179          37.000  
G21  20019866.826   105205111.387        -252.328          42.000  
J07  36423677.622   191407716.601         -12.516          38.750  
E27  24784430.183   130243063.307         798.797          45.250    24784455.984    97259529.060         596.332          43.250  
C06  35500067.087   184858165.778        -401.337          42.750    35500081.298   142944118.278        -310.155          35.750  
E29  26138064.156   137356449.934        -773.846          44.000    26138098.762   102571508.958        -577.766          42.750  
G27  23923902.421   125720956.301       -3094.033          40.250  
E34  26043121.339   136857528.267       -1610.393          44.500    26043150.939   102198917.711       -1202.718          45.250  
R15  21156004.040   113051270.413        2615.980          48.250  
G30  22973653.516   120727358.671        3039.658          42.750  
C16  35738858.359   186101615.285        -377.202          44.500    35738876.538   143905650.885        -291.504          34.750  
R24  21252764.104   113648074.369       -3415.228          49.750  
R17  19039730.004   101885445.870         343.032          48.500  
E13  25808362.172   135623862.179        2863.747          41.500    25808390.301   101277668.735        2138.239          43.000  
E30  25335176.411   133137247.065        -449.276          43.000    25335202.298    99420773.698        -335.621          41.250  
E15  23912836.972   125662807.016         919.838          43.500    23912862.857    93839211.316         686.982          46.500  
G14  24766256.495   130147563.393        2162.130          36.500  
G04  23909981.762   125647797.418       -2811.393          39.500  
C09  35925586.048   187073959.606         154.709          41.000    35925603.473   144657516.821         119.529          35.000  
C26  22164505.216   115416396.042        1396.405          45.000                                                                  
C44  22381615.552   116546947.132        1806.664          46.000                                                                  
R14  20141237.024   107364118.398         159.807          50.500  
C01  37376575.420   194629636.809          -0.069          42.750    37376594.976   150500058.627          -0.125          34.000  
C35  21504494.893   111979548.535        -790.799          45.500                                                                  
C45  22885215.311   119169321.193       -1234.428          48.000                                                                  
C07  36365483.844   189364615.001        -314.790          40.750    36365498.879   146428793.067        -243.536          36.250  
J02  39523374.113   207696734.312         579.218          43.250  
R18  21222031.500   113284642.689        3597.918          50.500  
C10  37130703.191   193349313.119        -284.543          41.750    37130721.518                        -218.765          33.750  
J03  37457537.609   196840689.103        -579.758          43.500  
C12  24477240.236   127459411.884        2732.770          42.000    24477261.309    98559784.776        2113.232          35.500  
G07  20698503.908   108771370.334        1653.419          43.250  
G08  21316774.922   112020403.874       -2263.570          44.750  
C24  25155440.005   130990974.234        2689.748          41.000                                                                  
C39  36156513.049   188276449.161        -820.844          43.750                                                                  
C29  25129648.862   130856676.505       -2955.922          43.750                                                                  
C40  36480021.813   189961043.796        -538.711          44.250                                                                  
G09  23266294.031   122265197.577       -2361.707          42.000  
E21  27919214.891   146716465.413        1406.691          39.000    27919251.027   109561137.769        1050.008          36.750  
G16  24646968.696   129520692.564       -1927.195          40.250  
G02  20498158.144   107718547.344        1257.786          45.250  
E07  26166035.279   137503442.051       -2309.606          43.250    26166064.043   102681253.631       -1725.005          37.250  
> 2025 01 06 07 59 41.0000000  0 43                     
G17  23955718.551   125888149.083        2301.410          35.250  
R13  23482197.332   125393636.390       -2438.947          37.500  
G21  20019915.018   105205364.026        -252.465          41.750  
J07  36423680.140   191407729.279         -12.137          39.000  
E27  24784278.153   130242264.623         799.424          45.250    24784304.000    97258932.631         596.808          42.750  
C06  35500144.220   184858567.105        -400.895          42.750    35500158.537   142944428.604        -310.046          36.000  
E29  26138211.441   137357223.799        -773.418          44.000    26138245.914   102572086.842        -577.628          42.500  
G27  23924490.990   125724050.140       -3093.245          40.500  
E34  26043427.861   136859139.058       -1610.330          44.500    26043457.440   102200120.552       -1202.566          45.250  
R15  21155514.535   113048654.679        2616.282          48.750  
G30  22973074.931   120724319.040        3039.970          43.000  
C16  35738930.847   186101992.637        -376.836          44.750    35738948.783   143905942.697        -291.454          35.000  
R24  21253402.921   113651490.087       -3415.308          49.750  
R17  19039666.033   101885103.150         342.891          48.500  
E13  25807817.361   135620998.787        2863.956          41.500    25807845.418   101275530.469        2138.625          43.000  
E30  25335261.870   133137696.457        -448.922          43.000    25335287.701    99421109.278        -335.168          40.500  
E15  23912661.877   125661887.253         920.206          43.500    23912687.790    93838524.487         687.119          46.250  
G14  24765845.024   130145401.496        2162.509          36.750  
G04  23910516.530   125650608.810       -2810.729          39.750  
C09  35925556.518   187073805.140         155.052          41.000    35925574.229   144657397.388         119.578          35.250  
C26  22164237.161   115414999.781        1396.778          45.000                                                                  
C44  22381268.617   116545140.628        1806.839          45.750                                                                  
R14  20141207.207   107363959.114         159.794          50.500  
C01                                                                  37376594.555   150500058.861           0.232          33.750  
C35  21504646.705   111980339.269        -790.352          45.750                                                                  
C45  22885452.458   119170555.785       -1234.079          48.000                                                                  
C07  36365544.401   189364930.017        -314.341          40.500    36365559.376   146429036.646        -243.212          36.250  
J02  39523263.768   207696155.333         579.671          43.000  
R18  21221357.570   113281045.235        3597.935          50.500  
C10  37130757.886   193349597.684        -284.058          41.500    37130775.987                        -219.864          33.500  
J03  37457647.837   196841269.019        -579.319          43.250  
C12  24476715.501   127456679.298        2733.181          42.000    24476736.718    98557671.772        2113.356          35.750  
G07  20698189.479   108769717.220        1653.547          43.000  
G08  21317205.812   112022667.587       -2263.165          44.750  
C24  25154923.225   130988284.415        2690.412          41.000                                                                  
C39  36156670.493   188277270.000        -820.233          43.750                                                                  
C29  25130216.577   130859632.398       -2955.248          43.500                                                                  
C40  36480125.049   189961582.312        -537.912          44.250                                                                  
G09  23266743.344   122267559.258       -2360.916          42.250  
E21  27918947.297   146715059.076        1407.103          39.000    27918983.363   109560087.540        1050.547          36.750  
G16  24647335.480   129522619.781       -1926.718          40.250  
G02  20497918.985   107717290.074        1257.646          45.000  
E07  26166474.705   137505751.713       -2309.016          43.250    26166503.518   102682978.359       -1724.584          36.750  
> 2025 01 06 07 59 42.0000000  0 43                     
G17  23955280.667   125885847.632        2299.297          35.250  
R13  23482654.351   125396074.965       -2440.880          38.000  
G21  20019963.022   105205616.353        -254.875          41.750  
J07  36423682.571   191407740.871         -13.624          38.750  
E27  24784125.919   130241464.823         797.704          45.250    24784151.728    97258335.368         595.652          42.750  
C06  35500221.304   184858967.561        -402.794          42.500    35500235.594   142944738.281        -311.644          36.000  
E29  26138358.495   137357996.973        -775.521          44.000    26138393.052   102572664.217        -579.267          42.500  
G27  23925079.713   125727142.872       -3095.016          40.250  
E34  26043734.301   136860749.159       -1612.529          44.750    26043763.887   102201322.897       -1204.261          45.000  
R15  21155024.743   113046037.915        2614.509          48.750  
G30  22972496.286   120721278.622        3038.090          43.500  
C16  35739003.069   186102369.116        -378.738          44.750    35739021.428   143906233.812        -293.224          34.750  
R24  21254041.599   113654905.104       -3417.517          49.500  
R17  19039601.878   101884760.228         340.343          48.250  
E13  25807272.307   135618134.422        2862.089          41.750    25807300.349   101273391.495        2137.269          43.000  
E30  25335347.150   133138144.808        -450.604          42.500    25335372.870    99421444.083        -336.419          41.000  
E15  23912486.712   125660966.894         917.988          43.500    23912512.660    93837837.203         685.517          46.500  
G14  24765433.540   130143238.339        2160.987          36.000  
G04  23911051.389   125653418.992       -2812.062          39.750  
C09  35925526.780   187073649.787         153.104          41.000    35925544.148   144657277.254         118.209          35.250  
C26  22163968.920   115413602.724        1394.634          44.750                                                                  
C44  22380921.638   116543333.478        1804.812          45.750                                                                  
R14  20141177.186   107363799.159         157.499          50.750  
C01  37376574.561   194629630.3791         -0.224          42.500    37376594.207   150500058.252          -1.075          34.250  
C35  21504798.597   111981129.417        -792.411          45.500                                                                  
C45  22885689.295   119171789.682       -1236.297          47.750                                                                  
C07  36365604.803   189365243.948        -316.065          40.250    36365619.740   146429279.393        -244.660          36.000  
J02  39523153.225   207695575.165         577.917          43.250  
R18  21220683.507   113277447.178        3595.525          50.500  
C10  37130812.309   193349881.184        -285.771          41.500    37130830.161                        -219.329          33.250  
J03  37457758.093   196841847.913        -581.183          43.250  
C12  24476190.709   127453945.962        2731.015          42.000    24476211.765    98555558.176        2111.824          36.000  
G07  20697874.699   108768063.572        1651.214          43.000  
G08  21317636.453   112024930.366       -2265.014          44.750  
C24  25154406.277   130985593.507        2688.857          41.750                                                                  
C39  36156827.938   188278089.985        -822.212          43.750                                                                  
C29  25130784.191   130862587.321       -2957.046          43.500                                                                  
C40  36480228.133   189962119.804        -539.494          44.000                                                                  
G09  23267192.594   122269919.966       -2362.760          42.000  
E21  27918679.460   146713651.567        1405.614          39.000    27918715.598   109559036.503        1049.296          37.000  
G16  24647702.193   129524546.028       -1928.376          40.250  
G02  20497679.629   107716032.326        1255.351          45.250  
E07  26166914.029   137508060.338       -2310.823          43.000    26166942.979   102684702.334       -1725.788          37.000  
> 2025 01 06 07 59 43.0000000  0 42                     
G17  23954842.412   125883546.812        2299.104          35.250  
R13  23483110.876   125398514.324       -2441.139          37.750  
G21  20020011.394   105205869.822        -255.243          42.000  
J07  36423684.720   191407752.838         -13.356          38.750  
E27  24783973.737   130240665.353         798.042          45.500    24783999.614    97257738.373         595.980          42.750  
C06  35500298.341   184859368.560        -402.525          42.750    35500312.862   142945048.342        -311.235          36.250  
E29  26138505.869   137358770.852        -775.304          44.250    26138540.323   102573242.109        -579.088          42.250  
G27  23925668.301   125730235.893       -3094.385          40.250  
E34  26044040.852   136862360.019       -1612.427          44.750    26044070.473   102202525.820       -1204.199          45.000  
R15  21154534.987   113043421.601        2614.893          48.500  
G30  22971917.834   120718238.843        3038.152          43.750  
C16  35739075.409   186102746.145        -378.523          44.750    35739094.105   143906525.337        -292.572          34.750  
R24  21254680.338   113658320.939       -3417.487          49.250  
R17  19039537.980   101884418.564         339.780          48.500  
E13  25806727.453   135615270.564        2862.262          41.750    25806755.369   101271252.912        2137.493          43.000  
E30  25335432.471   133138593.592        -450.188          43.000    25335458.266    99421779.202        -336.237          41.250  
E15  23912311.640   125660047.365         917.781          43.500    23912337.689    93837150.552         685.441          46.500  
G14  24765021.618   130141075.446        2161.544          35.250  
G04  23911586.306   125656229.443       -2811.909          39.500  
C09  35925497.080   187073494.946         153.449          41.250    35925514.137   144657157.540         118.571          35.250  
C26  22163700.708   115412206.287        1394.934          44.750                                                                  
C44  22380574.653   116541527.100        1804.773          45.750                                                                  
R14  20141147.244   107363639.990         157.539          50.250  
C35  21504950.493   111981920.381        -792.612          45.250                                                                  
C45  22885926.311   119173024.297       -1236.154          48.000                                                                  
C07  36365665.133   189365558.234        -315.722          40.750    36365680.300   146429522.420        -244.111          36.250  
J02  39523042.821   207694995.275         578.527          43.000  
R18  21220009.598   113273850.002        3595.468          50.750  
C10  37130866.733   193350165.050        -285.204          41.500    37130884.527                        -219.732          33.500  
J03  37457868.499   196842427.261        -580.808          43.000  
C12  24475665.831   127451213.249        2731.131          42.000    24475687.146    98553445.090        2111.562          35.500  
G07  20697560.146   108766410.817        1651.089          43.000  
G08  21318066.958   112027193.657       -2264.776          44.750  
C24  25153889.404   130982902.943        2689.141          41.750                                                                  
C39  36156985.369   188278910.490        -821.922          43.750                                                                  
C29  25131351.626   130865542.692       -2956.881          43.250                                                                  
C40  36480331.264   189962657.644        -539.179          44.000                                                                  
G09  23267642.030   122272281.116       -2362.598          41.750  
E21  27918411.616   146712244.337        1405.933          39.000    27918447.924   109557985.639        1049.867          36.750  
G16  24648068.986   129526472.714       -1928.180          40.250  
G02  20497440.374   107714775.599        1255.000          45.000  
E07  26167353.401   137510369.363       -2310.345          43.500    26167382.423   102686426.607       -1725.397          37.000  
> 2025 01 06 07 59 44.0000000  0 43                     
G17  23954404.519   125881245.211        2301.876          35.750  
R13  23483567.594   125400952.932       -2438.236          38.250  
G21  20020059.616   105206122.965        -253.140          42.000  
J07  36423686.684   191407763.739         -10.428          38.750  
E27  24783821.389   130239864.755         801.039          45.500    24783847.185    97257140.525         598.262          43.000  
C06  35500375.199   184859768.663        -399.694          43.000    35500389.725   142945357.723        -309.056          36.000  
E29  26138652.950   137359544.012        -772.790          44.250    26138687.467   102573819.456        -577.006          42.250  
G27  23926256.593   125733327.759       -3091.445          40.250  
E34  26044347.211   136863970.179       -1609.823          45.000    26044376.892   102203728.216       -1202.074          45.250  
R15  21154044.962   113040804.265        2617.813          48.500  
G30  22971339.290   120715198.221        3041.064          43.500  
C16  35739147.600   186103122.265        -375.720          45.000    35739166.316   143906816.170        -290.439          34.750  
R24  21255318.919   113661736.124       -3414.950          49.500  
R17  19039474.167   101884076.646         341.944          48.250  
E13  25806182.268   135612405.739        2865.186          42.000    25806210.195   101269113.589        2139.735          43.000  
E30  25335517.736   133139041.326        -447.251          43.000    25335543.541    99422113.559        -334.060          40.750  
E15  23912136.527   125659127.200         920.385          43.250    23912162.546    93836463.399         687.513          46.500  
G14  24764610.249   130138911.399        2164.399          35.250  
G04  23912120.904   125659038.668       -2808.697          40.000  
C09  35925467.293   187073339.210         156.115          41.750    35925484.027   144657037.095         120.751          35.500  
C26  22163432.386   115410809.032        1397.564          45.000                                                                  
C44  22380227.611   116539720.045        1807.414          46.000                                                                  
R14  20141117.188   107363480.185         160.043          50.500  
C35  21505102.303   111982710.716        -790.000          45.750                                                                  
C45  22886163.339   119174258.179       -1233.533          48.000                                                                  
C03  36125690.803   188115951.8221          5.529          42.750                                                                  
C07  36365725.137   189365871.437        -312.693          41.000    36365740.454   146429764.625        -241.820          36.000  
J02  39522932.264   207694414.196         581.668          43.250  
R18  21219335.615   113270252.213        3598.037          50.750  
C10  37130921.125   193350447.858        -282.163          41.750    37130938.857                        -218.730          33.250  
J03  37457978.503   196843005.594        -577.918          43.000  
C12  24475140.786   127448479.736        2733.822          42.000    24475162.240    98551331.331        2114.178          35.500  
G07  20697245.573   108764757.488        1653.561          42.750  
G08  21318497.266   112029455.980       -2261.906          44.750  
C24  25153372.482   130980211.250        2692.128          41.750                                                                  
C39  36157142.773   188279730.091        -819.239          44.000                                                                  
C29  25131918.908   130868497.034       -2953.938          43.500                                                                  
C40  36480434.273   189963194.424        -536.307          44.000                                                                  
G09  23268091.078   122274641.231       -2359.688          41.750  
E21  27918143.562   146710835.903        1408.960          39.250    27918179.823   109556933.916        1051.936          37.000  
G16  24648435.251   129528398.392       -1925.215          40.500  
G02  20497201.140   107713518.408        1257.355          45.250  
E07  26167792.682   137512677.348       -2307.434          43.500    26167821.601   102688150.083       -1722.815          37.250  
> 2025 01 06 07 59 45.0000000  0 44                     
G17  23953966.815   125878944.622        2300.649          35.250  
R13  23484024.553   125403392.597       -2439.667          38.000  
G21  20020108.018   105206377.533        -255.061          42.000  
J07  36423688.967   191407775.341         -11.807          38.750  
E27  24783669.226   130239064.837         800.010          45.250    24783694.980    97256543.178         597.348          43.000  
C06  35500452.340   184860169.643        -400.881          42.750    35500466.351   142945667.799        -310.243          36.250  
E29  26138800.321   137360318.222        -774.532          44.000    26138834.785   102574397.592        -578.148          42.500  
G27  23926845.024   125736420.255       -3092.669          39.750  
E34  26044653.839   136865581.469       -1611.358          44.750    26044683.516   102204931.447       -1203.381          45.000  
R15  21153555.169   113038187.687        2616.437          48.750  
G30  22970760.802   120712158.582        3039.567          43.500  
C16  35739220.049   186103499.270        -377.181          45.000    35739238.499   143907107.687        -291.635          35.000  
R24  21255957.756   113665152.455       -3416.439          49.750  
R17  19039410.447   101883736.330         340.112          48.250  
E13  25805637.193   135609541.748        2863.864          41.750    25805665.150   101266974.894        2138.638          43.000  
E30  25335603.056   133139489.806        -448.615          42.750    25335628.830    99422448.429        -334.917          41.000  
E15  23911961.636   125658208.182         918.899          43.500    23911987.611    93835777.135         686.074          46.250  
G14  24764198.967   130136747.890        2163.212          35.000  
G04  23912655.506   125661848.476       -2809.606          39.750  
C09  35925437.622   187073184.318         154.789          41.750    35925454.157   144656917.325         119.797          35.500  
C26  22163164.357   115409412.726        1396.368          45.250                                                                  
C44  22379881.020   116537914.116        1805.950          46.000                                                                  
R14  20141087.325   107363321.568         158.601          50.250  
C01  37376575.017   194629632.752           0.586          42.750                                                                  
C35  21505254.391   111983502.192        -791.772          45.750                                                                  
C45  22886400.507   119175493.109       -1235.016          48.000                                                                  
C03  36125689.878   188115947.477           4.348          43.000                                                                  
C07  36365785.499   189366185.363        -313.673          40.750    36365800.521   146430007.337        -242.418          36.000  
J02  39522821.794   207693833.731         580.592          43.000  
R18  21218661.740   113266655.636        3596.354          50.500  
C10  37130975.606   193350731.361        -283.547          41.750    37130993.424                        -219.182          33.000  
J03  37458088.602   196843584.692        -579.211          43.000  
C12  24474616.111   127445747.218        2732.309          42.000    24474637.554    98549218.382        2112.902          35.750  
G07  20696931.161   108763105.398        1651.628          42.750  
G08  21318927.968   112031719.177       -2263.385          44.750  
C24  25152855.747   130977520.221        2691.151          41.500                                                                  
C39  36157300.483   188280550.567        -820.586          43.750                                                                  
C29  25132486.521   130871452.137       -2955.115          44.000                                                                  
C40  36480537.532   189963731.891        -537.320          44.250                                                                  
G09  23268540.221   122277002.115       -2360.820          42.000  
E21  27917875.722   146709428.117        1407.933          38.750    27917911.882   109555882.654        1051.294          37.000  
G16  24648801.641   129530324.833       -1926.307          41.000  
G02  20496962.108   107712262.548        1255.553          45.000  
E07  26168232.052   137514986.080       -2308.889          43.250    26168260.789   102689874.139       -1723.902          36.750  
> 2025 01 06 07 59 46.0000000  0 44                     
G17  23953528.897   125876644.222        2299.791          35.500  
R13  23484481.366   125405832.518       -2440.401          38.250  
G21  20020156.678   105206632.719        -256.008          42.250  
J07  36423691.147   191407786.789         -11.868          38.750  
E27  24783516.991   130238264.728         799.604          45.500    24783542.695    97255945.693         597.218          43.250  
C06  35500529.396   184860570.645        -401.597          42.750    35500543.600   142945977.876        -310.363          36.000  
E29  26138947.704   137361092.629        -774.964          44.000    26138982.227   102574975.879        -578.656          42.500  
G27  23927433.252   125739512.507       -3092.672          40.000  
E34  26044960.485   136867192.986       -1612.234          45.000    26044990.143   102206134.858       -1203.839          45.000  
R15  21153065.571   113035571.009        2616.192          48.500  
G30  22970182.481   120709119.061        3038.882          43.750  
C16  35739292.486   186103876.299        -377.555          45.000    35739310.933   143907399.265        -292.135          35.000  
R24  21256596.739   113668569.090       -3417.395          49.500  
R17  19039347.086   101883396.739         338.665          48.250  
E13  25805092.073   135606677.721        2863.543          41.750    25805120.133   101264836.179        2138.529          43.000  
E30  25335688.408   133139938.174        -448.771          42.750    25335714.164    99422783.257        -335.170          41.000  
E15  23911786.873   125657289.487         917.917          43.750    23911812.757    93835091.088         685.582          46.500  
G14  24763787.777   130134584.162        2163.319          34.500  
G04  23913190.214   125664658.008       -2809.857          39.750  
C09  35925407.951   187073029.474         154.237          41.750    35925423.977   144656797.577         119.173          35.000  
C26  22162896.223   115408016.535        1395.579          45.000                                                                  
C44  22379534.318   116536108.431        1805.108          46.000                                                                  
R14  20141057.560   107363163.246         157.621          50.250  
C01  37376574.816   194629631.828           0.475          42.500                                                                  
C35  21505406.553   111984293.973        -792.440          46.000                                                                  
C45  22886637.691   119176728.245       -1235.798          48.000                                                                  
C03  36125688.988   188115942.986           4.089          42.750                                                                  
C07  36365845.958   189366499.116        -314.148          40.750    36365860.363   146430249.963        -242.949          36.250  
J02  39522711.381   207693253.027         580.330          43.250  
R18  21217988.121   113263059.410        3595.487          50.500  
C10  37131030.023   193351014.703        -283.723          41.750    37131047.817                        -218.970          33.500  
J03  37458198.716   196844163.722        -579.576          43.000  
C12  24474091.296   127443014.799        2731.728          42.250    24474113.100    98547105.512        2112.437          35.500  
G07  20696616.873   108761453.677        1650.961          42.750  
G08  21319358.494   112033982.329       -2263.695          45.000  
C24  25152338.914   130974828.995        2690.833          41.500                                                                  
C39  36157458.004   188281371.078        -821.078          44.000                                                                  
C29  25133053.915   130874407.173       -2955.494          44.250                                                                  
C40  36480640.754   189964269.204        -537.766          44.250                                                                  
G09  23268989.465   122279362.939       -2361.303          42.000  
E21  27917607.777   146708020.089        1407.404          39.000    27917643.889   109554831.184        1051.215          37.000  
G16  24649168.250   129532251.223       -1926.856          41.500  
G02  20496723.280   107711007.173        1254.680          45.000  
E07  26168671.369   137517294.695       -2309.118          43.500    26168700.084   102691598.094       -1724.236          36.750  
> 2025 01 06 07 59 47.0000000  0 44                     
G17  23953091.032   125874344.404        2298.402          34.500  
R13  23484939.071   125408273.077       -2442.198          38.500  
G21  20020205.496   105206888.963        -257.979          42.000  
J07  36423693.390   191407798.571         -13.301          38.750  
E27  24783364.796   130237464.873         798.518          45.250    24783390.573    97255348.417         596.186          43.250  
C06  35500606.519   184860972.131        -403.022          42.750    35500621.023   142946288.321        -311.644          36.250  
E29  26139095.181   137361867.697        -776.686          44.250    26139129.816   102575554.666        -580.068          42.750  
G27  23928021.989   125742604.999       -3093.870          39.750  
E34  26045267.214   136868805.206       -1613.866          44.750    26045296.922   102207338.785       -1205.215          45.250  
R15  21152575.888   113032954.708        2614.969          48.500  
G30  22969604.266   120706080.099        3037.450          43.750  
C16  35739365.068   186104253.822        -378.977          45.000    35739383.482   143907691.162        -293.082          35.000  
R24  21257235.860   113671986.444       -3418.942          49.500  
R17  19039283.683   101883058.352         336.468          48.500  
E13  25804547.050   135603814.137        2861.874          42.000    25804575.214   101262697.797        2137.347          42.750  
E30  25335773.866   133140386.888        -450.237          42.750    25335799.563    99423118.322        -336.092          40.750  
E15  23911612.203   125656371.538         916.260          43.500    23911638.114    93834405.620         684.209          46.750  
G14  24763376.503   130132420.603        2162.297          34.250  
G04  23913724.808   125667467.725       -2811.080          39.750  
C09  35925378.433   187072875.067         152.913          41.750    35925394.188   144656678.217         117.898          35.250  
C26  22162628.250   115406620.904        1394.082          45.000                                                                  
C44  22379187.739   116534303.463        1803.338          46.000                                                                  
R14  20141027.888   107363005.657         155.989          50.000  
C01  37376574.494   194629631.235          -0.850          42.500                                                                  
C35  21505558.693   111985086.489        -794.080          45.750                                                                  
C45  22886874.979   119177964.032       -1237.386          48.000                                                                  
C03  36125688.143   188115938.793           2.908          43.000                                                                  
C07  36365906.315   189366813.158        -315.494          40.750    36365921.218   146430492.783        -243.598          36.000  
J02  39522601.019   207692672.518         579.215          43.000  
R18  21217314.535   113259464.007        3593.739          50.500  
C10  37131084.396   193351298.360        -285.099          41.500    37131102.125                        -219.052          33.250  
J03  37458309.063   196844743.114        -580.886          42.750  
C12  24473566.732   127440282.973        2730.207          42.000    24473588.503    98544993.078        2111.316          35.750  
G07  20696302.798   108759802.775        1649.300          43.000  
G08  21319789.290   112036245.928       -2265.082          45.000  
C24  25151822.161   130972138.036        2689.510          41.750                                                                  
C39  36157615.496   188282192.033        -822.357          43.750                                                                  
C29  25133621.418   130877362.583       -2956.869          44.000                                                                  
C40  36480744.129   189964806.820        -539.106          44.250                                                                  
G09  23269438.960   122281724.133       -2362.692          42.000  
E21  27917339.895   146706612.254        1406.464          39.250    27917375.937   109553779.899        1050.260          37.000  
G16  24649534.825   129534177.983       -1928.334          41.000  
G02  20496484.617   107709752.734        1252.728          45.000  
E07  26169110.854   137519603.643       -2310.299          43.250    26169139.424   102693322.312       -1725.190          36.750  
> 2025 01 06 07 59 48.0000000  0 42                     
G17  23952654.070   125872045.446        2298.433          34.000  
R13  23485396.130   125410714.590       -2442.082          37.750  
G21  20020254.407   105207146.538        -258.254          42.250  
J07  36423696.065   191407810.924         -12.654          38.750  
E27  24783212.723   130236665.558         799.019          45.500    24783238.459    97254751.519         596.584          43.250  
C06  35500683.855   184861374.339        -402.576          42.750    35500698.010   142946599.357        -311.513          35.750  
E29  26139242.830   137362643.679        -776.413          44.250    26139277.470   102576134.132        -579.799          42.750  
G27  23928610.435   125745697.980       -3093.239          40.000  
E34  26045574.144   136870418.395       -1613.777          45.000    26045603.893   102208543.446       -1205.209          45.000  
R15  21152086.498   113030339.085        2615.288          48.500  
G30  22969026.178   120703041.980        3037.666          43.500  
C16  35739437.886   186104632.075        -378.635          45.000    35739456.785   143907983.661        -292.766          35.000  
R24  21257875.123   113675404.820       -3418.957          49.750  
R17  19039220.613   101882721.437         336.087          48.250  
E13  25804002.207   135600951.234        2862.542          41.750    25804030.438   101260559.914        2137.569          43.000  
E30  25335859.350   133140836.209        -449.594          43.000    25335885.082    99423453.861        -335.774          40.750  
E15  23911437.697   125655454.608         916.351          43.500    23911463.617    93833720.907         684.195          46.500  
G14  24762964.840   130130257.536        2162.686          34.500  
G04  23914259.639   125670277.902       -2810.455          39.500  
C09  35925349.116   187072721.390         153.350          41.750    35925364.836   144656559.348         118.479          35.500  
C26  22162360.359   115405226.111        1394.274          44.750                                                                  
C44  22378841.346   116532499.468        1803.420          46.000                                                                  
R14  20140998.520   107362849.076         156.041          50.000  
C35  21505711.122   111985880.014        -794.047          45.750                                                                  
C45  22887112.516   119179200.723       -1237.177          48.000                                                                  
C07  36365966.781   189367127.745        -314.862          40.750    36365981.690   146430736.034        -243.313          36.250  
J02  39522490.737   207692092.490         579.786          42.750  
R18  21216641.306   113255869.682        3593.762          50.500  
C10  37131138.919   193351582.563        -284.561          41.500    37131156.634                        -219.878          33.250  
J03  37458419.319   196845323.145        -580.342          43.000  
C12  24473042.178   127437551.970        2730.551          42.000    24473063.812    98542881.295        2111.465          36.000  
G07  20695988.888   108758152.970        1649.183          42.750  
G08  21320219.923   112038510.216       -2264.565          45.000  
C24  25151305.391   130969447.593        2690.117          41.750                                                                  
C39  36157773.303   188283013.737        -822.129          44.000                                                                  
C29  25134189.168   130880318.618       -2956.363          43.500                                                                  
C40  36480847.539   189965344.993        -538.521          44.000                                                                  
G09  23269888.347   122284085.949       -2362.109          41.750  
E21  27917071.967   146705204.908        1407.148          39.000    27917108.138   109552728.972        1050.481          36.500  
G16  24649901.508   129536105.365       -1927.601          41.500  
G02  20496246.153   107708499.496        1252.541          45.000  
E07  26169550.267   137521913.212       -2310.041          43.500    26169578.839   102695046.999       -1724.943          37.000  
> 2025 01 06 07 59 49.0000000  0 43                     
G17  23952216.732   125869746.396        2298.223          35.500  
R13  23485853.471   125413156.018       -2442.418          38.500  
G21  20020303.463   105207404.388        -258.881          42.250  
J07  36423698.256   191407822.817         -12.586          38.500  
E27  24783060.441   130235865.759         799.009          45.750    24783086.281    97254154.251         596.811          43.250  
C06  35500761.002   184861776.275        -402.740          43.000    35500774.995   142946910.128        -311.247          36.000  
E29  26139390.467   137363419.569        -776.753          44.250    26139425.172   102576713.525        -580.111          42.750  
G27  23929199.036   125748790.447       -3093.189          39.750  
E34  26045881.070   136872031.522       -1614.084          45.000    26045910.845   102209748.046       -1205.279          45.000  
R15  21151597.073   113027723.069        2615.295          48.500  
G30  22968447.953   120700003.666        3037.482          43.750  
C16  35739510.484   186105010.064        -378.781          45.250    35739529.634   143908275.919        -292.840          35.000  
R24  21258514.580   113678823.179       -3419.291          49.750  
R17  19039157.561   101882384.919         335.404          48.500  
E13  25803457.374   135598088.007        2862.443          42.000    25803485.673   101258421.794        2137.444          43.250  
E30  25335944.820   133141285.125        -449.718          43.000    25335970.574    99423789.070        -335.728          40.750  
E15  23911263.277   125654537.695         915.883          44.000    23911289.217    93833036.185         683.975          46.750  
G14  24762552.791   130128093.874        2162.846          34.750  
G04  23914794.096   125673087.493       -2810.376          39.750  
C09  35925319.625   187072567.457         153.210          41.750    35925335.517   144656440.323         118.406          35.250  
C26  22162092.313   115403831.109        1394.211          45.000                                                                  
C44  22378494.807   116530695.419        1803.193          46.000                                                                  
R14  20140969.013   107362692.472         155.644          50.000  
C01  37376573.752   194629626.7171         -1.793          42.250                                                                  
C35  21505863.439   111986673.556        -794.486          45.750                                                                  
C45  22887349.885   119180437.322       -1237.494          48.000                                                                  
C07  36366027.074   189367441.866        -314.829          41.000    36366042.011   146430978.946        -243.250          36.250  
J02  39522380.273   207691511.908         579.832          42.750  
R18  21215967.891   113252275.385        3593.346          50.500  
C10  37131193.451   193351866.326        -284.461          41.750    37131211.765                        -219.464          33.250  
J03  37458529.480   196845902.806        -580.354          42.750  
C12  24472517.542   127434820.806        2730.271          42.000    24472539.291    98540769.403        2111.344          35.500  
G07  20695674.926   108756503.225        1648.809          42.750  
G08  21320650.704   112040774.206       -2264.721          45.250  
C24  25150788.636   130966756.662        2690.266          41.500                                                                  
C39  36157930.942   188283835.154        -822.169          44.000                                                                  
C29  25134756.589   130883274.266       -2956.355          43.250                                                                  
C40  36480950.746   189965882.707        -538.377          44.250                                                                  
G09  23270337.659   122286447.402       -2362.145          42.000  
E21  27916804.063   146703797.015        1407.366          39.250    27916840.216   109551677.618        1050.952          36.500  
G16  24650268.243   129538032.393       -1927.647          41.250  
G02  20496007.665   107707246.428        1252.041          45.250  
E07  26169989.617   137524222.356       -2309.899          43.750    26170018.318   102696771.339       -1724.675          37.000  
> 2025 01 06 07 59 50.0000000  0 44                     
G17  23951779.762   125867448.344        2297.768          34.000  
R13  23486310.581   125415598.546       -2442.612          38.000  
G21  20020352.766   105207663.751        -259.825          42.000  
J07  36423700.584   191407835.486         -12.783          38.500  
E27  24782908.399   130235066.681         798.849          45.500    24782934.241    97253557.547         596.578          43.000  
C06  35500838.368   184862179.145        -403.219          42.750    35500852.049   142947221.660        -312.040          36.000  
E29  26139538.277   137364196.558        -777.344          44.250    26139572.989   102577293.735        -580.438          42.750  
G27  23929787.549   125751883.600       -3093.248          40.250  
E34  26046188.323   136873645.803       -1614.722          45.000    26046217.979   102210953.529       -1205.686          45.000  
R15  21151107.679   113025107.897        2614.927          48.250  
G30  22967869.950   120696966.368        3036.995          43.500  
C16  35739583.249   186105388.974        -379.145          45.000    35739602.360   143908568.946        -293.346          34.750  
R24  21259153.928   113682242.753       -3419.979          49.500  
R17  19039095.140   101882050.051         334.210          48.500  
E13  25802912.660   135595225.662        2861.971          42.000    25802941.033   101256284.326        2137.401          43.000  
E30  25336030.486   133141734.833        -449.909          42.750    25336056.102    99424124.913        -335.950          41.250  
E15  23911089.075   125653621.983         915.312          44.000    23911114.955    93832352.386         683.551          46.750  
G14  24762140.949   130125930.849        2162.900          35.250  
G04  23915328.784   125675897.719       -2810.520          39.500  
C09  35925290.325   187072414.435         152.670          41.750    35925306.116   144656321.992         118.218          35.500  
C26  22161824.630   115402437.125        1393.716          44.750                                                                  
C44  22378148.586   116528892.543        1802.451          46.000                                                                  
R14  20140939.641   107362537.085         154.872          50.000  
C01  37376573.971   194629627.001          -0.455          42.250                                                                  
C35  21506016.186   111987468.285        -795.126          46.000                                                                  
C45  22887587.701   119181675.016       -1238.074          48.000                                                                  
C03  36125686.041   188115926.7891          3.236          43.000                                                                  
C07  36366087.842   189367756.750        -315.230          41.000    36366102.430   146431222.431        -243.533          36.000  
J02  39522269.964   207690931.996         579.765          42.500  
R18  21215294.802   113248682.341        3592.615          50.500  
C10  37131248.060   193352150.839        -284.814          41.750    37131266.471                        -220.098          33.500  
J03  37458639.970   196846483.281        -580.751          42.500  
C12  24471993.159   127432090.675        2729.850          42.000    24472014.603    98538658.281        2110.936          35.750  
G07  20695361.181   108754854.786        1648.004          43.000  
G08  21321081.841   112043039.108       -2265.245          45.250  
C24  25150272.127   130964066.446        2689.929          41.500                                                                  
C39  36158088.850   188284657.496        -822.609          44.000                                                                  
C29  25135324.173   130886230.728       -2956.663          43.500                                                                  
C40  36481054.274   189966421.180        -538.679          44.250                                                                  
G09  23270787.116   122288809.671       -2362.455          42.000  
E21  27916536.264   146702389.788        1407.279          39.250    27916572.451   109550626.768        1050.885          37.250  
G16  24650635.061   129539960.245       -1928.101          41.750  
G02  20495769.400   107705994.749        1251.092          45.000  
E07  26170429.242   137526532.296       -2310.224          43.750    26170457.907   102698496.319       -1725.148          37.000  
> 2025 01 06 07 59 51.0000000  0 44                     
G17  23951342.485   125865150.507        2300.351          34.000  
R13  23486767.804   125418041.453       -2440.491          38.250  
G21  20020402.185   105207923.793        -257.964          42.000  
J07  36423702.779   191407848.066         -10.042          38.750  
E27  24782756.299   130234267.467         801.779          45.750    24782782.218    97252960.732         598.825          43.250  
C06  35500915.784   184862582.082        -400.464          43.000    35500929.055   142947533.222        -309.565          36.250  
E29  26139686.204   137364973.817        -774.919          44.500    26139720.859   102577874.150        -578.605          42.750  
G27  23930376.147   125754976.566       -3090.390          40.500  
E34  26046495.576   136875260.402       -1612.198          45.000    26046525.182   102212159.231       -1203.983          45.000  
R15  21150618.198   113022492.678        2617.874          48.500  
G30  22967291.943   120693929.249        3039.632          43.500  
C16  35739655.976   186105767.994        -376.543          45.250    35739674.780   143908862.020        -291.151          35.000  
R24  21259793.456   113685662.685       -3417.595          49.500  
R17  19039032.900   101881715.961         336.260          48.750  
E13  25802367.939   135592363.356        2864.757          42.000    25802396.406   101254146.900        2139.234          42.750  
E30  25336115.981   133142184.500        -447.068          43.250    25336141.595    99424460.688        -333.853          41.000  
E15  23910914.929   125652706.644         917.544          44.000    23910940.847    93831668.849         685.290          46.750  
G14  24761729.067   130123767.636        2165.888          35.000  
G04  23915863.701   125678707.720       -2807.396          39.750  
C09  35925260.999   187072261.483         155.496          41.750    35925277.142   144656203.713         120.258          35.500  
C26  22161556.988   115401043.311        1396.327          44.750                                                                  
C44  22377802.360   116527089.978        1804.883          46.250                                                                  
R14  20140910.497   107362382.063         157.379          50.000  
C01  37376573.779   194629627.181           2.385          42.500    37376593.670   150500055.0571          1.569          33.750  
C35  21506168.774   111988263.367        -792.767          46.000                                                                  
C45  22887825.522   119182912.978       -1235.549          48.000                                                                  
C03  36125685.205   188115923.397           5.896          43.000                                                                  
C07  36366148.473   189368071.507        -312.143          41.250    36366163.108   146431465.825        -241.536          36.000  
J02  39522159.522   207690351.894         582.675          42.500  
R18  21214621.787   113245089.723        3594.898          50.750  
C10  37131302.596   193352435.251        -281.766          41.750    37131321.199                        -219.926          33.500  
J03  37458750.443   196847063.738        -577.964          42.500  
C12  24471468.804   127429360.735        2732.439          42.500    24471490.174    98536547.319        2112.975          35.500  
G07  20695047.501   108753206.765        1650.232          43.000  
G08  21321512.814   112045304.027       -2262.419          45.500  
C24  25149755.434   130961376.108        2693.029          41.500                                                                  
C39  36158246.745   188285479.921        -819.921          44.250                                                                  
C29  25135891.889   130889187.167       -2953.910          43.500                                                                  
C40  36481157.574   189966959.555        -535.831          44.250                                                                  
G09  23271236.747   122291171.928       -2359.592          42.000  
E21  27916268.542   146700982.412        1410.045          39.000    27916304.720   109549575.797        1052.801          37.000  
G16  24651002.008   129541888.079       -1925.386          41.500  
G02  20495531.348   107704743.606        1253.421          45.000  
E07  26170868.809   137528842.180       -2307.312          43.500    26170897.566   102700221.208       -1723.014          37.000  
> 2025 01 06 07 59 52.0000000  0 44                     
G17  23950905.290   125862853.485        2298.197          34.500  
R13  23487225.353   125420485.122       -2442.494          38.250  
G21  20020451.865   105208185.000        -260.224          42.250  
J07  36423705.170   191407861.085         -11.621          38.250  
E27  24782604.204   130233468.657         800.213          45.500    24782630.186    97252364.222         597.610          43.250  
C06  35500993.303   184862985.643        -402.169          43.000    35501006.839   142947845.306        -311.078          35.750  
E29  26139834.177   137365751.859        -776.818          44.500    26139868.873   102578455.156        -580.116          42.750  
G27  23930964.985   125758069.917       -3091.823          40.250  
E34  26046802.974   136876875.826       -1614.193          45.000    26046832.597   102213365.547       -1205.325          45.000  
R15  21150128.893   113019877.991        2616.046          48.750  
G30  22966714.121   120690892.847        3037.623          43.500  
C16  35739728.812   186106147.615        -378.301          45.000    35739747.584   143909155.590        -292.573          34.750  
R24  21260433.220   113689083.489       -3419.619          49.500  
R17  19038970.873   101881383.218         333.717          48.750  
E13  25801823.340   135589501.596        2863.032          42.500    25801851.795   101252009.878        2138.006          43.000  
E30  25336201.704   133142634.648        -448.780          43.000    25336227.221    99424796.819        -335.040          41.000  
E15  23910740.887   125651792.171         915.675          44.000    23910766.858    93830985.988         683.720          46.750  
G14  24761317.666   130121604.783        2164.269          34.750  
G04  23916398.452   125681518.032       -2808.771          39.750  
C09  35925231.813   187072109.137         153.741          42.000    35925248.042   144656085.918         118.994          35.500  
C26  22161289.316   115399650.193        1394.396          44.500                                                                  
C44  22377456.298   116525288.250        1802.893          46.000                                                                  
R14  20140881.499   107362227.956         155.322          49.500  
C01  37376573.913   194629627.811           0.654          42.500    37376594.028   150500055.513           0.684          34.000  
C35  21506321.785   111989059.349        -794.811          46.000                                                                  
C45  22888063.218   119184151.721       -1237.492          48.000                                                                  
C03  36125684.798   188115920.442           4.340          43.500                                                                  
C07  36366209.051   189368386.715        -313.820          41.000    36366223.585   146431709.587        -242.566          36.250  
J02  39522049.004   207689772.137         581.248          42.500  
R18  21213949.022   113241498.049        3592.863          50.500  
C10  37131357.205   193352720.099        -283.587          41.500    37131375.426                        -220.061          33.250  
J03  37458860.930   196847644.706        -579.636          42.500  
C12  24470944.418   127426631.509        2730.404          42.000    24470966.092    98534436.898        2111.381          35.500  
G07  20694734.186   108751559.707        1648.125          42.500  
G08  21321944.019   112047569.531       -2264.184          45.500  
C24  25149238.754   130958686.154        2691.269          41.750                                                                  
C39  36158404.870   188286302.951        -821.700          44.250                                                                  
C29  25136459.643   130892144.120       -2955.603          43.500                                                                  
C40  36481261.071   189967498.370        -537.433          44.000                                                                  
G09  23271686.483   122293534.684       -2361.409          42.250  
E21  27916000.909   146699575.353        1408.588          38.750    27916036.938   109548525.081        1051.752          36.750  
G16  24651368.891   129543816.419       -1926.893          41.750  
G02  20495293.540   107703493.532        1251.215          45.250  
E07  26171308.478   137531152.548       -2309.026          43.500    26171337.223   102701946.505       -1724.213          37.000  
> 2025 01 06 07 59 53.0000000  0 42                     
G17  23950467.626   125860555.305        2302.458          34.250  
R13  23487682.856   125422927.732       -2438.292          38.250  
G21  20020501.280   105208445.553        -256.683          42.500  
J07  36423707.325   191407872.711          -7.231          38.500  
E27  24782451.877   130232668.401         804.573          45.500    24782477.917    97251766.637         600.376          43.250  
C06  35501070.576   184863387.992        -398.264          42.750    35501084.201   142948156.425        -308.105          35.750  
E29  26139982.026   137366528.842        -772.948          44.500    26140016.711   102579035.369        -577.468          42.750  
G27  23931553.345   125761161.784       -3087.570          40.250  
E34  26047110.111   136878490.229       -1610.211          45.250    26047139.738   102214571.115       -1202.826          45.000  
R15  21149639.476   113017261.937        2620.374          48.750  
G30  22966135.984   120687855.290        3041.683          43.500  
C16  35739801.221   186106526.017        -374.151          45.000    35739820.487   143909448.176        -289.507          35.000  
R24  21261072.700   113692503.306       -3415.695          49.500  
R17  19038908.511   101881049.905         337.158          48.750  
E13  25801278.437   135586638.560        2867.365          42.500    25801306.887   101249871.909        2140.649          42.750  
E30  25336287.157   133143083.410        -444.379          43.250    25336312.596    99425131.933        -332.215          40.750  
E15  23910566.737   125650876.775         919.406          44.000    23910592.651    93830302.409         686.201          46.750  
G14  24760905.801   130119440.379        2168.916          35.250  
G04  23916932.918   125684326.807       -2804.434          39.750  
C09  35925202.019   187071955.557         157.844          42.000    35925218.277   144655967.164         121.944          35.250  
C26  22161021.495   115398255.926        1398.295          44.750                                                                  
C44  22377110.042   116523485.540        1806.821          46.250                                                                  
R14  20140852.477   107362072.873         159.260          49.750  
C35  21506474.443   111989854.358        -790.987          46.000                                                                  
C45  22888300.883   119185389.413       -1233.616          48.000                                                                  
C07  36366269.419   189368700.501        -309.465          40.750    36366283.267   146431952.219        -239.719          36.000  
J02  39521938.254   207689190.868         585.624          42.500  
R18  21213276.072   113237905.440        3596.799          50.500  
C10  37131411.718   193353003.553        -279.129          41.750    37131429.756   149512880.3151       -216.198          33.750  
J03  37458971.177   196848224.334        -575.378          42.750  
C12  24470420.003   127423901.159        2734.521          42.250    24470441.711    98532325.623        2114.566          35.750  
G07  20694420.469   108749911.750        1652.018          43.000  
G08  21322375.035   112049833.757       -2259.934          45.250  
C24  25148721.950   130955994.761        2695.593          41.750                                                                  
C39  36158562.892   188287124.746        -817.747          44.250                                                                  
C29  25137027.281   130895099.736       -2951.424          43.750                                                                  
C40  36481364.414   189968035.768        -533.098          44.250                                                                  
G09  23272135.771   122295896.100       -2357.076          42.250  
E21  27915732.810   146698166.779        1413.146          38.750    27915768.828   109547473.238        1054.942          37.000  
G16  24651735.455   129545743.420       -1922.699          41.750  
G02  20495055.496   107702242.677        1254.900          45.000  
E07  26171747.829   137533461.542       -2304.697          43.500    26171776.535   102703670.742       -1721.265          37.000  
> 2025 01 06 07 59 54.0000000  0 42                     
G17  23950030.699   125858258.007        2296.667          34.500  
R13  23488140.691   125425371.229       -2444.382          38.750  
G21  20020551.131   105208707.425        -262.939          42.500  
J07  36423709.751   191407884.905         -12.857          38.750  
E27  24782299.677   130231868.671         799.101          45.500    24782325.725    97251169.436         596.677          43.250  
C06  35501148.019   184863791.073        -403.795          42.750    35501161.540   142948468.098        -312.149          36.000  
E29  26140129.995   137367306.749        -778.747          44.500    26140164.778   102579616.254        -581.423          42.750  
G27  23932141.506   125764254.114       -3092.817          40.250  
E34  26047417.517   136880105.606       -1616.190          45.000    26047447.111   102215777.405       -1206.893          45.250  
R15  21149150.078   113014646.528        2614.763          48.500  
G30  22965557.980   120684818.569        3035.834          43.500  
C16  35739873.993   186106905.168        -379.841          45.250    35739893.150   143909741.348        -293.796          35.250  
R24  21261712.461   113695924.159       -3421.752          49.500  
R17  19038846.503   101880718.023         330.758          49.000  
E13  25800733.825   135583776.207        2861.715          42.500    25800762.183   101247734.438        2136.873          43.000  
E30  25336372.679   133143532.807        -450.016          43.250    25336398.151    99425467.530        -336.257          41.000  
E15  23910392.715   125649962.384         913.518          44.000    23910418.672    93829619.587         682.152          47.000  
G14  24760494.429   130117276.442        2163.264          36.000  
G04  23917467.512   125687136.049       -2810.083          39.500  
C09  35925172.801   187071802.708         152.122          42.250    35925188.965   144655848.936         117.699          35.750  
C26  22160753.772   115396862.483        1392.633          45.000                                                                  
C44  22376764.100   116521683.784        1800.966          46.250                                                                  
R14  20140823.546   107361918.778         153.233          49.750  
C35  21506627.198   111990650.381        -796.913          46.000                                                                  
C45  22888538.626   119186628.013       -1239.383          48.000                                                                  
C07  36366329.772   189369014.835        -314.932          41.000    36366343.498   146432195.270        -243.501          36.250  
J02  39521827.898   207688610.075         580.232          43.000  
R18  21212603.266   113234313.911        3590.611          50.750  
C10  37131466.342   193353287.572        -284.617          41.750    37131484.409   149513099.924        -219.993          33.750  
J03  37459081.547   196848804.593        -580.966          42.750  
C12  24469895.779   127421171.645        2728.712          42.250    24469917.973    98530214.996        2109.891          35.750  
G07  20694107.104   108748264.902        1645.878          43.000  
G08  21322806.130   112052098.680       -2265.651          45.000  
C24  25148205.012   130953303.878        2690.310          41.750                                                                  
C39  36158720.982   188287947.286        -823.281          44.250                                                                  
C29  25137594.993   130898055.965       -2956.848          43.500                                                                  
C40  36481467.681   189968573.739        -538.661          44.250                                                                  
G09  23272585.315   122298258.140       -2362.823          41.750  
E21  27915464.978   146696758.719        1407.496          38.250    27915500.846   109546421.756        1051.123          36.500  
G16  24652102.270   129547671.079       -1928.418          41.750  
G02  20494817.658   107700993.033        1248.711          45.000  
E07  26172187.340   137535771.142       -2310.311          43.500    26172215.937   102705395.430       -1725.121          36.750  
> 2025 01 06 07 59 55.0000000  0 44                     
G17  23949593.681   125855960.732        2299.442          34.750  
R13  23488598.455   125427814.754       -2441.395          38.500  
G21  20020601.150   105208969.748        -260.478          42.250  
J07  36423711.967   191407896.797          -9.601          38.500  
E27  24782147.494   130231068.595         802.451          45.750    24782173.445    97250571.980         599.112          43.000  
C06  35501225.184   184864194.006        -400.623          42.750    35501238.672   142948779.680        -309.932          36.000  
E29  26140278.009   137368084.686        -775.867          44.500    26140312.792   102580197.176        -579.333          42.750  
G27  23932729.933   125767346.056       -3089.485          40.250  
E34  26047725.016   136881721.067       -1613.349          45.000    26047754.523   102216983.744       -1204.756          44.750  
R15  21148660.660   113012030.851        2617.978          48.250  
G30  22964980.176   120681781.782        3039.033          43.750  
C16  35739946.762   186107284.191        -376.874          45.000    35739965.953   143910034.423        -291.277          35.250  
R24  21262352.300   113699345.120       -3418.762          49.250  
R17  19038784.793   101880386.743         333.131          48.750  
E13  25800189.194   135580913.683        2864.892          42.500    25800217.364   101245596.834        2139.354          43.000  
E30  25336458.144   133143981.914        -446.833          43.250    25336483.534    99425802.880        -333.579          41.000  
E15  23910218.831   125649048.145         916.299          44.000    23910244.658    93828936.876         684.250          46.750  
G14  24760082.578   130115112.062        2166.694          36.500  
G04  23918001.932   125689944.842       -2806.323          39.500  
C09  35925143.459   187071649.688         155.257          42.250    35925159.814   144655730.619         120.155          35.500  
C26  22160486.337   115395468.982        1395.722          44.500                                                                  
C44  22376418.190   116519882.130        1803.798          46.000                                                                  
C01  37376573.586   194629626.3171          2.982          42.250                                                                  
R14  20140794.752   107361764.786         156.159          49.250  
C35  21506780.203   111991446.538        -794.061          46.000                                                                  
C45  22888776.512   119187866.650       -1236.457          48.000                                                                  
C03  36125682.736   188115910.2251          6.485          43.000                                                                  
C07  36366389.987   189369328.865        -311.549          40.500    36366403.516   146432438.109        -241.222          36.000  
J02  39521717.125   207688028.877         583.628          43.250  
R18  21211930.540   113230722.561        3593.450          50.500  
C10  37131520.883   193353571.260        -281.373          41.750    37131538.806   149513319.273        -217.545          33.500  
J03  37459192.015   196849384.608        -577.747          43.000  
C12  24469371.473   127418442.087        2731.734          42.250    24469393.771    98528104.327        2112.075          35.500  
G07  20693793.857   108746618.255        1648.741          43.250  
G08  21323237.074   112054363.436       -2262.414          45.000  
C24  25147688.111   130950612.687        2693.400          41.250                                                                  
C39  36158879.017   188288769.662        -820.169          44.000                                                                  
C29  25138162.825   130901011.974       -2953.732          43.500                                                                  
C40  36481570.999   189969111.384        -535.260          44.250                                                                  
G09  23273034.844   122300619.952       -2359.613          42.000  
E21  27915196.913   146695350.243        1410.868          38.750    27915232.755   109545369.965        1053.747          36.000  
G16  24652468.878   129549598.469       -1925.136          41.750  
G02  20494579.859   107699743.688        1251.391          45.000  
E07  26172626.929   137538080.445       -2306.983          43.750    26172655.339   102707119.917       -1722.893          36.750  
> 2025 01 06 07 59 56.0000000  0 44                     
G17  23949156.418   125853663.858        2294.459          34.500  
R13  23489056.289   125430258.781       -2446.666          39.000  
G21  20020651.255   105209232.933        -266.155          42.500  
J07  36423714.348   191407908.799         -14.567          38.750  
E27  24781995.382   130230268.589         797.445          45.500    24782021.186    97249974.569         595.536          43.000  
C06  35501302.521   184864597.227        -405.867          43.000    35501316.254   142949091.480        -313.942          35.500  
E29  26140426.179   137368863.073        -781.087          44.500    26140460.966   102580778.432        -583.262          42.750  
G27  23933318.641   125770438.060       -3094.620          40.250  
E34  26048032.536   136883337.009       -1618.630          45.250    26048062.016   102218190.465       -1208.850          44.750  
R15  21148171.248   113009415.317        2612.990          48.500  
G30  22964402.342   120678745.366        3033.806          43.500  
C16  35740019.555   186107663.479        -381.819          45.000    35740039.049   143910327.723        -295.412          34.750  
R24  21262992.270   113702766.599       -3424.220          49.500  
R17  19038723.153   101880056.465         327.236          48.750  
E13  25799644.571   135578051.368        2859.643          42.500    25799672.727   101243459.408        2135.499          42.750  
E30  25336543.596   133144431.167        -451.858          43.500    25336569.109    99426138.353        -337.316          41.250  
E15  23910044.937   125648134.454         910.846          44.000    23910070.758    93828254.577         680.179          46.750  
G14  24759670.744   130112947.690        2161.931          36.500  
G04  23918536.362   125692753.617       -2811.314          39.250  
C09  35925114.141   187071496.961         150.077          42.250    35925130.830   144655612.553         115.964          35.250  
C26  22160218.828   115394075.852        1390.541          44.500                                                                  
C44  22376072.281   116518080.983        1798.407          46.250                                                                  
C01  37376573.676   194629625.905          -2.166          42.250                                                                  
R14  20140766.125   107361611.338         150.679          49.000  
C35  21506933.084   111992243.230        -799.437          46.000                                                                  
C45  22889014.340   119189105.733       -1241.791          48.000                                                                  
C03  36125681.757   188115906.235           1.515          43.250                                                                  
C07  36366450.194   189369642.999        -316.737          40.500    36366463.985   146432681.017        -244.903          35.750  
J02  39521606.623   207687447.680         578.657          43.000  
R18  21211257.828   113227131.831        3587.895          50.750  
C10  37131575.250   193353855.048        -286.227          41.500    37131592.980   149513538.733        -221.461          33.500  
J03  37459302.489   196849964.793        -582.702          43.000  
C12  24468847.155   127415712.924        2726.575          42.250    24468869.578    98525993.957        2108.344          35.500  
G07  20693480.538   108744972.233        1643.123          43.250  
G08  21323667.936   112056628.422       -2267.593          45.000  
C24  25147171.196   130947921.513        2688.612          41.000                                                                  
C39  36159036.801   188289592.323        -825.257          44.000                                                                  
C29  25138730.565   130903968.137       -2958.788          43.500                                                                  
C40  36481674.343   189969649.131        -540.333          44.000                                                                  
G09  23273484.262   122302981.917       -2364.549          41.750  
E21  27914928.932   146693941.777        1405.781          38.750    27914964.695   109544318.201        1050.050          36.000  
G16  24652835.686   129551526.050       -1930.137          41.750  
G02  20494342.338   107698495.079        1245.723          45.000  
E07  26173066.340   137540389.893       -2311.999          43.750    26173094.782   102708844.507       -1726.506          36.750  
> 2025 01 06 07 59 57.0000000  0 44                     
G17  23948719.142   125851366.662        2296.079          34.750  
R13  23489514.185   125432702.578       -2445.175          38.500  
G21  20020701.314   105209496.293        -265.004          42.500  
J07  36423716.560   191407920.210         -12.556          38.750  
E27  24781843.047   130229467.949         799.422          45.500    24781868.841    97249376.695         596.956          43.000  
C06  35501379.653   184865000.035        -404.217          43.000    35501393.808   142949402.941        -312.317          35.500  
E29  26140574.207   137369641.223        -779.600          44.500    26140609.121   102581359.518        -582.109          42.750  
G27  23933906.773   125773529.370       -3092.557          40.250  
E34  26048339.988   136884952.761       -1617.169          45.250    26048369.462   102219397.034       -1207.657          45.000  
R15  21147681.785   113006799.239        2614.800          48.500  
G30  22963824.467   120675708.651        3035.463          43.500  
C16  35740092.242   186108042.378        -380.275          45.000    35740112.064   143910620.724        -293.995          34.750  
R24  21263632.184   113706187.915       -3422.830          49.250  
R17  19038661.573   101879726.446         328.338          48.500  
E13  25799099.786   135575188.600        2861.524          42.250    25799127.945   101241321.618        2136.836          42.750  
E30  25336628.984   133144879.876        -449.950          43.500    25336654.450    99426473.423        -335.848          41.250  
E15  23909871.007   125647220.632         912.238          44.000    23909896.785    93827572.179         681.232          46.500  
G14  24759258.900   130110782.623        2163.771          35.000  
G04  23919070.884   125695561.673       -2809.390          39.750  
C09  35925084.736   187071343.807         151.875          42.000    35925101.712   144655494.112         117.232          35.500  
C26  22159951.030   115392682.393        1392.110          44.500                                                                  
C44  22375726.364   116516279.668        1799.786          46.000                                                                  
C01  37376573.515   194629624.936          -0.337          42.250                                                                  
R14  20140737.207   107361457.755         152.156          49.000  
C35  21507085.977   111993039.795        -797.990          46.000                                                                  
C45  22889252.165   119190344.588       -1240.268          48.000                                                                  
C03  36125680.975   188115901.673           3.423          43.000                                                                  
C07  36366510.253   189369956.517        -314.655          40.500    36366524.337   146432923.426        -243.250          36.000  
J02  39521495.967   207686865.800         580.689          43.250  
R18  21210585.245   113223541.004        3589.339          50.750  
C10  37131629.503   193354138.267        -284.379          41.750    37131647.817   149513757.704        -219.638          33.250  
J03  37459412.893   196850544.463        -580.953          43.000  
C12  24468323.092   127412983.461        2728.051          42.500    24468345.368    98523883.376        2109.456          35.250  
G07  20693167.305   108743326.141        1644.574          43.250  
G08  21324098.728   112058892.949       -2265.914          45.250  
C24  25146654.133   130945229.720        2690.655          41.250                                                                  
C39  36159194.619   188290414.573        -823.632          44.000                                                                  
C29  25139298.268   130906923.783       -2956.961          43.500                                                                  
C40  36481777.462   189970186.289        -538.388          44.250                                                                  
G09  23273933.487   122305343.362       -2362.824          41.750  
E21  27914660.876   146692532.650        1407.764          38.500    27914696.458   109543265.924        1051.402          36.000  
G16  24653202.486   129553453.107       -1928.354          42.000  
G02  20494104.651   107697246.512        1247.013          45.000  
E07  26173505.727   137542698.807       -2310.201          43.500    26173534.131   102710568.690       -1725.347          36.250  
> 2025 01 06 07 59 58.0000000  0 44                     
G17  23948282.277   125849070.224        2293.958          35.250  
R13  23489971.637   125435147.161       -2447.109          39.500  
G21  20020751.763   105209760.795        -267.207          42.500  
J07  36423718.915   191407932.015         -14.054          38.500  
E27  24781690.800   130228667.664         797.971          45.750    24781716.563    97248779.066         596.026          43.250  
C06  35501457.116   184865403.417        -405.820          42.750    35501471.268   142949714.853        -313.786          35.750  
E29  26140722.477   137370420.119        -781.442          44.500    26140757.374   102581941.145        -583.367          42.750  
G27  23934495.189   125776621.005       -3093.817          40.500  
E34  26048647.565   136886569.310       -1618.979          45.250    26048677.077   102220604.195       -1209.000          45.000  
R15  21147192.271   113004183.648        2613.227          48.500  
G30  22963246.791   120672672.568        3033.588          43.500  
C16  35740165.046   186108421.836        -381.730          45.000    35740184.927   143910914.098        -294.918          34.750  
R24  21264272.129   113709610.061       -3424.699          49.500  
R17  19038599.996   101879397.679         326.030          48.750  
E13  25798555.162   135572326.350        2859.901          42.250    25798583.253   101239184.239        2135.652          43.000  
E30  25336714.484   133145329.018        -451.396          43.250    25336740.030    99426808.822        -337.046          41.000  
E15  23909697.191   125646307.655         910.458          43.750    23909723.052    93826890.401         679.974          46.750  
G14  24758847.043   130108617.814        2162.792          36.000  
G04  23919605.125   125698369.965       -2810.438          39.500  
C09  35925055.554   187071191.204         150.289          42.250    35925072.311   144655376.111         116.172          35.250  
C26  22159683.554   115391289.590        1390.333          44.750                                                                  
C44  22375380.600   116514479.142        1798.039          46.250                                                                  
C01  37376573.551   194629624.353          -1.826          42.500                                                                  
R14  20140708.575   107361304.996         150.263          49.000  
C35  21507239.033   111993837.203        -799.894          46.000                                                                  
C45  22889490.173   119191584.186       -1242.038          48.000                                                                  
C03  36125680.165   188115897.497           1.993          43.000                                                                  
C07  36366570.304   189370270.415        -316.142          40.750    36366584.402   146433166.174        -244.588          36.000  
J02  39521385.264   207686284.210         579.423          43.250  
R18  21209912.550   113219951.080        3587.383          50.750  
C10  37131683.947   193354421.872        -285.829          41.500    37131702.462   149513977.009        -220.793          33.500  
J03  37459523.254   196851124.591        -582.426          43.000  
C12  24467799.169   127410254.656        2726.334          42.500    24467821.245    98521773.279        2108.423          35.500  
G07  20692854.343   108741680.976        1642.520          43.250  
G08  21324529.643   112061158.007       -2267.339          45.000  
C24  25146137.371   130942538.278        2689.193          40.750                                                                  
C39  36159352.680   188291237.369        -825.020          44.000                                                                  
C29  25139865.989   130909879.886       -2958.357          43.000                                                                  
C40  36481880.616   189970723.835        -539.840          44.500                                                                  
G09  23274382.933   122307705.264       -2364.293          42.000  
E21  27914392.688   146691123.811        1406.507          38.750    27914428.306   109542213.883        1050.304          35.750  
G16  24653569.278   129555380.641       -1929.859          42.000  
G02  20493867.284   107695998.965        1244.945          45.000  
E07  26173945.150   137545008.132       -2311.631          43.500    26173973.386   102712293.160       -1726.040          36.250  
> 2025 01 06 07 59 59.0000000  0 44                     
G17  23947845.494   125846773.241        2297.075          35.000  
R13  23490429.143   125437591.229       -2443.777          39.750  
G21  20020802.107   105210025.240        -264.425          42.250  
J07  36423721.019   191407943.018         -10.670          38.500  
E27  24781538.425   130227866.503         801.628          45.750    24781564.101    97248180.814         598.563          43.000  
C06  35501534.412   184865806.117        -402.363          43.000    35501548.603   142950026.279        -311.223          36.000  
E29  26140870.689   137371198.521        -778.228          44.500    26140905.549   102582522.430        -581.141          42.750  
G27  23935083.452   125779711.725       -3090.188          40.500  
E34  26048955.064   136888185.425       -1615.895          45.250    26048984.653   102221811.037       -1206.687          45.000  
R15  21146702.677   113001567.295        2616.643          48.250  
G30  22962669.017   120669635.938        3036.777          43.250  
C16  35740237.923   186108800.650        -378.461          45.000    35740257.738   143911207.058        -292.774          35.000  
R24  21264911.805   113713031.793       -3421.515          49.500  
R17  19038538.449   101879068.965         328.703          48.750  
E13  25798010.280   135569463.385        2863.350          42.000    25798038.447   101237046.308        2138.133          42.750  
E30  25336799.785   133145777.373        -448.016          43.250    25336825.354    99427143.634        -334.494          41.250  
E15  23909523.369   125645394.285         913.585          43.500    23909549.208    93826208.358         682.162          46.500  
G14  24758434.832   130106452.093        2166.194          36.750  
G04  23920139.215   125701177.334       -2806.856          39.000  
C09  35925026.262   187071037.931         153.594          42.250    35925042.440   144655257.566         118.968          35.250  
C26  22159416.109   115389896.212        1393.626          44.750                                                                  
C44  22375034.747   116512678.199        1801.139          46.250                                                                  
C01  37376573.278   194629622.928           1.884          42.500                                                                  
R14  20140679.784   107361151.853         153.359          49.000  
C35  21507391.920   111994634.224        -796.846          46.000                                                                  
C45  22889728.219   119192823.302       -1238.862          48.000                                                                  
C03  36125679.173   188115892.498           5.431          43.000                                                                  
C07  36366630.356   189370583.485        -312.605          40.500    36366644.709   146433408.265        -241.822          36.000  
J02  39521274.467   207685701.700         583.035          43.000  
R18  21209240.098   113216360.784        3590.425          50.500  
C10  37131737.989   193354704.674        -282.350          41.500    37131756.734   149514195.721        -218.385          33.500  
J03  37459633.581   196851703.958        -579.085          43.250  
C12  24467275.222   127407525.307        2729.578          42.250    24467297.236    98519662.778        2110.879          35.250  
G07  20692541.192   108740035.504        1645.705          43.500  
G08  21324960.547   112063422.349       -2263.946          45.000  
C24  25145620.284   130939845.977        2692.885          41.000                                                                  
C39  36159510.409   188292059.518        -821.854          44.000                                                                  
C29  25140433.499   130912835.228       -2954.890          43.000                                                                  
C40  36481983.652   189971260.556        -536.342          44.250                                                                  
G09  23274832.206   122310066.404       -2360.677          42.000  
E21  27914124.279   146689714.022        1410.289          38.750    27914160.023   109541161.135        1053.114          35.500  
G16  24653935.947   129557307.411       -1926.445          42.000  
G02  20493629.824   107694751.210        1247.865          45.000  
E07  26174384.421   137547316.655       -2308.069          43.500    26174412.522   102714017.089       -1723.636          36.000  
> 2025 01 06 08 00 00.0000000  0 44                     
G17  23947408.576   125844476.659        2296.219          36.000  
R13  23490887.291   125440035.780       -2444.977          38.750  
G21  20020852.468   105210290.508        -265.855          42.500  
J07  36423722.851   191407954.109         -11.385          38.750  
E27  24781385.935   130227065.410         800.900          45.500    24781411.645    97247582.590         598.097          43.250  
C06  35501611.771   184866209.122        -403.328          43.000    35501625.777   142950337.898        -312.026          36.000  
E29  26141018.912   137371977.381        -779.260          44.750    26141053.731   102583104.045        -581.931          42.750  
G27  23935671.604   125782802.478       -3090.962          40.500  
E34  26049262.807   136889802.031       -1617.035          45.250    26049292.331   102223018.238       -1207.449          45.000  
R15  21146212.900   112998951.138        2615.866          48.250  
G30  22962091.313   120666599.656        3035.986          43.500  
C16  35740310.830   186109179.741        -379.475          45.000    35740330.480   143911500.175        -293.120          35.000  
R24  21265551.617   113716454.100       -3422.802          49.500  
R17  19038477.095   101878741.259         327.086          48.500  
E13  25797465.550   135566600.649        2862.469          42.500    25797493.696   101234908.550        2137.631          42.750  
E30  25336885.221   133146225.869        -448.709          43.250    25336910.767    99427478.554        -335.092          41.000  
E15  23909349.544   125644481.499         912.275          43.750    23909375.499    93825526.727         681.301          46.500  
G14  24758022.105   130104286.339        2165.698          36.500  
G04  23920673.184   125703984.670       -2807.485          39.000  
C09  35924997.026   187070884.939         152.727          42.250    35925012.635   144655139.295         118.001          35.250  
C26  22159148.667   115388503.189        1392.674          44.750                                                                  
C44  22374689.033   116510877.767        1799.995          46.250                                                                  
C01  37376573.005   194629621.620           0.966          42.500                                                                  
R14  20140651.052   107360999.272         152.111          48.750  
C35  21507544.930   111995431.801        -798.006          46.000                                                                  
C45  22889966.323   119194062.867       -1239.968          48.000                                                                  
C03  36125678.225   188115887.613           4.602          43.000                                                                  
C07  36366690.374   189370896.663        -313.389          40.500    36366704.924   146433650.410        -242.171          36.000  
J02  39521163.606   207685119.191         582.339          43.000  
R18  21208567.684   113212771.072        3589.255          50.500  
C10  37131792.233   193354987.554        -283.152          41.750    37131811.096   149514414.436        -218.875          33.500  
J03  37459743.943   196852283.503        -579.909          43.000  
C12  24466751.223   127404796.324        2728.603          42.250    24466773.200    98517552.579        2109.780          35.500  
G07  20692228.283   108738390.660        1644.349          43.500  
G08  21325391.555   112065686.952       -2264.833          45.000  
C24  25145103.184   130937153.735        2691.946          40.750                                                                  
C39  36159668.343   188292881.930        -822.715          44.250                                                                  
C29  25141001.102   130915790.737       -2955.857          43.000                                                                  
C40  36482086.601   189971797.359        -536.935          44.000                                                                  
G09  23275281.541   122312427.721       -2361.516          42.000  
E21  27913855.922   146688304.273        1409.438          38.750    27913891.734   109540108.419        1052.693          36.250  
G16  24654302.496   129559234.355       -1927.245          42.000  
G02  20493392.488   107693504.190        1246.453          45.000  
E07  26174823.530   137549625.345       -2308.952          43.500    26174851.895   102715741.099       -1724.011          36.500  
> 2025 01 06 08 00 01.0000000  0 44                     
G17  23946971.425   125842181.353        2295.720          36.750  
R13  23491345.124   125442481.672       -2445.504          38.250  
G21  20020903.228   105210557.485        -266.740          43.000  
J07  36423725.242   191407966.181         -11.649          38.750  
E27  24781233.678   130226265.257         800.800          45.500    24781259.395    97246985.070         597.934          43.000  
C06  35501689.557   184866613.239        -403.651          42.750    35501703.192   142950650.393        -312.334          36.000  
E29  26141167.305   137372757.561        -779.807          44.500    26141202.169   102583686.637        -582.294          42.500  
G27  23936259.909   125785894.116       -3091.034          40.750  
E34  26049570.734   136891419.997       -1617.621          45.000    26049600.251   102224226.469       -1207.980          44.750  
R15  21145723.538   112996336.039        2615.538          48.250  
G30  22961513.759   120663564.630        3035.404          43.500  
C16  35740383.811   186109559.974        -379.723          45.250    35740403.140   143911794.223        -293.685          34.500  
R24  21266191.915   113719877.805       -3423.373          49.500  
R17  19038416.007   101878415.399         325.996          48.750  
E13  25796921.101   135563739.013        2862.199          42.750    25796949.053   101232771.619        2137.432          42.500  
E30  25336970.703   133146675.363        -448.898          43.500    25336996.275    99427814.211        -335.248          41.000  
E15  23909176.107   125643570.109         911.812          44.000    23909202.056    93824846.163         680.805          46.500  
G14  24757609.934   130102121.407        2165.572          36.250  
G04  23921207.545   125706792.852       -2807.504          39.000  
C09  35924967.970   187070733.069         152.374          42.250    35924983.337   144655021.855         117.640          35.250  
C26  22158881.336   115387111.391        1392.322          44.500                                                                  
C44  22374343.592   116509078.698        1799.354          46.250                                                                  
C01  37376573.027   194629621.278           0.743          42.500    37376592.096   150500047.4461          0.586          34.000  
R14  20140622.583   107360848.143         151.422          48.750  
C35  21507698.396   111996230.770        -798.661          46.250                                                                  
C45  22890204.529   119195303.739       -1240.455          48.000                                                                  
C03  36125677.464   188115883.681           4.407          43.250                                                                  
C07  36366750.667   189371210.762        -313.400          40.750    36366765.261   146433893.322        -242.509          36.000  
J02  39521052.894   207684537.556         582.275          43.250  
R18  21207895.438   113209182.857        3588.499          50.500  
C10  37131846.565   193355271.383        -283.352          41.750    37131865.323   149514633.906        -218.967          33.250  
J03  37459854.492   196852864.073        -579.990          43.000  
C12  24466227.643   127402068.572        2728.248          42.500    24466248.872    98515443.291        2109.622          35.500  
G07  20691915.626   108736747.307        1643.618          43.500  
G08  21325822.629   112067952.661       -2265.253          45.750  
C24  25144586.235   130934462.405        2691.876          41.000                                                                  
C39  36159826.402   188293705.480        -823.086          44.000                                                                  
C29  25141568.753   130918747.277       -2956.135          43.250                                                                  
C40  36482189.853   189972335.141        -537.285          44.250                                                                  
G09  23275731.007   122314790.061       -2361.793          42.000  
E21  27913587.830   146686895.386        1409.544          39.250    27913623.561   109539056.339        1052.607          36.000  
G16  24654669.242   129561162.329       -1927.403          42.250  
G02  20493155.541   107692258.767        1245.745          45.250  
E07  26175262.995   137551935.020       -2309.127          43.500    26175291.344   102717465.859       -1724.195          36.750  
> 2025 01 06 08 00 02.0000000  0 44                     
G17  23946534.650   125839885.640        2297.029          36.750  
R13  23491803.182   125444927.207       -2444.266          38.500  
G21  20020954.020   105210824.533        -265.952          42.750  
J07  36423727.465   191407977.545          -9.863          38.500  
E27  24781081.270   130225464.360         802.295          45.500    24781106.954    97246386.992         599.248          42.750  
C06  35501767.150   184867016.845        -402.241          42.500    35501780.728   142950962.459        -311.147          36.000  
E29  26141315.780   137373537.387        -778.598          44.750    26141350.566   102584268.974        -581.327          42.500  
G27  23936848.072   125788984.991       -3089.376          41.000  
E34  26049878.597   136893037.663       -1616.472          45.000    26049908.074   102225434.453       -1207.015          44.750  
R15  21145234.131   112993720.270        2617.155          48.250  
G30  22960936.164   120660529.155        3036.830          43.000  
C16  35740456.762   186109939.688        -378.377          45.000    35740475.911   143912087.830        -292.440          34.750  
R24  21266831.968   113723301.211       -3422.231          49.250  
R17  19038355.051   101878089.678         326.755          48.500  
E13  25796376.508   135560876.794        2863.586          42.500    25796404.366   101230634.259        2138.348          42.750  
E30  25337056.071   133147124.222        -447.590          43.250    25337081.654    99428149.398        -334.353          41.000  
E15  23909002.684   125642658.490         912.888          44.000    23909028.545    93824165.400         681.738          46.500  
G14  24757197.819   130099955.738        2167.214          35.500  
G04  23921742.013   125709600.216       -2805.918          39.250  
C09  35924938.842   187070580.664         153.758          42.250    35924953.809   144654903.989         119.130          35.000  
C26  22158614.074   115385719.154        1393.579          44.750                                                                  
C44  22373998.233   116507279.340        1800.565          46.000                                                                  
C01  37376572.866   194629620.226           2.436          42.500    37376592.306   150500046.680           1.787          34.250  
R14  20140594.206   107360696.746         152.576          48.500  
C35  21507851.952   111997029.491        -797.540          46.000                                                                  
C45  22890442.756   119196544.276       -1239.352          48.000                                                                  
C03  36125676.610   188115879.062           5.961          43.000                                                                  
C07  36366810.930   189371524.182        -311.817          40.500    36366825.777   146434135.641        -241.067          36.250  
J02  39520942.056   207683955.135         583.818          43.500  
R18  21207223.029   113205594.445        3589.580          50.500  
C10  37131901.042   193355554.539        -281.743          41.500    37131919.596   149514852.872        -218.110          33.500  
J03  37459964.929   196853444.024        -578.681          43.000  
C12  24465703.862   127399340.420        2729.431          42.500    24465725.032    98513333.714        2110.601          35.250  
G07  20691602.832   108735103.756        1644.748          43.750  
G08  21326253.744   112070217.792       -2263.752          45.750  
C24  25144069.232   130931770.354        2693.491          41.000                                                                  
C39  36159984.557   188294528.493        -821.634          44.000                                                                  
C29  25142136.438   130921703.164       -2954.548          42.500                                                                  
C40  36482293.122   189972872.203        -535.630          44.250                                                                  
G09  23276180.258   122317151.770       -2360.287          42.250  
E21  27913319.625   146685485.737        1411.142          39.250    27913355.248   109538003.660        1053.859          35.750  
G16  24655035.924   129563089.689       -1925.914          42.250  
G02  20492918.581   107691013.280        1246.552          45.250  
E07  26175702.462   137554244.029       -2307.630          43.500    26175730.898   102719190.105       -1723.215          36.500  
> 2025 01 06 08 00 03.0000000  0 44                     
G17  23946098.192   125837590.671        2295.569          36.250  
R13  23492261.075   125447373.550       -2446.036          38.750  
G21  20021005.020   105211092.729        -267.899          42.500  
J07  36423729.645   191407989.342         -11.283          38.500  
E27  24780928.864   130224663.840         801.221          45.500    24780954.610    97245789.238         598.242          43.000  
C06  35501844.706   184867421.057        -403.656          42.500    35501858.804   142951275.013        -312.119          36.000  
E29  26141464.306   137374317.985        -780.167          44.500    26141499.099   102584851.880        -582.560          42.500  
G27  23937436.313   125792076.193       -3090.448          41.000  
E34  26050186.579   136894656.133       -1617.958          45.000    26050216.033   102226643.060       -1208.214          44.750  
R15  21144744.569   112991105.005        2615.907          48.000  
G30  22960358.544   120657494.355        3035.399          42.750  
C16  35740529.933   186110319.996        -379.779          45.250    35740549.414   143912381.874        -293.398          34.750  
R24  21267472.125   113726725.466       -3423.661          49.500  
R17  19038294.488   101877765.259         324.669          48.750  
E13  25795831.933   135558015.117        2862.359          42.500    25795859.836   101228497.285        2137.559          42.500  
E30  25337141.533   133147573.525        -448.642          43.500    25337167.165    99428484.907        -335.016          41.000  
E15  23908829.457   125641747.741         911.226          44.000    23908855.214    93823485.296         680.514          46.500  
G14  24756785.657   130097790.318        2166.250          35.750  
G04  23922276.313   125712407.842       -2806.797          39.250  
C09  35924909.746   187070428.846         152.531          42.500    35924924.705   144654786.594         117.903          35.750  
C26  22158346.915   115384327.596        1392.079          44.750                                                                  
C44  22373652.752   116505480.789        1799.147          46.250                                                                  
C01  37376572.746   194629619.604           1.248          42.500    37376592.141   150500046.162           0.994          34.000  
R14  20140565.695   107360546.194         151.104          48.750  
C35  21508005.517   111997829.063        -799.189          46.000                                                                  
C45  22890681.030   119197785.559       -1240.764          48.000                                                                  
C03  36125675.783   188115874.860           4.826          43.250                                                                  
C07  36366871.181   189371837.986        -313.067          40.750    36366885.830   146434378.313        -242.231          36.000  
J02  39520831.323   207683373.013         582.899          43.500  
R18  21206550.879   113202006.984        3587.939          50.500  
C10  37131955.656   193355838.078        -282.910          41.500    37131974.702   149515073.112        -218.711          33.000  
J03  37460075.290   196854024.444        -579.803          43.000  
C12  24465180.123   127396612.952        2728.016          42.250    24465201.754    98511224.664        2109.461          35.250  
G07  20691290.206   108733461.163        1643.088          43.500  
G08  21326684.940   112072483.461       -2265.039          46.000  
C24  25143552.356   130929078.656        2692.520          40.500                                                                  
C39  36160142.721   188295352.097        -823.074          44.000                                                                  
C29  25142704.011   130924659.547       -2955.718          42.750                                                                  
C40  36482396.427   189973409.695        -536.838          44.250                                                                  
G09  23276629.790   122319513.967       -2361.632          42.250  
E21  27913051.474   146684076.392        1410.122          39.250    27913087.158   109536951.226        1052.834          36.500  
G16  24655402.755   129565017.530       -1927.041          42.000  
G02  20492681.901   107689768.821        1244.800          45.250  
E07  26176141.979   137556553.489       -2308.784          43.500    26176170.443   102720914.707       -1724.096          36.000  
> 2025 01 06 08 00 04.0000000  0 44                     
G17  23945661.641   125835295.987        2295.743          35.750  
R13  23492719.223   125449820.192       -2445.529          38.750  
G21  20021056.188   105211361.671        -268.265          42.500  
J07  36423731.613   191408001.136         -10.551          38.750  
E27  24780776.472   130223863.268         801.887          45.250    24780802.216    97245191.429         598.760          43.500  
C06  35501922.303   184867825.425        -403.444          42.500    35501936.507   142951587.697        -311.809          35.750  
E29  26141612.872   137375098.916        -779.905          44.750    26141647.654   102585435.035        -582.235          42.250  
G27  23938024.468   125795167.307       -3089.875          41.250  
E34  26050494.563   136896274.988       -1617.738          45.250    26050524.090   102227851.962       -1208.029          44.750  
R15  21144255.275   112988489.781        2616.464          48.250  
G30  22959781.027   120654459.819        3035.626          43.000  
C16  35740602.974   186110700.472        -379.377          45.000    35740622.288   143912676.096        -293.350          35.000  
R24  21268112.509   113730150.180       -3423.655          49.500  
R17  19038233.990   101877441.736         324.319          49.000  
E13  25795287.352   135555153.547        2862.800          42.750    25795315.297   101226360.411        2137.904          42.500  
E30  25337226.942   133148022.860        -448.149          43.250    25337252.643    99428820.455        -334.588          41.000  
E15  23908656.242   125640837.436         911.425          44.000    23908682.027    93822805.526         680.610          46.750  
G14  24756373.419   130095624.824        2166.873          36.250  
G04  23922810.603   125715215.340       -2805.838          39.250  
C09  35924880.675   187070277.161         152.840          42.750    35924896.042   144654669.302         118.172          35.250  
C26  22158079.703   115382936.285        1392.370          45.000                                                                  
C44  22373307.486   116503682.657        1799.106          46.500                                                                  
C01  37376572.670   194629618.979           1.773          42.750    37376591.975   150500045.674           1.706          34.000  
R14  20140537.575   107360396.037         151.194          48.500  
C35  21508159.117   111998629.062        -798.860          46.000                                                                  
C45  22890919.513   119199027.192       -1240.621          48.000                                                                  
C03  36125674.925   188115870.644           5.498          43.000    36125689.477   145463183.9201          4.032          33.500  
C07  36366931.491   189372151.766        -312.554          40.500    36366945.796   146434620.921        -241.588          35.500  
J02  39520720.703   207682790.801         583.524          43.250  
R18  21205878.944   113198420.003        3588.028          50.500  
C10  37132010.055   193356121.606        -282.254          41.500    37132029.431   149515292.365        -218.115          33.500  
J03  37460185.637   196854604.929        -579.406          43.250  
C12  24464656.361   127393885.746        2728.471          42.250    24464678.189    98509115.817        2109.714          35.500  
G07  20690977.635   108731819.081        1643.119          43.500  
G08  21327116.203   112074749.262       -2264.582          45.750  
C24  25143035.571   130926386.922        2693.000          40.500                                                                  
C39  36160300.928   188296175.849        -822.607          44.000                                                                  
C29  25143271.517   130927615.981       -2955.137          43.000                                                                  
C40  36482499.660   189973947.167        -536.363          44.250                                                                  
G09  23277079.241   122321876.213       -2360.990          42.250  
E21  27912783.312   146682666.942        1410.714          39.250    27912818.954   109535898.724        1053.335          36.250  
G16  24655769.744   129566945.455       -1926.776          42.000  
G02  20492445.213   107688524.996        1244.676          45.500  
E07  26176581.480   137558862.968       -2308.275          43.500    26176610.141   102722639.349       -1723.830          36.500  
> 2025 01 06 08 00 05.0000000  0 44                     
G17  23945224.915   125833001.865        2289.193          36.500  
R13  23493177.485   125452267.490       -2452.391          38.750  
G21  20021107.555   105211631.614        -275.321          42.500  
J07  36423733.970   191408013.201         -17.117          38.500  
E27  24780624.169   130223062.927         795.383          45.250    24780649.865    97244593.746         594.232          43.500  
C06  35501999.919   184868230.189        -409.731          42.500    35502014.167   142951900.704        -316.951          36.000  
E29  26141761.526   137375880.456        -786.621          44.750    26141796.404   102586018.650        -587.212          42.250  
G27  23938612.823   125798258.610       -3096.061          40.250  
E34  26050802.665   136897894.500       -1624.615          45.250    26050832.294   102229061.319       -1212.902          44.750  
R15  21143765.854   112985874.879        2609.841          48.000  
G30  22959203.666   120651425.792        3028.963          43.000  
C16  35740676.026   186111081.373        -385.913          45.000    35740695.182   143912970.655        -298.450          35.250  
R24  21268752.915   113733575.585       -3430.764          49.250  
R17  19038173.911   101877119.355         316.850          48.750  
E13  25794742.908   135552292.364        2856.058          43.000    25794770.832   101224223.813        2133.099          42.500  
E30  25337312.404   133148472.489        -454.566          43.250    25337338.217    99429156.195        -339.086          41.000  
E15  23908483.144   125639927.848         904.406          44.000    23908509.033    93822126.279         675.735          46.750  
G14  24755961.599   130093459.444        2160.288          36.000  
G04  23923344.959   125718022.992       -2812.537          39.250  
C09  35924851.601   187070125.919         146.119          42.750    35924867.531   144654552.349         113.264          35.500  
C26  22157812.658   115381545.479        1385.676          45.000                                                                  
C44  22372962.118   116501885.179        1792.288          46.250                                                                  
C01                                                                  37376591.613   150500045.397          -3.382          34.250  
R14  20140509.688   107360246.599         144.151          48.500  
C35  21508312.827   111999429.784        -805.798          46.000                                                                  
C45  22891158.094   119200269.416       -1247.167          48.250                                                                  
C03                                                                  36125688.743   145463180.831          -0.202          33.500  
C07  36366991.724   189372465.801        -319.082          40.750    36367006.407   146434863.766        -246.438          35.750  
J02  39520610.075   207682208.741         577.196          43.500  
R18  21205207.151   113194833.765        3580.878          50.500  
C10  37132064.495   193356405.408        -288.504          41.500    37132083.941   149515511.804        -223.093          33.000  
J03  37460296.237   196855185.739        -585.801          43.000  
C12  24464132.662   127391159.089        2721.696          42.000    24464154.747    98507007.388        2104.635          35.250  
G07  20690665.409   108730177.785        1636.148          43.500  
G08  21327547.574   112077015.463       -2271.081          45.500  
C24  25142518.592   130923695.398        2686.673          40.500                                                                  
C39  36160459.247   188297000.042        -829.242          44.000                                                                  
C29  25143839.279   130930572.728       -2961.561          42.500                                                                  
C40  36482602.933   189974484.879        -542.723          44.250                                                                  
G09  23277528.789   122324238.787       -2367.680          42.250  
E21  27912515.167   146681257.653        1404.636          39.500    27912550.719   109534846.339        1048.789          36.000  
G16  24656136.598   129568873.697       -1933.223          42.250  
G02  20492208.796   107687282.062        1237.670          45.500  
E07  26177020.952   137561172.754       -2314.628          43.500    26177049.742   102724364.162       -1728.367          36.250  
> 2025 01 06 08 00 06.0000000  0 44                     
G17  23944788.459   125830707.411        2292.076          36.000  
R13  23493636.008   125454714.513       -2449.411          38.500  
G21  20021159.103   105211901.645        -272.745          42.250  
J07  36423736.051   191408024.585         -13.667          38.500  
E27  24780471.789   130222261.882         798.803          45.250    24780497.349    97243995.560         596.608          43.500  
C06  35502077.455   184868634.491        -406.635          42.500    35502092.143   142952213.339        -314.362          35.500  
E29  26141910.231   137376661.691        -783.720          44.750    26141945.108   102586602.016        -585.029          42.500  
G27  23939200.731   125801349.174       -3092.849          40.500  
E34  26051110.777   136899513.753       -1621.722          45.250    26051140.438   102230270.498       -1211.084          44.750  
R15  21143276.527   112983259.397        2613.162          48.000  
G30  22958626.220   120648391.391        3031.823          42.750  
C16  35740749.060   186111461.807        -382.690          45.000    35740768.090   143913264.811        -295.825          35.000  
R24  21269393.457   113737000.799       -3427.755          49.250  
R17  19038113.707   101876797.182         319.452          48.750  
E13  25794198.312   135549430.652        2859.558          42.750    25794226.291   101222086.825        2135.344          42.500  
E30  25337397.776   133148921.501        -451.227          43.500    25337423.644    99429491.502        -337.027          40.750  
E15  23908309.968   125639018.051         907.266          44.000    23908336.006    93821446.888         677.526          47.000  
G14  24755549.559   130091293.248        2164.001          36.000  
G04  23923879.141   125720829.845       -2809.033          38.750  
C09  35924822.594   187069974.179         149.402          42.750    35924838.440   144654435.029         115.548          35.250  
C26  22157545.620   115380154.286        1388.816          45.000                                                                  
C44  22372616.896   116500087.450        1795.310          46.250                                                                  
C01                                                                  37376591.577   150500044.609          -0.725          34.000  
R14  20140481.539   107360096.928         147.187          48.500  
C35  21508466.552   112000230.282        -802.873          46.000                                                                  
C45  22891396.653   119201511.345       -1244.433          48.250                                                                  
C03                                                                  36125687.482   145463177.271           1.979          33.250  
C07  36367051.919   189372779.157        -315.492          40.750    36367066.950   146435106.073        -243.949          36.000  
J02  39520499.185   207681625.933         580.553          43.500  
R18  21204535.329   113191247.351        3583.887          50.250  
C10  37132118.872   193356688.548        -285.323          41.750    37132138.030   149515730.747        -220.472          33.000  
J03  37460406.529   196855765.955        -582.481          42.750  
C12  24463608.995   127388432.040        2724.667          41.750    24463630.571    98504898.645        2106.950          35.250  
G07  20690352.994   108728536.354        1638.904          43.500  
G08  21327978.748   112079281.130       -2267.919          45.250  
C24  25142001.675   130921003.196        2689.940          40.250                                                                  
C39  36160617.563   188297823.736        -826.031          44.000                                                                  
C29  25144406.980   130933528.898       -2958.416          42.500                                                                  
C40  36482705.986   189975021.926        -539.246          44.250                                                                  
G09  23277978.107   122326600.766       -2364.304          42.500  
E21  27912246.858   146679847.613        1407.843          39.750    27912282.571   109533793.399        1051.500          34.750  
G16  24656503.588   129570801.364       -1929.965          42.000  
G02  20491972.203   107686039.088        1240.354          45.250  
E07  26177460.325   137563481.923       -2311.456          43.250    26177489.210   102726088.534       -1725.984          36.000  
> 2025 01 06 08 00 07.0000000  0 44                     
G17  23944351.915   125828413.440        2295.045          36.250  
R13  23494094.188   125457162.076       -2446.555          38.750  
G21  20021210.463   105212172.592        -270.118          42.250  
J07  36423738.357   191408036.176         -10.474          38.750  
E27  24780319.398   130221460.972         802.182          45.250    24780344.872    97243397.489         599.036          43.500  
C06  35502155.214   184869039.148        -403.598          42.500    35502169.914   142952526.221        -312.018          35.750  
E29  26142059.043   137377443.444        -780.652          44.500    26142093.869   102587185.812        -583.019          42.750  
G27  23939788.709   125804439.831       -3089.367          40.750  
E34  26051419.013   136901133.568       -1618.708          45.250    26051448.711   102231480.109       -1208.815          44.750  
R15  21142787.121   112980644.175        2616.573          48.000  
G30  22958048.868   120645357.411        3035.160          43.000  
C16  35740822.258   186111842.604        -379.713          45.250    35740841.171   143913559.299        -293.797          35.000  
R24  21270033.957   113740426.609       -3424.685          49.250  
R17  19038053.770   101876476.073         322.018          48.750  
E13  25793653.806   135546569.256        2862.510          43.000    25793681.752   101219950.058        2137.604          42.250  
E30  25337483.225   133149370.744        -447.909          43.500    25337509.063    99429826.970        -334.616          40.500  
E15  23908137.001   125638108.875         910.251          44.000    23908162.981    93820767.962         679.736          46.750  
G14  24755137.538   130089127.212        2167.299          35.500  
G04  23924413.111   125723636.737       -2805.599          38.750  
C09  35924793.519   187069822.777         152.642          42.750    35924809.029   144654317.966         117.991          35.250  
C26  22157278.628   115378763.534        1391.829          45.000                                                                  
C44  22372271.814   116498290.306        1798.164          46.250                                                                  
C01                                                                  37376591.729   150500043.955           1.720          34.250  
R14  20140453.610   107359947.914         150.139          48.500  
C35  21508620.457   112001031.414        -800.291          46.000                                                                  
C45  22891635.416   119202753.781       -1241.238          48.250                                                                  
C03                                                                  36125686.266   145463173.858           4.380          33.500  
C07  36367112.260   189373092.708        -312.278          40.500    36367127.134   146435348.526        -241.564          35.500  
J02  39520388.237   207681043.205         583.886          43.500  
R18  21203863.553   113187661.617        3586.811          50.500  
C10  37132173.347   193356971.872        -282.054          41.750    37132192.568   149515949.809        -217.776          33.000  
J03  37460516.970   196856346.409        -579.172          43.000  
C12  24463085.226   127385705.470        2727.665          41.750    24463106.634    98502790.313        2108.989          35.250  
G07  20690040.766   108726895.630        1641.721          43.500  
G08  21328409.950   112081547.115       -2264.906          45.500  
C24  25141484.558   130918311.110        2693.311          40.250                                                                  
C39  36160775.797   188298647.777        -822.791          44.250                                                                  
C29  25144974.852   130936485.304       -2955.170          42.750                                                                  
C40  36482809.209   189975559.167        -535.909          44.500                                                                  
G09  23278427.799   122328962.989       -2361.073          42.500  
E21  27911978.539   146678437.680        1411.237          39.250    27912014.037   109532740.545        1053.564          35.250  
G16  24656870.628   129572729.257       -1926.672          42.000  
G02  20491735.786   107684796.913        1243.192          45.500  
E07  26177899.733   137565791.289       -2308.046          43.250    26177928.583   102727813.063       -1723.374          36.000  
> 2025 01 06 08 00 08.0000000  0 44                     
G17  23943915.342   125826120.016        2291.958          36.750  
R13  23494552.405   125459610.229       -2449.590          38.500  
G21  20021262.266   105212444.545        -273.603          42.250  
J07  36423740.757   191408047.998         -13.152          38.500  
E27  24780167.010   130220660.264         799.417          45.250    24780192.463    97242799.557         596.973          43.500  
C06  35502233.037   184869444.203        -406.446          42.500    35502247.324   142952839.461        -314.343          35.750  
E29  26142207.963   137378225.787        -783.827          44.750    26142242.748   102587770.034        -585.428          42.500  
G27  23940376.834   125807530.674       -3092.196          40.750  
E34  26051727.329   136902754.021       -1621.977          45.250    26051757.069   102232690.190       -1211.184          44.750  
R15  21142297.767   112978029.274        2613.510          48.250  
G30  22957471.712   120642323.958        3032.022          43.250  
C16  35740895.583   186112223.818        -382.598          45.000    35740914.297   143913854.029        -295.905          35.000  
R24  21270674.716   113743853.059       -3427.955          49.000  
R17  19037993.955   101876156.084         318.212          48.750  
E13  25793109.379   135543708.200        2859.733          43.250    25793137.366   101217813.571        2135.477          42.500  
E30  25337568.879   133149820.274        -450.943          43.250    25337594.506    99430162.643        -336.604          40.750  
E15  23907964.201   125637200.403         906.986          44.000    23907990.139    93820089.564         677.228          46.750  
G14  24754725.389   130086961.276        2164.549          34.750  
G04  23924947.276   125726443.759       -2808.272          39.000  
C09  35924764.533   187069671.779         149.765          42.500    35924779.935   144654201.187         115.708          35.000  
C26  22157011.780   115377373.277        1388.785          45.000                                                                  
C44  22371926.916   116496493.812        1794.981          46.000                                                                  
C01                                                                  37376591.586   150500043.468          -0.127          34.000  
R14  20140425.903   107359799.591         146.761          48.250  
C35  21508774.417   112001833.214        -803.349          46.000                                                                  
C45  22891874.266   119203996.824       -1244.518          48.250                                                                  
C03                                                                  36125685.815   145463170.629           2.063          33.750  
C07  36367172.787   189373406.467        -315.035          40.250    36367187.671   146435591.126        -243.573          36.000  
J02  39520277.185   207680460.613         581.289          43.500  
R18  21203191.983   113184076.647        3583.345          50.250  
C10  37132227.706   193357255.419        -284.810          41.750    37132247.188   149516169.083        -220.330          33.750  
J03  37460627.591   196856927.190        -582.100          43.000  
C12  24462561.535   127382979.399        2724.596          41.750    24462582.928    98500682.330        2106.996          35.500  
G07  20689728.651   108725255.656        1638.403          43.500  
G08  21328841.264   112083813.470       -2267.784          45.250  
C24  25140967.589   130915619.235        2690.478          40.000                                                                  
C39  36160934.146   188299472.237        -825.873          44.250                                                                  
C29  25145542.794   130939442.009       -2957.974          42.250                                                                  
C40  36482912.510   189976096.638        -538.750          44.250                                                                  
G09  23278877.457   122331325.534       -2364.016          42.750  
E21  27911710.227   146677027.856        1408.786          39.250    27911745.699   109531687.749        1051.837          36.250  
G16  24657237.557   129574657.481       -1929.585          42.250  
G02  20491499.655   107683555.626        1239.677          45.250  
E07  26178339.234   137568100.934       -2311.021          43.500    26178367.979   102729537.782       -1725.421          36.000  
> 2025 01 06 08 00 09.0000000  0 44                     
G17  23943478.758   125823827.276        2292.252          35.750  
R13  23495010.893   125462059.195       -2449.504          38.000  
G21  20021314.024   105212717.660        -273.758          42.250  
J07  36423743.043   191408060.261         -12.661          38.750  
E27  24780014.734   130219859.953         799.945          45.000    24780040.173    97242201.923         597.328          43.250  
C06  35502310.894   184869849.872        -406.194          42.750    35502325.239   142953153.134        -313.884          35.750  
E29  26142356.990   137379008.898        -783.684          44.750    26142391.721   102588354.815        -585.239          42.750  
G27  23940964.875   125810621.835       -3091.553          40.500  
E34  26052035.914   136904375.290       -1621.891          45.250    26052065.613   102233900.879       -1211.140          44.750  
R15  21141808.468   112975414.869        2613.936          48.000  
G30  22956894.605   120639291.177        3032.295          43.250  
C16  35740968.985   186112605.616        -382.244          45.000    35740987.606   143914149.269        -295.324          34.750  
R24  21271315.711   113747280.392       -3427.891          49.000  
R17  19037934.248   101875837.390         317.873          48.750  
E13  25792565.125   135540847.702        2860.107          43.250    25792592.975   101215677.493        2135.834          42.500  
E30  25337654.632   133150270.250        -450.328          43.500    25337680.132    99430498.668        -336.427          41.250  
E15  23907791.525   125636292.802         906.954          44.250    23907817.411    93819411.809         677.374          46.750  
G14  24754313.224   130084795.636        2165.216          35.750  
G04  23925481.649   125729251.066       -2807.597          39.000  
C09  35924735.610   187069521.386         149.951          42.750    35924750.779   144654084.906         115.801          35.250  
C26  22156745.121   115375983.694        1389.135          45.000                                                                  
C44  22371582.196   116494698.136        1795.086          46.250                                                                  
C01                                                                  37376591.385   150500043.334          -0.240          34.250  
R14  20140398.291   107359652.146         146.877          48.250  
C35  21508928.737   112002635.886        -803.268          45.750                                                                  
C45  22892113.215   119205240.626       -1244.334          48.250                                                                  
C03  36125671.455   188115850.7041          3.377          43.000    36125685.175   145463167.703           2.972          33.750  
C07  36367233.017   189373720.635        -314.550          40.500    36367247.346   146435834.080        -243.299          35.750  
J02  39520166.313   207679878.349         581.983          43.500  
R18  21202520.442   113180492.614        3583.364          50.000  
C10  37132282.148   193357539.380        -284.250          41.750    37132301.407   149516388.657        -220.088          33.500  
J03  37460738.283   196857508.461        -581.755          43.000  
C12  24462038.051   127380254.022        2724.892          41.250    24462059.088    98498574.879        2107.203          35.250  
G07  20689416.662   108723616.635        1638.385          43.500  
G08  21329272.621   112086080.382       -2267.327          45.250  
C24  25140450.769   130912927.721        2691.146          40.500                                                                  
C39  36161092.655   188300297.271        -825.494          44.250                                                                  
C29  25146110.974   130942399.206       -2957.651          42.500                                                                  
C40  36483015.851   189976634.521        -538.263          44.250                                                                  
G09  23279327.264   122333688.542       -2363.400          42.500  
E21  27911441.887   146675618.392        1409.199          39.750    27911477.504   109530635.214        1052.418          36.000  
G16  24657604.721   129576586.190       -1929.095          41.500  
G02  20491263.596   107682315.378        1239.544          45.500  
E07  26178778.845   137570411.031       -2310.411          43.750    26178807.528   102731262.882       -1725.603          36.500  
