     3.04           OBSERVATION DATA    M: Mixed            RINEX VERSION / TYPE
RTKCONV demo5 b34g                      20250111 013358 UTC PGM / RUN BY / DATE 
format: Septentrio SBF                                      COMMENT             
log: D:\PHD\matlab\GNSS_status_estimation\receiver_clock_modCOMMENT             
                                                            MARKER NAME         
                                                            MARKER NUMBER       
                                                            MARKER TYPE         
                                                            OBSERVER / AGENCY   
                                                            REC # / TYPE / VERS 
                                                            ANT # / TYPE        
 -2418076.3698  5386067.0413  2405173.2945                  APPROX POSITION XYZ 
        0.0000        0.0000        0.0000                  ANTENNA: DELTA H/E/N
G    4 C1C L1C D1C S1C                                      SYS / # / OBS TYPES 
R    4 C1C L1C D1C S1C                                      SYS / # / OBS TYPES 
E    8 C1C L1C D1C S1C C5Q L5Q D5Q S5Q                      SYS / # / OBS TYPES 
J    4 C1C L1C D1C S1C                                      SYS / # / OBS TYPES 
C    8 C2I L2I D2I S2I C7I L7I D7I S7I                      SYS / # / OBS TYPES 
  2025    01    06    09    05   07.0000000     GPS         TIME OF FIRST OBS   
  2025    01    06    09    06   31.0000000     GPS         TIME OF LAST OBS    
G L1C                                                       SYS / PHASE SHIFT   
R L1C                                                       SYS / PHASE SHIFT   
E L1C  0.50000                                              SYS / PHASE SHIFT   
E L5Q -0.25000                                              SYS / PHASE SHIFT   
J L1C                                                       SYS / PHASE SHIFT   
C L2I                                                       SYS / PHASE SHIFT   
C L7I                                                       SYS / PHASE SHIFT   
  6 R14 -7 R15  0 R16 -1 R17  4 R18 -3 R19  3               GLONASS SLOT / FRQ #
 C1C    0.000 C1P    0.000 C2C    0.000 C2P    0.000        GLONASS COD/PHS/BIS 
                                                            END OF HEADER       
> 2025 01 06 09 05 07.0000000  0 42                     
G17  22671495.018   119139511.7101        809.105          44.250  
C04  38534424.746   200658863.7061       -318.126          42.250                                                                  
G21  21199487.173   111404050.2491      -3063.584          43.250  
E27  24157746.994   126949835.9511        437.048          43.500    24157768.578    94800306.0501        326.357          42.750  
G03  23781246.852   124971301.2551       2173.231          44.000  
R15  19529150.375   104357892.1851       1121.886          46.750  
E29  27101924.234   142421572.7381      -2001.318          36.250    27101959.565   106353899.3801      -1494.536          42.250  
E34  27703652.502   145583769.8631      -3037.916          31.750    27703673.291   108715169.8331      -2268.033          28.000  
C16  36270248.968   188868691.1451      -1381.501          45.750    36270267.324   146045321.0131      -1068.040          32.500  
G30  21253432.995   111687578.1291        978.500          46.500  
C38  39268824.048   204483073.6751       1348.959          42.000                                                                  
R17  19922281.213   106608145.4581      -2859.931          48.500  
J07  36425462.740   191417105.6901       -356.954          38.250  
E13  23969862.754   125962521.5341       1523.189          45.000    23969886.584    94063034.0421       1137.585          44.500  
E30  25779686.474   135473129.3171      -1193.488          44.750    25779714.939   101165086.8721       -891.367          40.000  
E15  23906441.375   125629214.2221      -1261.761          46.250    23906465.278    93814125.8711       -942.146          46.250  
E21  26704469.922   140332993.0371       1479.638          38.500    26704500.100   104794268.4221       1104.798          38.000  
E19  27776650.466                        -917.296          22.500    27776693.249   109001696.1271       -685.155          32.250  
C01  37365124.642   194570021.6081       -331.088          42.750    37365141.395   150453954.7491       -255.731          33.500  
R14  20773930.715   110736711.1081      -2354.043          50.000  
C26  21597982.520   112466376.1671       -396.659          44.500                                                                  
R19  22298018.908   119279387.7581       3037.146          36.000  
C06  36043169.957   187686233.5001      -1389.914          44.250    36043182.417   145130948.6661      -1074.695          33.250  
C24  23158447.689   120592139.4641       2078.324          44.750                                                                  
C09  36054719.071   187746378.1751       -873.342          41.000    36054735.161   145177467.5191       -675.325          36.750  
C03  36111846.411   188043866.0621       -328.308          43.250    36111858.423   145407497.6671       -253.827          33.250  
C35  22622040.148   117798888.4351      -2356.147          44.500                                                                  
C07  36548137.192   190315745.0371       -502.033          41.000    36548149.229   147164259.6941       -388.115          33.250  
R18  19475613.997   103962190.9811        597.272          48.250  
C10  37300347.953   194232703.4021       -494.561          40.000    37300365.264   150193116.9541       -382.350          34.500  
E07  27794269.639   146059869.8161      -2245.327          38.750    27794298.797   109070785.7001      -1677.218          30.000  
G14  22981779.809   120770121.6911       2203.940          41.250  
J02  38945690.016   204660987.6111        582.044          43.500  
G07  20328987.775   106829557.4061      -1114.413          45.250  
G08  23067806.725   121222103.7561      -2657.786          43.000  
R16  22584444.551   120642034.4951       3351.067          43.500  
G09  24921204.430                       -2199.945          25.000  
E26  28010829.019   147197928.5271       2649.184          27.750                                                                  
J03  37962646.528   199495075.6511      -1116.366          42.500  
J04  36435312.952   191468873.3101       -467.231          35.250  
C12  22891847.807   119203895.9201       1036.618          43.250    22891866.732    92176109.9981        801.558          37.000  
G02  20501815.790   107737787.2091      -1598.182          45.750  
> 2025 01 06 09 05 08.0000000  0 42                     
G17  22671341.185   119138702.851         808.787          44.250  
C04  38534485.887   200659181.865        -318.214          42.250                                                                  
G21  21200070.217   111407114.179       -3064.157          43.000  
E27  24157663.885   126949399.070         436.890          43.500    24157685.421    94799979.804         326.240          42.750  
G03  23780833.331   124969128.173        2173.049          44.000  
R15  19528940.489   104356770.695        1121.245          46.750  
E29  27102305.289   142423574.445       -2001.720          36.250    27102340.546   106355394.161       -1494.881          42.250  
E34  27704230.636   145586807.545       -3037.388          31.500    27704251.586   108717438.296       -2268.116          28.000  
C16  36270514.364   188870072.817       -1381.730          45.500    36270532.348   146046389.412       -1068.030          32.250  
G30  21253246.714   111686600.059         977.724          46.250  
C38  39268565.053   204481724.702        1348.950          41.500                                                                  
R17  19922815.434   106611005.782       -2860.576          48.500  
J07  36425530.759   191417462.665        -357.116          38.250  
E13  23969572.959   125960998.556        1522.701          45.000    23969596.809    94061896.753        1137.153          44.500  
E30  25779913.592   135474322.976       -1193.673          44.750    25779942.065   101165978.232        -891.481          39.750  
E15  23906681.491   125630476.310       -1262.325          46.250    23906705.454    93815068.346        -942.624          46.250  
E21  26704188.460   140331513.564        1479.560          39.000    26704218.620   104793163.623        1104.986          37.750  
E19  27776824.945                        -916.194          22.500    27776867.569   109002381.194        -685.425          32.000  
C01  37365188.246   194570352.766        -331.290          42.750    37365205.303   150454210.846        -256.302          33.500  
R14  20774372.304   110739065.580       -2354.751          50.000  
C26  21598058.667   112466773.166        -397.256          44.250                                                                  
R19  22297450.871   119276350.936        3036.475          36.000  
C06  36043436.974   187687623.664       -1390.218          44.250    36043448.880   145132023.606       -1074.936          33.000  
C24  23158048.575   120590061.361        2077.861          44.750                                                                  
C09  36054886.687   187747251.657        -873.552          41.000    36054902.954   145178142.953        -675.507          36.500  
C03  36111909.510   188044194.494        -328.390          43.250    36111922.166   145407751.629        -254.039          33.000  
C35  22622492.589   117801244.754       -2356.388          44.500                                                                  
C07  36548233.608   190316247.237        -502.253          41.000    36548245.862   147164648.010        -388.049          33.000  
R18  19475502.266   103961594.195         596.368          48.000  
C10  37300442.776   194233197.967        -494.591          40.000    37300459.854   150193499.378        -382.264          34.500  
E07  27794697.010   146062115.277       -2245.281          39.000    27794725.887   109072462.451       -1676.434          29.750  
G14  22981360.751   120767917.742        2203.887          41.000  
J02  38945579.201   204660405.648         582.007          43.500  
G07  20329199.987   106830672.145       -1115.038          45.250  
G08  23068312.545   121224761.418       -2657.601          43.000  
R16  22583817.125   120638683.533        3350.913          43.500  
G09  24921623.345                       -2200.213          24.250  
E26  28010324.966   147195279.321        2648.675          27.250                                                                  
J03  37962858.953   199496192.151       -1116.584          42.500  
J04  36435401.748   191469340.373        -467.099          36.000  
C12  22891648.911   119202859.607        1036.075          43.500    22891667.610    92175308.655         801.228          37.000  
G02  20502119.913   107739385.804       -1598.893          45.500  
> 2025 01 06 09 05 09.0000000  0 42                     
G17  22671187.369   119137894.404         808.369          44.000  
C04  38534547.009   200659500.158        -318.326          42.250                                                                  
G21  21200653.342   111410178.698       -3064.700          43.000  
E27  24157580.826   126948962.418         436.609          43.500    24157602.281    94799653.746         326.061          42.750  
G03  23780419.995   124966955.175        2173.050          44.250  
R15  19528730.804   104355649.910        1120.548          47.000  
E29  27102686.136   142425576.356       -2001.943          36.250    27102721.531   106356889.109       -1495.057          42.250  
E34  27704808.320   145589845.610       -3037.853          31.500    27704830.020   108719707.057       -2269.609          28.000  
C16  36270779.788   188871454.782       -1382.044          45.500    36270797.791   146047458.078       -1069.028          32.250  
G30  21253060.871   111685622.732         976.949          46.500  
C38  39268306.063   204480375.853        1348.892          41.750                                                                  
R17  19923349.884   106613866.724       -2861.156          48.500  
J07  36425598.726   191417819.804        -357.217          38.250  
E13  23969283.328   125959476.094        1522.257          45.250    23969307.133    94060759.860        1136.786          44.500  
E30  25780140.739   135475516.954       -1194.020          44.750    25780169.284   101166869.826        -891.591          40.000  
E15  23906921.817   125631738.984       -1262.911          46.250    23906945.702    93816011.256        -943.084          46.250  
E21  26703907.015   140330034.146        1479.563          39.000    26703937.094   104792058.863        1104.902          37.750  
E19  27776999.208                        -917.027          22.000    27777042.101   109003066.580        -685.430          31.750  
C01  37365251.945   194570684.055        -331.224          42.750    37365268.939   150454467.015        -255.978          33.000  
R14  20774814.194   110741420.777       -2355.488          49.750  
C26  21598134.987   112467170.771        -397.858          44.500                                                                  
R19  22296883.133   119273314.733        3035.739          36.000  
C06  36043704.120   187689014.131       -1390.497          44.250    36043716.104   145133098.841       -1075.352          33.250  
C24  23157649.639   120587983.585        2077.744          44.750                                                                  
C09  36055054.469   187748125.485        -873.963          41.000    36055070.676   145178818.673        -675.912          36.750  
C03  36111972.349   188044523.073        -328.621          43.500    36111985.435   145408005.710        -253.936          33.250  
C35  22622945.102   117803601.407       -2356.737          44.500                                                                  
C07  36548330.119   190316749.506        -502.246          41.000    36548342.717   147165036.419        -388.483          33.000  
R18  19475390.631   103960998.324         595.535          48.250  
C10  37300537.731   194233692.609        -494.843          40.000    37300555.041   150193881.889        -382.718          34.750  
E07  27795124.289   146064360.654       -2245.336          39.250    27795153.396   109074139.183       -1676.569          30.250  
G14  22980941.377   120765713.909        2203.846          40.750  
J02  38945468.419   204659823.767         581.948          43.250  
G07  20329412.257   106831787.699       -1115.906          45.500  
G08  23068818.354   121227419.171       -2657.828          43.000  
R16  22583189.958   120635332.691        3350.929          43.500  
G09  24922042.314                       -2199.382          26.500  
E26  28009820.884   147192630.408        2649.049          27.500                                                                  
J03  37963071.528   199497308.828       -1116.688          42.500  
J04  36435490.778   191469807.581        -467.146          35.500  
C12  22891449.984   119201823.818        1035.677          43.500    22891468.348    92174507.733         800.868          37.000  
G02  20502424.265   107740985.122       -1599.651          45.500  
> 2025 01 06 09 05 10.0000000  0 42                     
G17  22671033.654   119137086.348         808.099          44.000  
C04  38534608.065   200659818.608        -318.337          42.250                                                                  
G21  21201236.532   111413243.814       -3065.263          43.000  
E27  24157497.781   126948525.989         436.510          43.750    24157519.178    94799327.835         326.000          42.750  
G03  23780006.611   124964782.282        2173.059          44.250  
R15  19528521.324   104354529.817        1119.907          46.750  
E29  27103067.226   142427578.543       -2002.211          36.250    27103102.573   106358384.245       -1495.088          42.250  
E34  27705386.252   145592883.928       -3037.707          31.250    27705408.142   108721975.865       -2269.226          28.000  
C16  36271045.190   188872837.059       -1382.195          45.750    36271062.768   146048526.891       -1068.769          32.250  
G30  21252875.070   111684646.124         976.460          46.250  
C38  39268047.151   204479027.102        1348.875          42.000                                                                  
R17  19923884.552   106616728.288       -2861.695          48.250  
J07  36425666.812   191418177.086        -357.075          38.250  
E13  23968993.703   125957954.151        1521.917          45.250    23969017.554    94059623.355        1136.418          44.500  
E30  25780367.890   135476711.261       -1194.309          44.750    25780396.490   101167761.683        -891.783          40.000  
E15  23907162.146   125633002.255       -1263.417          46.250    23907186.094    93816954.601        -943.426          46.250  
E21  26703625.496   140328554.784        1479.762          39.000    26703655.639   104790954.151        1104.927          38.000  
E19  27777174.576                        -919.573          23.750    27777216.782   109003752.405        -685.728          32.000  
C01  37365315.549   194571015.508        -331.222          42.750    37365332.655   150454723.330        -256.560          33.250  
R14  20775256.186   110743776.698       -2356.099          49.750  
C26  21598211.454   112467568.996        -398.345          44.500                                                                  
R19  22296315.291   119270279.117        3035.389          35.750  
C06  36043971.156   187690404.894       -1390.703          44.250    36043983.172   145134174.234       -1075.268          33.250  
C24  23157250.672   120585906.185        2077.437          44.750                                                                  
C09  36055222.452   187748999.652        -874.145          41.250    36055238.114   145179494.614        -675.878          36.750  
C03  36112035.529   188044851.799        -328.715          43.500    36112048.226   145408259.913        -254.470          33.000  
C35  22623397.646   117805958.361       -2356.897          44.500                                                                  
C07  36548426.775   190317251.880        -502.177          41.000    36548439.066   147165424.887        -388.187          33.500  
R18  19475279.108   103960403.393         594.656          48.250  
C10  37300632.684   194234187.364        -494.700          39.750    37300650.215   150194264.425        -382.338          34.500  
E07  27795551.628   146066605.941       -2244.902          39.250    27795580.868   109075815.929       -1676.798          30.250  
G14  22980522.049   120763510.180        2203.835          41.000  
J02  38945357.709   204659241.965         581.995          43.500  
G07  20329624.800   106832904.033       -1116.542          45.250  
G08  23069324.153   121230076.995       -2657.707          42.750  
R16  22582562.568   120631981.984        3350.876          43.250  
G09  24922460.563                       -2199.213          24.500  
E26  28009317.826   147189981.549        2649.145          28.000                                                                  
J03  37963284.080   199498425.692       -1116.688          42.500  
J04  36435579.758   191470274.899        -467.050          35.750  
C12  22891251.191   119200788.557        1035.161          43.500    22891269.631    92173707.205         800.385          37.000  
G02  20502728.681   107742585.168       -1600.228          45.750  
> 2025 01 06 09 05 11.0000000  0 43                     
G17  22670879.850   119136278.370         808.008          44.000  
C04  38534669.076   200660136.867        -318.087          42.250                                                                  
G21  21201819.777   111416309.167       -3065.403          43.000  
E27  24157414.717   126948089.444         436.757          43.750    24157436.138    94799001.841         326.125          42.750  
G03  23779593.204   124962609.139        2173.376          44.250  
R15  19528311.747   104353410.069        1119.681          46.750  
E29  27103448.179   142429580.613       -2001.902          36.000    27103483.566   106359879.309       -1494.902          42.250  
E34  27705964.333   145595922.195       -3038.115          32.000    27705985.977   108724244.794       -2269.063          28.250  
C16  36271310.630   188874219.302       -1382.181          45.750    36271328.110   146049595.758       -1068.875          32.500  
G30  21252689.263   111683669.936         976.080          46.500  
R24  24100228.218                       -4347.294          21.500  
C38  39267788.109   204477678.100        1349.143          42.000                                                                  
R17  19924419.339   106619590.132       -2861.844          48.250  
J07  36425734.778   191418534.194        -356.893          38.000  
E13  23968704.087   125956432.400        1521.810          45.250    23968728.047    94058486.981        1136.377          44.500  
E30  25780595.104   135477905.538       -1194.174          45.000    25780623.724   101168653.503        -891.623          39.750  
E15  23907402.593   125634265.768       -1263.469          46.000    23907426.517    93817898.142        -943.555          46.250  
E21  26703344.054   140327075.150        1479.932          39.000    26703374.035   104789849.224        1105.107          37.750  
E19  27777350.334                        -919.371          23.250    27777391.519   109004438.276        -685.797          32.000  
C01  37365379.171   194571346.760        -330.974          42.750    37365395.660   150454979.470        -255.990          33.000  
R14  20775698.180   110746133.024       -2356.456          50.000  
C26  21598287.896   112467967.488        -398.564          44.250                                                                  
R19  22295747.667   119267243.775        3035.313          35.750  
C06  36044238.199   187691795.612       -1390.617          44.250    36044250.291   145135249.643       -1075.469          33.250  
C24  23156851.757   120583828.790        2077.505          44.750                                                                  
C09  36055390.241   187749873.812        -874.039          41.000    36055406.050   145180170.560        -675.715          36.750  
C03  36112098.637   188045180.334        -328.341          43.500    36112110.847   145408513.916        -253.758          33.000  
C35  22623850.286   117808315.317       -2356.923          44.500                                                                  
C07  36548523.356   190317754.017        -501.903          41.000    36548535.807   147165813.191        -388.102          33.250  
R18  19475167.630   103959809.025         594.161          48.250  
C10  37300727.494   194234681.867        -494.297          40.000    37300745.042   150194646.854        -382.272          34.750  
E07  27795978.681   146068850.844       -2244.716          39.250    27796008.144   109077492.276       -1676.371          30.000  
G14  22980102.681   120761306.202        2204.252          41.250  
J02  38945247.035   204658659.893         582.382          43.250  
G07  20329837.425   106834020.826       -1116.853          45.250  
G08  23069830.070   121232734.579       -2657.376          42.750  
R16  22581935.286   120628631.094        3351.118          43.500  
G09  24922879.107                       -2198.635          24.000  
E26  28008814.800   147187332.613        2649.055          28.500                                                                  
J03  37963496.708   199499542.405       -1116.500          42.500  
J04  36435668.758   191470742.006        -466.811          35.500  
C12  22891052.665   119199753.501        1035.014          43.750    22891070.568    92172906.816         800.436          37.000  
G02  20503033.301   107744185.599       -1600.554          45.750  
> 2025 01 06 09 05 12.0000000  0 43                     
G17  22670726.125   119135470.471         807.779          44.000  
C04  38534730.279   200660454.967        -318.066          42.250                                                                  
G21  21202403.287   111419374.823       -3065.918          43.250  
E27  24157331.629   126947652.829         436.594          43.500    24157353.042    94798675.798         326.015          42.500  
G03  23779179.615   124960435.805        2173.322          44.500  
R15  19528102.180   104352290.715        1119.055          46.750  
E29  27103829.178   142431582.622       -2001.948          36.000    27103864.514   106361374.329       -1495.036          42.250  
E34  27706542.083   145598960.517       -3038.597          31.500    27706564.001   108726513.580       -2268.197          28.250  
C16  36271576.001   188875601.556       -1382.332          45.750    36271593.661   146050664.612       -1068.937          32.000  
G30  21252503.531   111682694.169         975.500          46.500  
R24  24101039.030                       -4346.718          19.500  
C38  39267529.013   204476328.899        1349.243          41.750                                                                  
R17  19924954.089   106622452.347       -2862.499          48.250  
J07  36425802.747   191418891.144        -356.979          38.250  
E13  23968414.556   125954910.866        1521.389          45.250    23968438.519    94057350.775        1136.068          44.500  
E30  25780822.394   135479099.830       -1194.319          45.000    25780850.874   101169545.358        -891.900          39.750  
E15  23907643.136   125635529.584       -1263.989          46.250    23907666.989    93818841.902        -943.990          46.250  
E21  26703062.333   140325595.265        1479.881          39.250    26703092.414   104788744.118        1105.254          38.000  
E19  27777524.584                        -917.883          23.000    27777566.596   109005124.291        -685.896          32.250  
C01  37365442.753   194571677.877        -331.112          43.000    37365459.877   150455235.488        -255.920          33.250  
R14  20776140.241   110748489.785       -2357.098          50.000  
C26  21598364.473   112468366.307        -399.120          44.250                                                                  
R19  22295180.445   119264208.748        3034.846          35.500  
C06  36044505.247   187693186.336       -1390.910          44.250    36044517.506   145136325.032       -1075.458          33.500  
C24  23156452.912   120581751.471        2077.223          44.750                                                                  
C09  36055558.363   187750748.001        -874.260          41.000    36055573.857   145180846.534        -676.068          36.500  
C03  36112161.790   188045508.717        -328.440          43.500    36112173.320   145408767.877        -253.915          33.250  
C35  22624302.990   117810672.281       -2357.054          44.750                                                                  
C07  36548619.665   190318255.930        -501.763          41.000    36548632.360   147166201.298        -388.028          33.250  
R18  19475056.357   103959215.257         593.417          48.250  
C10  37300822.527   194235176.183        -494.297          40.000    37300839.435   150195029.084        -382.108          34.750  
E07  27796405.960   146071095.358       -2244.326          39.250    27796435.134   109079168.396       -1676.606          30.000  
G14  22979683.234   120759102.044        2204.209          41.000  
J02  38945136.263   204658077.620         582.303          43.250  
G07  20330050.103   106835138.114       -1117.608          45.250  
G08  23070335.724   121235391.937       -2657.324          42.750  
R16  22581308.070   120625280.064        3351.092          43.250  
G09  24923297.664                       -2200.067          24.500  
E26  28008310.777   147184683.530        2649.170          28.500                                                                  
J03  37963709.088   199500658.997       -1116.575          42.500  
J04  36435757.327   191471208.957        -467.157          35.750  
C12  22890854.060   119198718.673        1034.645          43.750    22890871.998    92172106.636         799.982          36.750  
G02  20503337.888   107745786.451       -1601.120          45.750  
> 2025 01 06 09 05 13.0000000  0 42                     
G17  22670572.461   119134662.894         807.404          43.750  
C04  38534791.321   200660773.147        -318.330          42.250                                                                  
G21  21202986.741   111422440.997       -3066.494          43.000  
E27  24157248.621   126947216.351         436.328          43.500    24157269.957    94798349.864         325.842          42.750  
G03  23778766.094   124958262.482        2173.265          44.250  
R15  19527892.808   104351171.994        1118.325          46.500  
E29  27104210.143   142433584.817       -2002.331          36.000    27104245.498   106362869.474       -1495.256          42.250  
E34  27707119.818   145601998.983       -3038.615          31.000    27707142.084   108728782.645       -2269.342          28.750  
C16  36271841.470   188876984.043       -1382.744          45.750    36271858.835   146051733.636       -1069.493          32.250  
G30  21252317.930   111681719.078         974.718          46.250  
C38  39267269.833   204474979.725        1349.099          42.000                                                                  
R17  19925489.146   106625315.159       -2863.161          48.250  
J07  36425870.544   191419248.177        -357.176          38.250  
E13  23968125.133   125953389.790        1520.896          45.250    23968149.099    94056214.905        1135.730          44.500  
E30  25781049.760   135480294.373       -1194.638          45.000    25781078.202   101170437.383        -892.260          40.000  
E15  23907883.665   125636793.916       -1264.725          46.250    23907907.580    93819786.037        -944.365          46.250  
E21  26702780.669   140324115.369        1479.858          38.750    26702810.788   104787639.009        1105.092          38.000  
E19  27777699.473                        -917.994          23.750    27777741.443   109005810.590        -686.367          32.250  
C01  37365506.344   194572009.074        -331.345          43.000    37365523.182   150455491.626        -256.110          33.250  
R14  20776582.576   110750847.241       -2357.928          50.000  
C26  21598441.242   112468765.666        -399.699          44.500                                                                  
R19  22294612.890   119261174.260        3034.324          35.500  
C06  36044772.366   187694577.299       -1391.102          44.250    36044784.806   145137400.617       -1075.642          33.000  
C24  23156054.153   120579674.433        2076.756          44.750                                                                  
C09  36055726.474   187751622.448        -874.615          41.000    36055741.822   145181522.725        -676.364          37.000  
C03  36112225.081   188045837.179        -328.621          43.750    36112236.271   145409021.847        -254.094          33.250  
C35  22624755.771   117813029.508       -2357.380          44.750                                                                  
C07  36548715.901   190318757.889        -502.059          41.250    36548728.485   147166589.428        -387.914          33.250  
R18  19474945.214   103958622.329         592.380          48.250  
C10  37300917.574   194235670.511        -494.414          40.000    37300934.647   150195411.328        -382.262          34.750  
E07  27796833.129   146073339.737       -2244.471          39.000    27796862.283   109080844.347       -1675.648          30.000  
G14  22979263.712   120756897.924        2204.060          41.000  
J02  38945025.402   204657495.345         582.219          43.250  
G07  20330262.851   106836256.119       -1118.474          45.250  
G08  23070841.597   121238049.315       -2657.461          42.750  
R16  22580680.833   120621929.104        3350.771          43.000  
G09  24923716.212                       -2198.610          24.500  
E26  28007806.440   147182034.578        2648.860          28.000                                                                  
J03  37963921.599   199501775.698       -1116.834          42.500  
J04  36435846.192   191471675.914        -467.111          35.250  
C12  22890655.488   119197684.309        1034.138          43.750    22890673.505    92171306.815         799.626          37.000  
G02  20503642.586   107747387.950       -1601.929          46.000  
> 2025 01 06 09 05 14.0000000  0 42                     
G17  22670418.934   119133855.604         807.121          43.750  
C04  38534852.390   200661091.373        -318.234          42.250                                                                  
G21  21203570.274   111425507.631       -3066.788          43.000  
E27  24157165.579   126946779.987         436.312          43.500    24157186.914    94798024.003         325.758          42.750  
G03  23778352.588   124956089.139        2173.246          44.750  
R15  19527683.444   104350053.848        1117.843          46.750  
E29  27104591.296   142435587.104       -2002.176          36.250    27104626.489   106364364.700       -1495.321          42.250  
E34  27707697.959   145605037.704       -3038.931          31.250    27707720.370   108731051.773       -2268.863          26.750  
C16  36272106.935   188878366.705       -1382.734          45.750    36272124.470   146052802.761       -1069.056          32.500  
G30  21252132.408   111680744.612         974.097          46.250  
C38  39267010.653   204473630.530        1349.146          41.750                                                                  
R17  19926024.226   106628178.458       -2863.530          48.000  
J07  36425938.589   191419605.246        -357.089          38.500  
E13  23967835.753   125951869.116        1520.480          45.250    23967859.721    94055079.345        1135.386          44.750  
E30  25781277.128   135481489.123       -1194.803          45.500    25781305.558   101171329.556        -892.214          40.000  
E15  23908124.278   125638058.708       -1265.040          46.250    23908148.249    93820730.527        -944.703          46.250  
E21  26702498.966   140322635.402        1479.938          39.000    26702529.118   104786533.826        1105.156          38.000  
E19  27777874.309                        -919.638          24.250    27777916.347   109006497.185        -686.599          32.250  
C01  37365570.065   194572340.297        -331.375          42.500    37365586.679   150455747.739        -256.426          33.500  
R14  20777024.783   110753205.348       -2358.433          50.250  
C26  21598518.179   112469165.504        -400.087          44.500                                                                  
R19  22294044.931   119258140.262        3033.765          35.500  
C06  36045039.477   187695968.442       -1391.250          44.250    36045051.637   145138476.328       -1075.747          33.750  
C24  23155655.255   120577597.616        2076.713          44.500                                                                  
C09  36055894.430   187752497.105        -874.680          41.000    36055909.694   145182199.052        -676.504          37.000  
C03  36112288.243   188046165.665        -328.447          43.500    36112299.706   145409275.868        -254.098          33.250  
C35  22625208.474   117815386.923       -2357.487          44.750                                                                  
C07  36548812.210   190319259.791        -501.878          41.000    36548825.023   147166977.522        -387.930          33.250  
R18  19474834.356   103958030.202         591.700          48.000  
C10  37301012.446   194236164.794        -494.341          40.250    37301029.222   150195793.541        -382.431          34.750  
E07  27797260.240   146075583.919       -2244.177          39.000    27797289.424   109082520.195       -1675.476          29.000  
G14  22978844.520   120754693.775        2204.137          41.250  
J02  38944914.459   204656913.038         582.306          43.500  
G07  20330475.649   106837374.797       -1119.026          45.250  
G08  23071347.045   121240706.643       -2657.396          42.750  
R16  22580053.545   120618578.141        3350.949          43.250  
G09  24924133.571                       -2199.044          23.500  
E26  28007302.261   147179385.695        2648.544          27.250                                                                  
J03  37964134.184   199502892.460       -1116.795          42.500  
J04  36435935.091   191472142.882        -467.113          35.750  
C12  22890456.998   119196650.344        1033.901          44.000    22890475.309    92170507.290         799.404          37.250  
G02  20503947.433   107748990.050       -1602.415          46.000  
> 2025 01 06 09 05 15.0000000  0 42                     
G17  22670265.327   119133048.645         806.807          44.000  
C04  38534913.410   200661409.658        -318.389          42.750                                                                  
G21  21204154.057   111428574.798       -3067.479          43.000  
E27  24157082.526   126946343.769         436.186          43.250    24157103.913    94797698.261         325.699          42.750  
G03  23777939.010   124953915.824        2173.363          44.750  
R15  19527474.243   104348936.320        1117.257          46.500  
E29  27104972.504   142437589.572       -2002.368          36.500    27105007.534   106365860.045       -1495.395          42.250  
E34  27708276.556   145608076.560       -3038.823          31.500    27708297.956   108733321.169       -2270.126          28.000  
C16  36272372.480   188879749.619       -1383.067          45.750    36272390.122   146053872.140       -1069.771          32.250  
G30  21251947.068   111679770.810         973.452          46.250  
C38  39266751.622   204472281.351        1349.163          42.000                                                                  
R17  19926559.533   106631042.315       -2864.136          47.750  
J07  36426006.274   191419962.389        -357.242          38.250  
E13  23967546.354   125950348.892        1519.952          45.000    23967570.437    94053944.116        1135.115          44.750  
E30  25781504.568   135482684.116       -1195.066          45.750    25781532.992   101172221.923        -892.495          40.500  
E15  23908365.089   125639324.026       -1265.575          46.000    23908389.040    93821675.409        -945.083          46.250  
E21  26702217.348   140321155.407        1480.040          39.000    26702247.423   104785428.656        1105.225          38.000  
E19  27778049.056                        -920.432          25.000    27778091.590   109007184.045        -687.152          32.000  
C01  37365633.620   194572671.581        -331.440          43.000    37365650.328   150456003.892        -256.034          33.750  
R14  20777467.326   110755564.165       -2359.151          50.250  
C26  21598595.146   112469565.900        -400.658          44.250                                                                  
R19  22293477.774   119255106.785        3033.087          35.500  
C06  36045306.630   187697359.819       -1391.488          44.250    36045318.573   145139552.218       -1075.908          33.250  
C24  23155256.594   120575521.092        2076.422          44.250                                                                  
C09  36056062.393   187753372.020        -874.981          41.000    36056077.966   145182875.617        -676.804          37.000  
C03  36112351.467   188046494.233        -328.555          43.500    36112362.970   145409529.944        -254.008          33.500  
C35  22625661.266   117817744.599       -2357.817          44.500                                                                  
C07  36548908.440   190319761.715        -501.963          41.000    36548921.189   147167365.656        -388.109          33.500  
R18  19474723.653   103957438.928         590.862          48.000  
C10  37301107.437   194236659.137        -494.358          39.750    37301124.456   150196175.802        -382.284          35.000  
E07  27797687.395   146077827.955       -2244.073          39.500    27797716.452   109084195.935       -1675.097          28.500  
G14  22978425.315   120752489.667        2204.073          41.250  
J02  38944803.623   204656330.736         582.300          43.500  
G07  20330688.638   106838494.198       -1119.771          45.500  
G08  23071852.654   121243363.987       -2657.292          42.750  
R16  22579426.394   120615227.250        3350.814          43.250  
G09  24924552.424                       -2198.808          25.000  
E26  28006797.447   147176736.948        2648.732          27.250                                                                  
J03  37964346.728   199504009.334       -1116.849          42.500  
J04  36436023.859   191472609.899        -467.045          36.000  
C12  22890258.610   119195616.855        1033.360          44.000    22890276.950    92169708.121         799.135          37.250  
G02  20504252.417   107750592.804       -1603.065          46.000  
> 2025 01 06 09 05 16.0000000  0 42                     
G17  22670111.900   119132241.888         806.870          43.250  
C04  38534974.581   200661727.912        -318.042          42.500                                                                  
G21  21204737.828   111431642.365       -3067.500          43.000  
E27  24156999.528   126945907.611         436.405          43.500    24157020.938    94797372.549         325.927          42.750  
G03  23777525.375   124951742.426        2173.574          44.500  
R15  19527265.124   104347819.292        1117.078          46.500  
E29  27105353.569   142439592.125       -2002.517          36.750    27105388.562   106367355.457       -1495.333          42.250  
E34  27708855.049   145611115.651       -3038.906          35.750    27708876.174   108735590.602       -2269.488          30.250  
C16  36272638.101   188881132.636       -1382.809          45.750    36272656.211   146054941.574       -1069.408          32.500  
G30  21251761.740   111678797.562         973.123          46.250  
C38  39266492.621   204470932.107        1349.618          41.750                                                                  
R17  19927094.951   106633906.631       -2864.374          48.000  
J07  36426074.069   191420319.505        -356.901          38.250  
E13  23967257.122   125948829.025        1519.838          45.250    23967281.142    94052809.155        1134.955          44.750  
E30  25781732.019   135483879.251       -1195.108          45.500    25781760.448   101173114.371        -892.323          40.250  
E15  23908605.996   125640589.760       -1265.672          46.000    23908629.904    93822620.598        -945.237          46.250  
E21  26701935.513   140319675.302        1480.351          38.750    26701965.742   104784323.386        1105.641          38.250  
E19  27778224.156                        -921.074          25.250    27778266.533   109007871.124        -686.800          32.000  
C01  37365697.224   194573002.844        -331.156          42.750    37365713.964   150456260.079        -256.022          33.250  
R14  20777909.864   110757923.525       -2359.417          50.250  
C26  21598672.045   112469966.726        -400.843          44.250                                                                  
R19  22292911.343   119252073.729        3033.145          35.000  
C06  36045573.850   187698751.307       -1391.410          44.250    36045585.766   145140628.234       -1075.856          33.250  
C24  23154857.940   120573444.748        2076.448          44.750                                                                  
C09  36056230.432   187754247.095        -874.804          41.000    36056246.251   145183552.278        -676.624          36.750  
C03  36112414.575   188046822.777        -328.291          43.500    36112426.105   145409783.997        -253.970          33.500  
C35  22626114.031   117820102.429       -2357.671          44.750                                                                  
C07  36549004.845   190320263.564        -501.670          41.000    36549017.787   147167753.730        -387.975          33.000  
R18  19474612.838   103956848.376         590.396          48.000  
C10  37301202.490   194237153.371        -493.892          40.000    37301219.634   150196557.983        -382.137          34.750  
E07  27798114.293   146080071.760       -2243.526          39.250    27798143.347   109085871.509       -1675.039          29.250  
G14  22978005.624   120750285.483        2204.320          41.250  
J02  38944692.781   204655748.330         582.698          43.500  
G07  20330901.673   106839614.217       -1120.146          45.250  
G08  23072358.301   121246021.228       -2657.019          43.500  
R16  22578799.293   120611876.330        3351.129          43.500  
G09  24924970.283                       -2197.875          25.000  
E26  28006293.673   147174088.190        2648.930          27.250                                                                  
J03  37964559.240   199505126.222       -1116.680          42.750  
J04  36436112.940   191473076.862        -466.869          35.500  
C12  22890060.349   119194583.718        1033.190          43.750    22890078.394    92168909.230         798.848          37.250  
G02  20504557.527   107752196.105       -1603.321          46.000  
> 2025 01 06 09 05 17.0000000  0 42                     
G17  22669958.510   119131435.342         806.438          43.000  
C04  38535035.780   200662046.103        -318.147          42.500                                                                  
G21  21205321.678   111434710.334       -3068.295          43.000  
E27  24156916.498   126945471.456         436.096          43.500    24156937.973    94797046.871         325.556          42.750  
G03  23777111.651   124949568.920        2173.502          44.500  
R15  19527056.117   104346702.727        1116.260          46.500  
E29  27105734.708   142441594.670       -2002.654          36.500    27105769.642   106368850.892       -1495.449          42.250  
E34  27709433.508   145614154.748       -3039.081          34.750    27709454.427   108737860.102       -2269.869          27.500  
C16  36272903.644   188882515.772       -1383.266          45.500    36272922.279   146056011.095       -1069.601          32.750  
G30  21251576.619   111677824.840         972.477          46.000  
C38  39266233.458   204469582.754        1349.336          41.750                                                                  
R17  19927630.467   106636771.374       -2864.984          48.000  
J07  36426141.911   191420676.572        -357.079          38.250  
E13  23966967.888   125947309.464        1519.192          45.000    23966991.926    94051674.420        1134.501          44.750  
E30  25781959.444   135485074.489       -1195.341          45.500    25781987.998   101174006.943        -892.742          40.250  
E15  23908846.965   125641855.879       -1266.385          46.250    23908870.845    93823566.079        -945.743          46.250  
E21  26701653.697   140318195.059        1480.225          39.000    26701684.093   104783218.020        1105.193          38.000  
E19  27778398.491                        -920.094          25.000    27778441.583   109008558.429        -687.593          32.000  
C01  37365760.775   194573334.034        -331.255          42.500    37365777.577   150456516.152        -256.129          33.500  
R14  20778352.600   110760283.382       -2360.223          50.250  
C26  21598749.031   112470367.961        -401.556          44.250                                                                  
R19  22292344.727   119249041.076        3032.688          35.250  
C06  36045841.136   187700142.908       -1391.684          44.250    36045853.044   145141704.289       -1075.996          33.000  
C24  23154459.210   120571368.551        2076.052          44.500                                                                  
C09  36056398.344   187755122.309        -875.466          41.000    36056414.163   145184229.020        -676.930          37.000  
C03  36112477.665   188047151.260        -328.459          43.500    36112489.463   145410038.004        -254.000          33.750  
C35  22626566.848   117822460.363       -2358.042          44.750                                                                  
C07  36549101.150   190320765.292        -501.644          41.000    36549113.228   147168141.693        -387.803          33.500  
R18  19474502.310   103956258.517         589.465          48.000  
C10  37301297.432   194237647.490        -493.992          40.250    37301314.640   150196940.047        -381.975          35.000  
E07  27798541.141   146082315.264       -2243.559          39.250    27798570.245   109087546.836       -1675.130          29.250  
G14  22977586.060   120748081.191        2204.328          41.000  
J02  38944582.069   204655165.795         582.466          43.500  
G07  20331114.802   106840734.811       -1120.916          45.000  
G08  23072863.959   121248678.342       -2657.165          43.000  
R16  22578171.937   120608525.364        3351.034          43.750  
G09  24925388.416                       -2197.242          26.000  
E26  28005789.718   147171439.406        2648.486          27.250                                                                  
J03  37964771.661   199506243.076       -1116.867          42.750  
J04  36436201.668   191473543.729        -466.836          36.000  
C12  22889861.970   119193550.908        1032.572          43.750    22889879.878    92168110.614         798.432          37.250  
G02  20504862.755   107753799.931       -1604.161          46.000  
> 2025 01 06 09 05 18.0000000  0 42                     
G17  22669805.139   119130629.132         806.077          43.250  
C04  38535097.064   200662364.406        -318.305          42.250                                                                  
G21  21205905.539   111437778.838       -3068.792          43.000  
E27  24156833.519   126945035.487         435.906          43.250    24156854.969    94796721.297         325.516          42.750  
G03  23776697.887   124947395.458        2173.473          44.750  
R15  19526847.179   104345586.794        1115.569          46.500  
E29  27106115.663   142443597.440       -2002.859          36.500    27106150.752   106370346.452       -1495.618          42.250  
E34  27710011.820   145617194.172       -3039.638          34.500    27710032.620   108740129.787       -2269.604          29.000  
C16  36273169.283   188883899.158       -1383.514          45.500    36273187.620   146057080.800       -1069.781          32.250  
G30  21251391.624   111676852.819         971.751          46.000  
C38  39265974.281   204468233.425        1349.379          42.000                                                                  
R17  19928165.991   106639636.719       -2865.649          48.000  
J07  36426209.746   191421033.736        -357.412          38.000  
E13  23966678.735   125945790.361        1518.871          44.750    23966702.834    94050540.040        1134.166          45.000  
E30  25782186.909   135486270.002       -1195.583          45.500    25782215.526   101174899.684        -892.794          40.250  
E15  23909087.974   125643122.532       -1266.913          45.750    23909111.922    93824511.954        -946.163          46.500  
E21  26701372.031   140316714.793        1480.275          39.000    26701402.407   104782112.621        1105.404          38.000  
E19  27778573.904                        -920.908          23.750    27778616.953   109009245.979        -687.340          32.750  
C01  37365824.254   194573665.334        -331.317          42.250    37365841.293   150456772.345        -256.325          33.500  
R14  20778795.474   110762643.910       -2360.903          50.250  
C26  21598826.128   112470769.751        -402.066          44.500                                                                  
R19  22291777.798   119246008.966        3031.850          35.250  
C06  36046108.325   187701534.752       -1391.913          44.000    36046120.762   145142780.565       -1076.143          33.250  
C24  23154060.620   120569292.659        2075.753          44.500                                                                  
C09  36056566.423   187755997.775        -875.638          41.000    36056582.388   145184905.994        -677.203          37.000  
C03  36112540.827   188047479.850        -328.706          43.500    36112552.258   145410292.052        -253.936          33.250  
C35  22627019.725   117824818.563       -2358.287          44.750                                                                  
C07  36549197.346   190321267.066        -501.780          41.000    36549210.005   147168529.709        -387.854          33.250  
R18  19474392.078   103955669.514         588.634          48.000  
C10  37301392.257   194238141.669        -494.249          40.000    37301409.767   150197322.182        -382.188          35.000  
E07  27798967.947   146084558.644       -2243.353          39.500    27798997.231   109089222.112       -1675.244          29.500  
G14  22977166.598   120745876.953        2204.266          40.750  
J02  38944471.332   204654583.296         582.426          43.500  
G07  20331328.237   106841856.154       -1121.689          45.000  
G08  23073369.707   121251335.499       -2657.154          43.000  
R16  22577544.824   120605174.508        3350.729          43.750  
G09  24925807.501                       -2197.027          25.750  
E26  28005286.050   147168790.761        2648.227          27.250                                                                  
J03  37964984.255   199507360.067       -1117.016          42.500  
J04  36436290.514   191474010.657        -466.813          35.750  
C12  22889663.712   119192518.572        1032.062          43.750    22889681.518    92167312.349         797.933          37.000  
G02  20505168.097   107755404.428       -1604.850          46.250  
> 2025 01 06 09 05 19.0000000  0 43                     
G17  22669651.699   119129823.276         805.392          43.500  
C04  38535158.177   200662682.814        -318.741          42.250                                                                  
G21  21206489.451   111440847.875       -3069.476          43.000  
E27  24156750.543   126944599.685         435.491          43.500    24156771.996    94796395.861         325.270          42.750  
G03  23776284.143   124945222.031        2173.208          44.750  
R15  19526638.347   104344471.539        1114.717          46.500  
E29  27106496.855   142445600.395       -2003.174          36.250    27106531.902   106371842.180       -1496.024          42.250  
E34  27710590.322   145620233.775       -3040.276          34.500    27710611.267   108742399.618       -2269.342          29.250  
C16  36273435.025   188885282.799       -1384.002          45.500    36273453.255   146058150.743       -1070.118          32.250  
G30  21251206.705   111675881.490         970.724          46.000  
R24  24106730.480                       -4349.569          22.250  
C38  39265715.315   204466884.182        1348.868          42.000                                                                  
R17  19928701.633   106642502.660       -2866.476          48.250  
J07  36426277.774   191421391.012        -357.663          38.250  
E13  23966389.740   125944271.758        1518.016          44.750    23966413.800    94049406.018        1133.538          44.750  
E30  25782414.475   135487465.796       -1196.216          45.500    25782443.163   101175792.658        -893.380          40.500  
E15  23909329.120   125644389.725       -1267.703          45.750    23909353.076    93825458.231        -946.644          46.500  
E21  26701090.497   140315234.566        1479.800          38.750    26701120.690   104781007.262        1105.088          38.000  
E19  27778749.442                        -920.884          25.250    27778792.400   109009933.913        -688.323          33.000  
C01  37365887.729   194573996.743        -331.692          42.500    37365905.076   150457028.624        -256.631          33.250  
R14  20779238.464   110765005.164       -2361.936          50.500  
C26  21598903.430   112471172.118        -402.918          44.250                                                                  
R19  22291210.826   119242977.425        3030.941          35.250  
C06  36046375.692   187702926.860       -1392.440          44.000    36046388.221   145143857.022       -1076.697          33.500  
C24  23153662.123   120567217.075        2075.271          44.500                                                                  
C09  36056734.520   187756873.531        -876.027          41.000    36056750.518   145185583.187        -677.452          37.000  
C03  36112604.011   188047808.520        -328.919          43.500    36112615.429   145410546.222        -254.270          33.000  
C35  22627472.716   117827177.051       -2358.814          44.500                                                                  
C07  36549293.709   190321768.894        -502.125          41.000    36549306.189   147168917.735        -388.255          33.000  
R18  19474281.824   103955081.404         587.364          48.000  
C10  37301487.147   194238635.869        -494.373          40.000    37301504.664   150197704.336        -382.292          34.750  
E07  27799395.012   146086801.928       -2243.540          39.250    27799424.184   109090897.329       -1675.443          29.500  
G14  22976747.218   120743672.769        2203.981          40.750  
J02  38944360.403   204654000.828         582.153          43.250  
G07  20331541.737   106842978.237       -1122.732          45.250  
G08  23073875.339   121253992.690       -2657.525          43.500  
R16  22576917.389   120601823.690        3350.455          43.750  
G09  24926227.489                       -2197.252          26.500  
E26  28004781.859   147166142.279        2648.625          26.000                                                                  
J03  37965196.803   199508477.193       -1117.452          42.750  
J04  36436379.360   191474477.672        -467.188          35.750  
C12  22889465.621   119191486.729        1031.308          44.000    22889483.503    92166514.463         797.547          37.250  
G02  20505473.555   107757009.599       -1605.742          46.250  
> 2025 01 06 09 05 20.0000000  0 43                     
G17  22669498.319   119129017.790         805.395          43.250  
C04  38535219.362   200663001.349        -318.506          42.250                                                                  
G21  21207073.540   111443917.511       -3069.776          42.750  
E27  24156667.676   126944164.098         435.552          43.250    24156689.087    94796070.586         325.246          43.000  
G03  23775870.486   124943048.702        2173.438          44.750  
R15  19526429.800   104343356.985        1114.323          46.750  
E29  27106877.887   142447603.573       -2003.042          36.750    27106913.063   106373338.057       -1495.881          42.500  
E34  27711168.873   145623273.692       -3040.214          34.250    27711189.725   108744669.737       -2269.657          29.500  
C16  36273700.839   188886666.743       -1383.884          45.750    36273718.741   146059220.906       -1070.005          32.250  
G30  21251022.082   111674910.883         970.385          46.000  
R24  24107540.304                       -4349.782          23.750  
C38  39265456.204   204465534.994        1349.305          41.750                                                                  
R17  19929237.272   106645369.249       -2866.806          48.000  
J07  36426345.758   191421748.400        -357.395          38.000  
E13  23966100.710   125942753.652        1517.963          44.750    23966124.869    94048272.369        1133.475          44.750  
E30  25782642.127   135488661.888       -1195.957          45.500    25782670.834   101176685.844        -893.243          40.500  
E15  23909570.383   125645657.498       -1267.963          45.750    23909594.294    93826404.945        -946.778          46.500  
E21  26700808.758   140313754.378        1480.023          38.750    26700839.029   104779901.909        1105.550          38.000  
E19  27778925.436                        -922.197          25.000    27778967.558   109010622.128        -688.037          33.000  
C01  37365951.293   194574328.282        -331.392          42.750    37365968.591   150457284.986        -256.494          33.250  
R14  20779681.621   110767367.207       -2362.302          50.500  
C26  21598980.789   112471575.093        -403.082          44.500                                                                  
R19  22290644.568   119239946.488        3030.769          35.250  
C06  36046642.999   187704319.260       -1392.376          44.250    36046655.552   145144933.699       -1076.391          33.250  
C24  23153263.587   120565141.850        2075.203          44.500                                                                  
C09  36056902.803   187757749.626        -876.120          41.000    36056918.439   145186260.611        -677.502          36.750  
C03  36112667.141   188048137.334        -328.641          43.500    36112678.944   145410800.481        -254.102          33.250  
C35  22627925.798   117829535.839       -2358.772          44.750                                                                  
C07  36549390.028   190322270.772        -501.666          41.000    36549402.505   147169305.847        -388.265          33.250  
R18  19474171.663   103954494.204         586.955          48.000  
C10  37301582.104   194239130.172        -494.167          39.750    37301599.589   150198086.565        -382.218          34.750  
E07  27799821.896   146089045.101       -2243.074          39.250    27799851.120   109092572.394       -1674.750          29.250  
G14  22976327.802   120741468.687        2204.319          41.250  
J02  38944249.607   204653418.428         582.524          43.500  
G07  20331755.424   106844101.107       -1123.073          45.250  
G08  23074380.953   121256649.948       -2657.101          43.250  
R16  22576289.931   120598472.981        3350.820          43.750  
G09  24926646.632                       -2196.672          27.000  
E26  28004278.042   147163493.977        2648.150          27.000                                                                  
J03  37965409.487   199509594.488       -1117.192          42.750  
J04  36436468.313   191474944.797        -466.963          35.750  
C12  22889267.636   119190455.400        1031.140          44.000    22889285.368    92165716.972         797.461          37.000  
G02  20505779.041   107758615.478       -1606.082          46.250  
> 2025 01 06 09 05 21.0000000  0 42                     
G17  22669345.253   119128212.545         805.048          43.000  
C04  38535280.615   200663319.860        -318.822          42.500                                                                  
G21  21207657.900   111446987.564       -3070.461          42.750  
E27  24156584.803   126943728.560         435.277          43.000    24156606.246    94795745.351         325.021          43.000  
G03  23775456.891   124940875.301        2173.311          44.750  
R15  19526221.476   104342242.957        1113.641          46.500  
E29  27107259.261   142449606.788       -2003.377          37.250    27107294.270   106374833.991       -1496.097          42.500  
E34  27711747.315   145626313.726       -3040.547          34.500    27711768.482   108746939.922       -2270.807          29.250  
C16  36273966.684   188888050.806       -1384.284          45.500    36273984.170   146060291.106       -1069.942          32.250  
G30  21250837.471   111673940.833         969.619          45.750  
C38  39265197.214   204464185.746        1349.000          42.000                                                                  
R17  19929773.030   106648236.301       -2867.475          48.000  
J07  36426413.934   191422105.791        -357.529          38.250  
E13  23965811.870   125941235.906        1517.335          44.750    23965836.045    94047138.984        1133.088          45.000  
E30  25782869.748   135489858.131       -1196.453          45.500    25782898.404   101177579.125        -893.390          40.500  
E15  23909811.766   125646925.683       -1268.569          45.750    23909835.637    93827351.975        -947.377          46.500  
E21  26700526.985   140312274.026        1480.257          38.750    26700557.297   104778796.509        1105.283          37.750  
E19  27779101.685                        -922.697          23.750    27779142.981   109011310.561        -688.494          32.750  
C01  37366014.888   194574659.796        -331.575          42.500    37366032.294   150457541.352        -256.768          33.500  
R14  20780124.814   110769729.818       -2363.134          50.500  
C26  21599058.407   112471978.498        -403.830          44.500                                                                  
R19  22290078.861   119236915.961        3030.284          35.000  
C06  36046910.335   187705711.771       -1392.788          44.250    36046923.519   145146010.492       -1077.090          33.250  
C24  23152865.187   120563066.803        2074.746          44.750                                                                  
C09  36057070.965   187758625.859        -876.496          41.000    36057087.006   145186938.189        -677.774          37.000  
C03  36112730.321   188048466.137        -328.972          43.500    36112742.177   145411054.739        -254.137          33.250  
C35  22628378.928   117831894.779       -2359.228          45.000                                                                  
C07  36549486.328   190322772.579        -501.774          41.000    36549498.834   147169693.861        -388.246          33.000  
R18  19474061.928   103953907.740         585.962          48.000  
C10  37301676.954   194239624.398        -494.328          39.750    37301694.396   150198468.738        -382.472          34.750  
E07  27800248.654   146091288.033       -2243.104          39.250    27800277.946   109094247.330       -1675.001          29.250  
G14  22975908.517   120739264.534        2203.953          41.000  
J02  38944138.808   204652835.937         582.310          43.500  
G07  20331969.291   106845224.596       -1124.043          45.000  
G08  23074886.750   121259307.122       -2657.230          43.250  
R16  22575663.083   120595122.326        3350.468          41.250  
G09  24927064.988                       -2196.354          26.500  
E26  28003773.504   147160845.618        2649.166          26.500                                                                  
J03  37965622.103   199510711.791       -1117.484          42.750  
J04  36436556.985   191475411.882        -467.100          36.000  
C12  22889069.594   119189424.425        1030.574          43.750    22889087.594    92164919.764         797.043          37.250  
G02  20506084.721   107760221.907       -1606.900          46.000  
> 2025 01 06 09 05 22.0000000  0 43                     
G17  22669192.109   119127407.409         805.116          43.000  
C04  38535342.015   200663638.220        -318.357          42.500                                                                  
G21  21208242.112   111450057.906       -3070.454          42.750  
E27  24156501.964   126943292.955         435.565          43.250    24156523.382    94795420.064         325.240          43.000  
G03  23775043.251   124938701.701        2173.579          44.500  
R15  19526013.069   104341129.312        1113.508          46.250  
E29  27107640.473   142451610.000       -2003.414          37.250    27107675.499   106376329.881       -1495.854          42.500  
E34  27712325.854   145629353.762       -3040.064          34.500    27712347.169   108749210.114       -2270.407          30.000  
C16  36274232.484   188889434.893       -1384.201          45.750    36274249.963   146061361.394       -1070.357          32.500  
G30  21250653.067   111672971.250         969.329          45.750  
R24  24109161.071                       -4347.803          24.250  
C38  39264938.063   204462836.307        1349.330          41.750                                                                  
R17  19930309.002   106651103.713       -2867.694          48.000  
J07  36426481.947   191422463.030        -357.297          38.250  
E13  23965523.169   125939718.381        1517.365          44.750    23965547.325    94046005.775        1133.099          45.000  
E30  25783097.434   135491054.404       -1196.411          45.750    25783126.049   101178472.451        -893.499          40.250  
E15  23910053.153   125648194.179       -1268.755          46.000    23910077.035    93828299.221        -947.483          46.500  
E21  26700245.283   140310793.475        1480.678          37.250    26700275.541   104777690.878        1105.718          38.750  
E19  27779276.847                        -922.400          23.750    27779318.364   109011999.128        -688.643          33.250  
C01  37366078.546   194574991.180        -331.387          42.500    37366096.059   150457797.576        -256.507          33.750  
R14  20780568.145   110772092.827       -2363.316          50.500  
C26  21599135.865   112472382.226        -403.907          44.250                                                                  
R19  22289512.264   119233885.764        3029.942          34.750  
C06  36047177.721   187707104.309       -1392.644          44.250    36047190.691   145147087.300       -1077.029          33.500  
C24  23152466.792   120560991.808        2074.934          45.250                                                                  
C09  36057239.111   187759502.133        -876.303          41.000    36057255.295   145187615.780        -677.746          36.750  
C03  36112793.321   188048794.788        -328.681          43.500    36112805.665   145411308.865        -254.007          33.750  
C35  22628832.116   117834253.756       -2358.979          44.750                                                                  
C07  36549582.501   190323274.205        -501.598          40.750    36549594.748   147170081.741        -387.952          33.000  
R18  19473952.117   103953321.890         585.523          48.000  
C10  37301771.828   194240118.411        -493.971          39.750    37301789.082   150198850.734        -382.028          34.750  
E07  27800675.439   146093530.600       -2242.474          39.250    27800704.904   109095921.956       -1674.649          29.500  
G14  22975488.943   120737060.203        2204.423          40.250  
J02  38944028.049   204652253.229         582.728          43.750  
G07  20332183.223   106846348.575       -1124.303          44.750  
G08  23075392.279   121261964.086       -2656.900          43.000  
R16  22575035.254   120591771.411        3350.831          42.500  
G09  24927482.991                       -2195.771          25.500  
E26  28003269.647   147158197.286        2647.547          27.750                                                                  
J03  37965834.848   199511828.987       -1117.225          42.750  
J04  36436645.965   191475878.764        -466.930          36.250  
C12  22888871.573   119188393.702        1030.542          43.750    22888889.546    92164122.739         796.945          37.250  
G02  20506390.393   107761828.766       -1607.123          46.000  
> 2025 01 06 09 05 23.0000000  0 43                     
G17  22669038.847   119126602.573         804.530          42.750  
C04  38535403.115   200663956.638        -318.426          42.500                                                                  
G21  21208826.419   111453128.743       -3071.114          42.500  
E27  24156419.138   126942857.475         435.305          43.250    24156440.493    94795094.863         325.074          43.000  
G03  23774629.660   124936528.090        2173.475          44.500  
R15  19525804.885   104340016.256        1112.719          46.500  
E29  27108021.731   142453613.321       -2003.430          37.000    27108056.745   106377825.880       -1496.090          42.500  
E34  27712904.537   145632394.001       -3040.485          34.250    27712925.568   108751480.382       -2269.912          28.750  
C16  36274498.340   188890819.182       -1384.518          45.750    36274516.298   146062431.798       -1070.324          32.500  
G30  21250468.635   111672002.292         968.478          45.500  
R24  24109975.268                       -4348.214          24.750  
C38  39264678.802   204461486.852        1349.390          42.000                                                                  
R17  19930844.940   106653971.654       -2868.339          48.250  
J07  36426550.206   191422820.322        -357.411          38.500  
E13  23965234.509   125938201.291        1516.749          44.750    23965258.647    94044872.887        1132.671          45.000  
E30  25783325.101   135492250.897       -1196.691          45.750    25783353.759   101179365.922        -893.661          40.500  
E15  23910294.657   125649463.151       -1269.255          45.750    23910318.485    93829246.836        -947.886          46.500  
E21  26699963.560   140309312.901        1480.475          39.750    26699993.895   104776585.279        1105.473          39.250  
E19  27779452.528                        -922.571          24.750    27779493.971   109012688.002        -689.172          32.750  
C01  37366142.066   194575322.591        -331.584          42.250    37366159.413   150458053.829        -256.147          34.000  
R14  20781011.648   110774456.464       -2364.108          50.250  
C26  21599213.575   112472786.472        -404.618          44.250                                                                  
R19  22288945.780   119230856.075        3029.368          34.750  
C06  36047445.193   187708497.043       -1392.964          44.000    36047458.561   145148164.252       -1077.016          33.250  
C24  23152068.480   120558917.065        2074.557          44.750                                                                  
C09  36057407.622   187760378.641        -876.680          41.000    36057423.815   145188293.540        -677.976          37.000  
C03  36112856.349   188049123.480        -328.800          43.500    36112867.933   145411563.045        -254.001          33.500  
C35  22629285.201   117836612.948       -2359.356          44.500                                                                  
C07  36549678.800   190323775.829        -501.725          41.000    36549691.690   147170469.642        -387.995          33.250  
R18  19473842.592   103952736.839         584.586          47.750  
C10  37301866.716   194240612.451        -494.178          39.750    37301883.487   150199232.765        -382.351          34.750  
E07  27801102.160   146095773.016       -2242.521          39.000    27801131.449   109097596.500       -1674.941          29.500  
G14  22975069.423   120734855.886        2204.181          40.750  
J02  38943917.188   204651670.504         582.578          43.750  
G07  20332397.285   106847473.255       -1125.070          44.500  
G08  23075897.874   121264621.039       -2657.023          43.000  
R16  22574407.857   120588420.704        3350.549          45.000  
G09  24927900.945                       -2195.651          25.750  
E26  28002765.757   147155548.917        2648.064          28.000                                                                  
J03  37966047.458   199512946.267       -1117.413          42.750  
J04  36436734.802   191476345.672        -466.927          36.000  
C12  22888673.719   119187363.423        1029.906          43.500    22888691.737    92163326.080         796.343          37.500  
G02  20506696.194   107763436.249       -1607.858          45.750  
> 2025 01 06 09 05 24.0000000  0 42                     
G17  22668885.875   119125798.028         804.284          42.750  
C04  38535464.367   200664275.106        -318.564          42.500                                                                  
G21  21209410.885   111456200.070       -3071.675          42.500  
E27  24156336.233   126942422.109         435.281          43.250    24156357.626    94794769.762         325.044          43.000  
G03  23774216.052   124934354.482        2173.568          44.250  
R15  19525596.641   104338903.802        1112.091          46.750  
E29  27108403.112   142455616.784       -2003.481          37.000    27108438.043   106379321.980       -1496.233          42.500  
E34  27713483.335   145635434.430       -3040.636          34.000    27713504.499   108753750.894       -2270.633          29.000  
C16  36274764.252   188892203.664       -1384.603          45.750    36274781.899   146063502.391       -1070.582          32.250  
G30  21250284.338   111671033.975         967.841          45.500  
C38  39264419.611   204460137.403        1349.567          42.000                                                                  
R17  19931381.028   106656840.135       -2868.821          48.250  
J07  36426618.213   191423177.661        -357.360          38.750  
E13  23964945.865   125936684.617        1516.375          44.750    23964970.090    94043740.319        1132.292          45.000  
E30  25783552.815   135493447.594       -1196.857          45.750    25783581.528   101180259.571        -893.705          40.500  
E15  23910536.244   125650732.628       -1269.804          45.500    23910560.044    93830194.809        -948.190          46.750  
E21  26699681.857   140307832.267        1480.653          39.750    26699712.146   104775479.600        1105.568          39.250  
E19  27779627.950                        -923.474          26.000    27779669.542   109013377.120        -689.042          32.000  
C01  37366205.701   194575654.053        -331.525          42.500    37366223.219   150458310.170        -256.435          34.000  
R14  20781455.049   110776820.748       -2364.666          50.250  
C26  21599291.263   112473191.223        -405.052          44.250                                                                  
R19  22288378.968   119227826.840        3028.933          34.500  
C06  36047712.697   187709889.983       -1393.065          43.750    36047725.797   145149241.364       -1077.140          33.250  
C24  23151670.273   120556842.588        2074.279          45.000                                                                  
C09  36057575.927   187761255.393        -876.899          41.000    36057592.011   145188971.483        -677.976          36.750  
C03  36112919.560   188049452.226        -328.822          43.500    36112931.398   145411817.267        -254.169          33.750  
C35  22629738.226   117838972.368       -2359.577          44.750                                                                  
C07  36549775.083   190324277.435        -501.792          41.000    36549788.171   147170857.478        -387.778          33.250  
R18  19473733.084   103952152.630         583.746          47.750  
C10  37301961.633   194241106.451        -494.129          39.500    37301978.412   150199614.728        -381.928          34.750  
E07  27801528.734   146098015.242       -2242.220          39.000    27801558.002   109099270.888       -1674.312          29.500  
G14  22974649.925   120732651.548        2204.168          40.500  
J02  38943806.293   204651087.753         582.746          43.750  
G07  20332611.501   106848598.629       -1125.729          44.500  
G08  23076403.492   121267277.955       -2657.043          43.000  
R16  22573780.686   120585069.993        3350.631          45.000  
G09  24928318.429                       -2195.737          25.000  
E26  28002262.152   147152900.675        2648.127          28.250                                                                  
J03  37966259.939   199514063.626       -1117.390          42.750  
J04  36436823.734   191476812.605        -467.011          36.500  
C12  22888475.812   119186333.546        1029.715          43.250    22888494.070    92162529.724         796.174          37.500  
G02  20507002.173   107765044.355       -1608.450          45.750  
> 2025 01 06 09 05 25.0000000  0 43                     
G17  22668732.966   119124993.946         803.922          42.500  
C04  38535525.360   200664593.785        -318.722          42.250                                                                  
G21  21209995.470   111459272.054       -3072.262          42.750  
E27  24156253.483   126941987.058         434.843          43.250    24156274.760    94794444.873         324.847          42.750  
G03  23773802.453   124932181.036        2173.365          44.500  
R15  19525388.647   104337792.127        1111.307          47.000  
E29  27108784.438   142457620.538       -2003.638          37.750    27108819.426   106380818.317       -1496.376          42.500  
E34  27714061.652   145638475.242       -3040.937          33.750    27714083.129   108756021.662       -2271.023          28.750  
C16  36275030.172   188893588.537       -1384.961          45.750    36275047.878   146064573.296       -1071.229          32.000  
G30  21250100.285   111670066.460         967.156          45.500  
R24  24111597.090                       -4348.802          22.500  
C38  39264160.386   204458788.133        1349.268          41.500                                                                  
R17  19931917.169   106659709.325       -2869.571          48.250  
J07  36426686.283   191423535.232        -357.642          38.500  
E13  23964657.386   125935168.543        1515.830          44.750    23964681.643    94042608.184        1131.922          45.000  
E30  25783780.644   135494644.702       -1197.316          45.750    25783809.290   101181153.515        -894.054          40.500  
E15  23910777.917   125652002.753       -1270.430          45.750    23910801.788    93831143.286        -948.645          46.750  
E21  26699400.205   140306351.756        1480.507          39.750    26699430.462   104774374.020        1105.627          39.250  
E19  27779803.685                        -923.349          26.000    27779845.221   109014066.676        -689.535          32.750  
C01  37366269.400   194575985.731        -331.745          42.500    37366286.452   150458566.639        -256.529          34.000  
R14  20781898.659   110779185.878       -2365.438          50.000  
C26  21599369.139   112473596.665        -405.751          44.250                                                                  
R19  22287813.409   119224798.337        3028.129          34.750  
C06  36047980.212   187711283.294       -1393.383          44.000    36047992.670   145150318.757       -1077.471          33.250  
C24  23151271.988   120554768.534        2073.942          45.000                                                                  
C09  36057744.411   187762132.545        -877.365          41.000    36057760.546   145189649.773        -678.340          36.750  
C03  36112982.637   188049781.190        -329.064          43.500    36112994.596   145412071.628        -254.620          33.250  
C35  22630191.369   117841332.174       -2359.980          44.750                                                                  
C07  36549871.477   190324779.179        -501.836          41.000    36549884.628   147171245.467        -387.919          33.500  
R18  19473623.940   103951569.423         582.757          47.750  
C10  37302056.303   194241600.638        -494.297          39.750    37302073.099   150199996.886        -382.218          35.250  
E07  27801955.261   146100257.460       -2242.175          39.250    27801984.521   109100945.281       -1674.632          29.500  
G14  22974230.553   120730447.380        2204.205          40.000  
J02  38943695.510   204650505.159         582.517          43.500  
G07  20332825.803   106849724.874       -1126.661          44.750  
G08  23076908.970   121269935.034       -2657.190          43.000  
R16  22573153.680   120581719.495        3350.371          44.500  
G09  24928735.537                       -2195.987          25.250  
E26  28001758.894   147150252.690        2648.288          28.250                                                                  
J03  37966472.576   199515181.244       -1117.782          42.750  
J04  36436912.867   191477279.731        -467.088          36.250  
C12  22888277.915   119185304.291        1029.009          43.250    22888296.402    92161733.819         795.664          37.000  
G02  20507308.337   107766653.260       -1609.269          45.750  
> 2025 01 06 09 05 26.0000000  0 43                     
G17  22668580.063   119124190.288         803.516          42.750  
C04  38535586.527   200664912.623        -318.880          42.250                                                                  
G21  21210580.058   111462344.649       -3072.847          42.750  
E27  24156170.721   126941552.227         434.759          43.250    24156191.959    94794120.175         324.618          42.750  
G03  23773388.833   124930007.699        2173.353          44.500  
R15  19525180.843   104336681.135        1110.732          47.000  
E29  27109166.099   142459624.582       -2004.061          38.000    27109200.815   106382314.831       -1496.519          42.500  
E34  27714640.217   145641516.346       -3041.147          33.500    27714661.662   108758292.643       -2271.392          29.000  
C16  36275296.207   188894973.718       -1385.288          45.750    36275314.172   146065644.386       -1071.225          32.250  
G30  21249916.330   111669099.703         966.427          45.500  
R24  24112410.246                       -4348.555          21.500  
C38  39263901.174   204457438.953        1349.210          42.000                                                                  
R17  19932453.481   106662579.162       -2870.155          48.000  
J07  36426754.440   191423892.962        -357.814          38.250  
E13  23964368.994   125933653.005        1515.294          44.500    23964393.243    94041476.451        1131.536          44.750  
E30  25784008.528   135495842.126       -1197.481          45.750    25784037.143   101182047.691        -894.211          40.750  
E15  23911019.751   125653273.479       -1270.959          45.750    23911043.594    93832092.202        -949.129          46.750  
E21  26699118.435   140304871.318        1480.500          39.500    26699148.753   104773268.501        1105.628          39.000  
E19  27779978.695                        -924.459          26.250    27780021.037   109014756.545        -690.271          33.000  
C01  37366333.281   194576317.587        -332.016          42.500    37366350.244   150458823.246        -256.435          33.500  
R14  20782342.472   110781551.792       -2366.196          50.000  
C26  21599447.233   112474002.726        -406.294          44.250                                                                  
R19  22287247.179   119221770.447        3027.612          34.500  
C06  36048247.836   187712676.916       -1393.719          43.750    36048260.176   145151396.401       -1077.867          33.250  
C24  23150873.770   120552694.859        2073.524          45.000                                                                  
C09  36057912.931   187763010.024        -877.688          41.000    36057929.162   145190328.309        -678.748          36.750  
C03  36113045.736   188050110.317        -329.132          43.250    36113057.713   145412326.131        -254.490          33.000  
C35  22630644.592   117843692.312       -2360.222          44.750                                                                  
C07  36549967.876   190325281.030        -501.876          41.000    36549980.993   147171633.557        -388.118          33.000  
R18  19473514.830   103950987.121         581.946          47.500  
C10  37302151.180   194242094.907        -494.361          39.500    37302168.107   150200379.092        -382.315          35.000  
E07  27802381.973   146102499.625       -2242.077          39.500    27802411.094   109102619.592       -1673.827          29.750  
G14  22973811.195   120728243.346        2204.026          40.500  
J02  38943584.488   204649922.650         582.492          43.750  
G07  20333040.304   106850851.911       -1127.412          44.500  
G08  23077414.817   121272592.200       -2657.254          43.000  
R16  22572526.541   120578369.122        3350.451          44.250  
G09  24929152.735                       -2195.381          24.250  
E26  28001254.946   147147604.915        2648.304          26.750                                                                  
J03  37966685.268   199516299.053       -1117.876          43.000  
J04  36437002.004   191477746.972        -467.186          36.000  
C12  22888080.104   119184275.556        1028.480          43.250    22888098.649    92160938.323         795.560          37.000  
G02  20507614.547   107768262.887       -1609.870          45.750  
> 2025 01 06 09 05 27.0000000  0 42                     
G17  22668427.203   119123386.963         803.332          42.750  
C04  38535647.699   200665231.558        -318.868          42.250                                                                  
G21  21211164.865   111465417.771       -3073.225          42.500  
E27  24156087.976   126941117.575         434.750          43.250    24156109.198    94793795.595         324.645          42.750  
G03  23772975.220   124927834.425        2173.341          44.500  
R15  19524973.137   104335570.799        1110.155          46.750  
E29  27109547.472   142461628.807       -2004.263          38.250    27109582.237   106383811.500       -1496.724          42.500  
E34  27715218.777   145644557.731       -3041.394          33.750    27715240.270   108760563.835       -2271.225          29.250  
C16  36275562.271   188896359.133       -1385.238          45.500    36275580.336   146066715.642       -1070.885          32.250  
G30  21249732.581   111668133.651         965.850          45.500  
R24  24113223.781                       -4348.239          22.250  
C38  39263642.081   204456089.828        1349.246          41.500                                                                  
R17  19932989.767   106665449.621       -2870.667          47.750  
J07  36426822.436   191424250.791        -357.861          38.500  
E13  23964080.732   125932137.924        1515.060          44.500    23964104.937    94040345.075        1131.268          44.750  
E30  25784236.465   135497039.823       -1197.651          45.500    25784265.013   101182942.083        -894.414          40.500  
E15  23911261.686   125654544.752       -1271.385          45.750    23911285.490    93833041.533        -949.477          46.500  
E21  26698836.744   140303390.875        1480.661          39.250    26698867.066   104772162.994        1105.502          38.750  
E19  27780154.819                        -924.112          26.750    27780196.930   109015446.757        -690.192          33.000  
C01  37366397.150   194576649.518        -331.834          42.500    37366413.889   150459079.926        -256.572          33.750  
R14  20782786.383   110783918.423       -2366.810          49.500  
C26  21599525.268   112474409.330        -406.561          43.750                                                                  
C06                                                                  36048528.451   145152474.239       -1077.832          33.500  
C24  23150475.683   120550621.480        2073.401          44.500                                                                  
C09                                                                  36058097.170   145191007.050        -678.739          37.000  
C03  36113108.897   188050439.539        -329.159          43.250    36113120.262   145412580.713        -254.428          33.250  
C35  22631097.798   117846052.719       -2360.353          44.500                                                                  
C07  36550064.273   190325782.938        -501.905          40.750    36550077.242   147172021.631        -388.028          33.500  
R18  19473405.710   103950405.675         581.124          47.250  
C10  37302246.023   194242589.243        -494.259          39.250    37302263.322   150200761.337        -382.153          35.500  
E07  27802808.645   146104741.666       -2241.758          39.000    27802837.709   109104293.876       -1674.764          29.500  
G14  22973391.947   120726039.367        2204.134          40.500  
J02  38943473.635   204649340.183         582.573          43.500  
G07  20333255.002   106851979.700       -1128.074          44.500  
G08  23077920.370   121275249.412       -2657.112          43.000  
R16  22571899.483   120575018.859        3350.272          44.000  
G09  24929571.310                       -2194.888          24.250  
E26  28000751.045   147144957.299        2647.679          27.000                                                                  
J03  37966898.122   199517416.999       -1117.879          42.750  
J04  36437090.754   191478214.296        -467.122          35.750  
C12  22887882.523   119183247.287        1028.349          42.750    22887901.282    92160143.250         794.817          37.000  
G02  20507920.908   107769873.208       -1610.484          45.750  
> 2025 01 06 09 05 28.0000000  0 43                     
G17  22668274.379   119122584.034         802.818          42.750  
C04  38535708.871   200665550.640        -319.231          42.000                                                                  
G21  21211749.705   111468491.477       -3073.983          42.500  
E27  24156005.375   126940683.137         434.347          43.250    24156026.501    94793471.182         324.346          42.750  
G03  23772561.599   124925661.216        2173.158          44.500  
R15  19524765.390   104334461.110        1109.391          46.750  
E29  27109928.709   142463633.259       -2004.624          38.000    27109963.598   106385308.336       -1496.980          42.500  
E34  27715797.445   145647599.369       -3041.635          34.000    27715818.933   108762835.232       -2272.018          29.250  
C16  36275828.541   188897744.885       -1385.782          45.250    36275846.791   146067787.213       -1071.827          32.750  
G30  21249548.835   111667168.304         964.950          45.250  
R24  24114037.407                       -4348.583          24.500  
C38  39263382.817   204454740.787        1349.047          41.750                                                                  
R17  19933526.296   106668320.674       -2871.273          48.000  
J07  36426890.633   191424608.750        -357.994          38.500  
E13  23963792.495   125930623.377        1514.309          44.500    23963816.742    94039214.079        1130.791          44.750  
E30  25784464.471   135498237.839       -1198.191          45.500    25784493.035   101183836.703        -894.777          40.250  
E15  23911503.754   125655816.601       -1272.172          45.750    23911527.486    93833991.285        -950.005          46.500  
E21  26698555.075   140301910.486        1480.349          39.500    26698585.312   104771057.515        1105.383          38.750  
E19  27780330.750                        -924.763          26.500    27780372.872   109016137.274        -690.715          32.750  
C01  37366460.901   194576981.590        -332.073          42.500    37366478.168   150459336.691        -256.756          33.750  
R14  20783230.485   110786285.760       -2367.683          49.500  
C26  21599603.342   112474816.586        -407.518          43.750                                                                  
R19  22286114.669   119215716.421        3026.266          34.000  
C06  36048783.264   187715464.961       -1394.341          43.250    36048796.196   145153552.2721      -1078.146          33.500  
C24  23150077.555   120548548.456        2072.950          44.750                                                                  
C09  36058250.366   187764765.883        -878.206          41.000    36058265.605   145191686.0421       -679.008          37.000  
C03  36113172.238   188050768.893        -329.335          43.250    36113183.812   145412835.382        -254.538          33.250  
C35  22631551.292   117848413.443       -2360.857          44.500                                                                  
C07  36550160.545   190326284.929        -501.991          40.750    36550173.649   147172409.838        -388.392          33.500  
R18  19473296.950   103949825.123         580.057          47.000  
C10  37302340.908   194243083.132        -494.443          39.000    37302358.453   150201143.631        -382.434          35.500  
E07  27803235.244   146106983.631       -2242.037          39.000    27803264.519   109105968.044       -1674.048          29.750  
G14  22972972.604   120723835.467        2203.948          40.250  
J02  38943362.874   204648757.782         582.381          43.500  
G07  20333469.754   106853108.260       -1128.935          44.500  
G08  23078425.997   121277906.681       -2657.265          43.000  
R16  22571272.246   120571668.697        3350.177          44.000  
G09  24929989.013                       -2195.097          24.500  
E26  28000247.165   147142309.835        2647.268          27.000                                                                  
J03  37967110.892   199518535.120       -1118.296          42.750  
J04  36437180.077   191478681.734        -467.495          36.000  
C12  22887685.081   119182219.589        1027.413          43.000    22887703.618    92159348.540         794.649          37.500  
G02  20508227.503   107771484.220       -1611.357          45.750  
> 2025 01 06 09 05 29.0000000  0 43                     
G17  22668121.644   119121781.580         802.034          42.750  
C04  38535770.132   200665869.929        -319.501          42.500                                                                  
G21  21212334.776   111471565.840       -3074.795          42.500  
E27  24155922.776   126940248.994         433.856          43.250    24155943.845    94793146.985         323.978          42.750  
G03  23772148.120   124923488.173        2172.802          44.750  
R15  19524557.849   104333352.181        1108.351          47.250  
E29  27110310.177   142465638.004       -2004.932          38.000    27110345.009   106386805.407       -1497.438          42.500  
E34  27716376.412   145650641.409       -3042.528          33.750    27716398.198   108765106.895       -2272.489          29.750  
C16  36276094.864   188899130.999       -1386.448          45.750    36276112.763   146068859.055       -1072.470          32.500  
G30  21249365.298   111666203.783         963.851          45.250  
R24  24114850.956                       -4352.091          24.500  
C38  39263123.823   204453391.926        1348.667          42.000                                                                  
R17  19934062.863   106671192.431       -2872.242          48.250  
J07  36426958.657   191424966.936        -358.318          38.750  
E13  23963504.431   125929109.417        1513.477          44.500    23963528.671    94038083.528        1130.122          44.750  
E30  25784692.501   135499436.225       -1198.652          45.500    25784721.030   101184731.601        -895.228          40.500  
E15  23911745.857   125657089.111       -1273.045          45.750    23911769.638    93834941.531        -950.598          46.750  
E21  26698273.302   140300430.227        1480.062          39.250    26698303.609   104769952.107        1105.341          38.750  
E19  27780506.950                        -925.631          26.000    27780549.090   109016828.184        -691.044          32.500  
C01  37366524.850   194577313.900        -332.574          42.750    37366542.193   150459593.686        -257.246          34.000  
R14  20783674.662   110788653.899       -2368.724          49.750  
C26  21599681.766   112475224.503        -408.346          44.000                                                                  
R19  22285548.959   119212690.386        3025.869          34.000  
C06  36049051.020   187716859.503       -1394.873          44.000    36049064.149   145154630.650       -1078.893          33.500  
C24  23149679.473   120546475.852        2072.202          45.250                                                                  
C09  36058419.112   187765644.371        -878.841          41.250    36058434.272   145192365.335        -679.561          37.000  
C03  36113235.587   188051098.468        -329.866          43.500    36113247.180   145413090.237        -255.139          33.250  
C35  22632004.646   117850774.562       -2361.460          45.000                                                                  
C07  36550257.112   190326787.070        -502.317          41.250    36550270.538   147172798.116        -388.565          33.250  
R18  19473188.345   103949245.573         578.901          47.250  
C10  37302435.727   194243577.705        -494.831          39.750    37302453.546   150201526.058        -382.731          35.000  
E07  27803661.989   146109225.582       -2241.983          38.750    27803691.016   109107642.242       -1674.530          30.000  
G14  22972553.273   120721631.762        2203.397          40.250  
J02  38943252.006   204648175.534         581.950          43.500  
G07  20333684.646   106854237.685       -1129.991          44.500  
G08  23078931.648   121280564.117       -2657.637          43.250  
R16  22570645.025   120568318.766        3349.642          44.250  
G09  24930407.629                       -2194.397          24.250  
E26  27999742.633   147139662.606        2646.751          27.250                                                                  
J03  37967323.687   199519653.485       -1118.587          42.750  
J04  36437268.951   191479149.359        -467.799          36.250  
C12  22887487.871   119181192.473        1026.663          43.500    22887506.513    92158554.316         793.796          37.250  
G02  20508534.164   107773096.034       -1612.325          45.750  
> 2025 01 06 09 05 30.0000000  0 43                     
G17  22667969.060   119120979.581         801.800          42.750  
C04  38535831.452   200666189.446        -319.752          42.500                                                                  
G21  21212919.956   111474640.884       -3075.338          42.750  
E27  24155840.239   126939815.159         433.789          43.500    24155861.316    94792823.018         323.838          42.750  
G03  23771734.742   124921315.326        2172.670          44.750  
R15  19524350.452   104332244.045        1107.700          47.500  
E29  27110691.727   142467643.073       -2005.275          38.250    27110726.556   106388302.699       -1497.476          42.500  
E34  27716955.284   145653683.797       -3042.693          34.000    27716977.235   108767378.808       -2272.826          29.500  
C16  36276361.143   188900517.490       -1386.745          46.000    36276378.655   146069931.156       -1072.178          32.750  
G30  21249181.898   111665240.073         963.244          45.250  
R24  24115665.480                       -4350.900          25.750  
C38  39262864.838   204452043.230        1348.636          42.000                                                                  
R17  19934599.676   106674064.908       -2872.901          48.250  
J07  36427026.958   191425325.358        -358.598          38.250  
E13  23963216.447   125927596.060        1513.030          44.500    23963240.638    94036953.429        1129.797          44.750  
E30  25784920.635   135500635.022       -1199.006          45.750    25784949.226   101185626.800        -895.424          40.500  
E15  23911988.168   125658362.283       -1273.605          45.750    23912011.888    93835892.285        -951.085          46.500  
E21  26697991.619   140298950.089        1479.907          39.500    26698021.906   104768846.826        1105.203          38.750  
E19  27780683.101                        -926.146          26.500    27780725.344   109017519.477        -691.237          32.250  
C01  37366588.727   194577646.420        -332.792          42.750    37366606.008   150459850.810        -257.447          34.000  
R14  20784119.026   110791022.880       -2369.436          50.000  
C26  21599760.251   112475633.118        -409.061          44.250                                                                  
R19  22284983.853   119209665.045        3024.735          33.750  
C06  36049318.982   187718254.425       -1395.142          43.750    36049331.969   145155709.278       -1078.678          33.750  
C24  23149281.550   120544403.687        2071.898          45.250                                                                  
C09  36058587.835   187766523.277        -879.084          41.250    36058603.107   145193044.956        -679.806          36.750  
C03  36113299.066   188051428.278        -329.952          43.500    36113310.646   145413345.293        -255.390          33.000  
C35  22632458.093   117853136.076       -2361.768          45.000                                                                  
C07  36550353.773   190327289.378        -502.495          41.250    36550367.486   147173186.539        -388.513          33.250  
R18  19473079.908   103948667.029         577.960          47.250  
C10  37302530.912   194244072.434        -494.783          39.750    37302548.544   150201908.635        -382.456          35.000  
E07  27804088.700   146111467.537       -2241.887          39.000    27804117.805   109109316.413       -1673.886          30.000  
G14  22972134.001   120719428.232        2203.383          40.250  
J02  38943141.048   204647593.444         581.972          43.500  
G07  20333899.740   106855367.992       -1130.784          44.500  
G08  23079437.344   121283221.704       -2657.672          43.250  
R16  22570017.755   120564969.088        3349.460          44.250  
G09  24930826.714                       -2196.190          21.750  
E26  27999238.888   147137015.648        2646.930          26.750                                                                  
J03  37967536.718   199520772.113       -1118.821          43.000  
J04  36437358.029   191479617.190        -467.885          36.250  
C12  22887290.601   119180165.974        1026.146          43.250    22887309.301    92157760.564         793.490          37.250  
G02  20508840.992   107774708.648       -1613.055          46.000  
> 2025 01 06 09 05 31.0000000  0 42                     
G17  22667816.485   119120178.081         801.367          43.000  
C04  38535892.914   200666509.197        -319.868          42.500                                                                  
G21  21213505.242   111477716.606       -3076.070          43.000  
E27  24155757.699   126939381.624         433.565          43.750    24155778.817    94792499.275         323.659          42.500  
G03  23771321.380   124919142.656        2172.649          44.500  
R15  19524143.158   104331136.704        1107.022          47.500  
E29  27111073.214   142469648.475       -2005.451          38.500    27111108.134   106389800.244       -1497.593          42.250  
E34  27717534.377   145656726.564       -3043.019          33.500    27717556.108   108769651.006       -2272.588          29.250  
C16  36276627.430   188901904.361       -1386.927          45.750    36276645.072   146071003.586       -1072.749          32.250  
G30  21248998.682   111664277.191         962.526          45.500  
C38  39262605.819   204450694.721        1348.419          42.250                                                                  
R17  19935136.656   106676938.138       -2873.590          48.500  
J07  36427095.048   191425684.034        -358.819          38.250  
E13  23962928.515   125926083.319        1512.485          44.500    23962952.693    94035823.795        1129.345          44.750  
E30  25785148.858   135501834.230       -1199.313          46.000    25785177.375   101186522.311        -895.676          40.250  
E15  23912230.597   125659636.131       -1274.076          45.750    23912254.282    93836843.533        -951.445          46.500  
E21  26697710.171   140297470.094        1480.053          39.500    26697740.217   104767741.645        1105.214          38.750  
E19  27780859.793                        -926.254          27.000    27780901.744   109018211.242        -692.163          32.250  
C01  37366652.627   194577979.178        -332.759          42.750    37366669.643   150460108.092        -257.073          33.500  
R14  20784563.665   110793392.691       -2370.144          49.750  
C26  21599838.711   112476042.405        -409.558          44.250                                                                  
R19  22284418.947   119206640.394        3024.292          34.000  
C06  36049586.973   187719649.729       -1395.476          43.750    36049599.866   145156788.220       -1079.081          33.500  
C24  23148883.770   120542331.970        2071.534          45.250                                                                  
C09  36058756.636   187767402.602        -879.454          41.250    36058772.300   145193724.918        -680.018          37.000  
C03  36113362.470   188051758.320        -330.074          43.750    36113374.044   145413600.450        -254.949          33.250  
C35  22632911.612   117855498.000       -2362.031          45.000                                                                  
C07  36550450.382   190327791.851        -502.487          41.250    36550463.140   147173575.083        -388.522          33.500  
R18  19472971.925   103948089.483         577.154          47.250  
C10  37302626.094   194244567.379        -495.064          39.750    37302643.534   150202291.343        -382.713          35.000  
E07  27804515.131   146113709.505       -2242.000          39.250    27804544.306   109110990.597       -1673.880          30.250  
G14  22971714.832   120717224.887        2203.312          40.500  
J02  38943030.297   204647011.513         581.875          43.500  
G07  20334115.009   106856499.165       -1131.556          44.500  
G08  23079943.116   121285879.467       -2657.906          43.250  
R16  22569390.985   120561619.655        3349.417          44.500  
G09  24931244.359                       -2196.166          21.000  
E26  27998735.133   147134369.020        2646.347          27.250                                                                  
J03  37967749.512   199521891.015       -1118.912          43.000  
J04  36437446.974   191480085.207        -468.043          36.250  
C12  22887093.650   119179140.078        1025.628          43.500    22887112.259    92156967.272         792.981          37.000  
G02  20509148.138   107776322.070       -1613.753          46.250  
> 2025 01 06 09 05 32.0000000  0 43                     
G17  22667664.148   119119376.939         801.040          42.750  
C04  38535954.193   200666829.049        -319.806          42.250                                                                  
G21  21214090.606   111480792.871       -3076.429          42.750  
E27  24155675.291   126938948.289         433.339          43.750    24155696.376    94792175.677         323.658          42.500  
G03  23770907.904   124916970.050        2172.671          44.750  
R15  19523935.960   104330030.016        1106.438          47.500  
E29  27111454.818   142471654.069       -2005.559          39.000    27111489.778   106391297.944       -1497.691          42.250  
E34  27718113.247   145659769.623       -3043.150          33.500    27718135.056   108771923.451       -2273.016          29.000  
C16  36276893.805   188903291.507       -1387.192          46.000    36276911.151   146072076.205       -1072.339          32.750  
G30  21248815.563   111663315.015         961.956          45.250  
R24  24117298.798                       -4348.960          21.000  
C38  39262347.036   204449346.272        1348.371          42.000                                                                  
R17  19935673.822   106679811.987       -2874.063          48.500  
J07  36427163.068   191426042.816        -358.959          38.500  
E13  23962640.717   125924571.057        1512.138          44.500    23962664.874    94034694.510        1129.133          44.750  
E30  25785377.111   135503033.720       -1199.540          46.000    25785405.597   101187418.022        -895.721          40.500  
E15  23912473.197   125660910.538       -1274.535          46.000    23912496.765    93837795.199        -951.733          46.500  
E21  26697428.532   140295990.139        1479.894          39.500    26697458.508   104766636.474        1105.281          38.750  
E19  27781035.983                        -926.742          27.250    27781077.966   109018903.297        -692.338          32.250  
C01  37366716.812   194578312.056        -332.928          42.750    37366733.368   150460365.506        -257.402          34.000  
R14  20785008.319   110795763.193       -2370.780          49.750  
C26  21599917.375   112476452.291        -410.097          44.000                                                                  
R19  22283854.047   119203616.310        3023.410          34.000  
C06  36049854.984   187721045.299       -1395.593          44.000    36049868.074   145157867.325       -1078.883          33.250  
C24  23148485.907   120540260.571        2071.291          45.250                                                                  
C09  36058925.686   187768282.229        -879.725          41.250    36058941.303   145194405.089        -680.342          36.750  
C03  36113425.985   188052088.458        -330.020          43.500    36113437.505   145413855.767        -255.127          33.000  
C35  22633365.175   117857860.196       -2362.265          45.000                                                                  
C07  36550546.998   190328294.401        -502.624          41.250    36550560.225   147173963.672        -388.642          33.250  
R18  19472863.786   103947512.827         576.320          47.500  
C10  37302721.201   194245062.361        -494.861          39.750    37302738.600   150202674.115        -382.769          35.250  
E07  27804941.576   146115951.378       -2241.705          39.500    27804970.930   109112664.746       -1673.956          30.000  
G14  22971295.718   120715021.619        2203.346          40.500  
J02  38942919.522   204646429.640         581.874          43.500  
G07  20334330.428   106857631.089       -1132.154          44.500  
G08  23080448.994   121288537.263       -2657.769          43.500  
R16  22568764.015   120558270.314        3349.381          44.500  
G09  24931660.211                       -2195.216          21.250  
E26  27998231.039   147131722.533        2645.734          26.750                                                                  
J03  37967962.464   199523010.073       -1119.157          42.750  
J04  36437536.113   191480553.305        -467.964          36.000  
C12  22886896.809   119178114.682        1025.226          43.500    22886915.458    92156174.379         792.768          37.250  
G02  20509455.284   107777936.185       -1614.377          46.000  
> 2025 01 06 09 05 33.0000000  0 43                     
G17  22667511.660   119118576.038         800.660          42.750  
C04  38536015.651   200667148.904        -319.979          42.500                                                                  
G21  21214676.089   111483869.574       -3077.043          42.750  
E27  24155592.715   126938515.020         433.071          43.500    24155613.974    94791852.136         323.427          42.750  
G03  23770494.386   124914797.395        2172.555          44.750  
R15  19523728.969   104328923.853        1105.710          47.750  
E29  27111836.547   142473659.782       -2006.011          39.250    27111871.402   106392795.699       -1497.849          42.250  
E34  27718692.072   145662812.794       -3043.596          33.750    27718714.137   108774195.973       -2272.875          28.750  
C16  36277160.097   188904678.804       -1387.498          46.000    36277178.091   146073148.960       -1072.842          32.750  
G30  21248632.610   111662353.426         961.162          45.000  
R24  24118112.942                       -4348.849          24.000  
C38  39262088.228   204447997.752        1348.539          42.000                                                                  
R17  19936211.094   106682686.327       -2874.660          48.750  
J07  36427231.414   191426401.585        -358.989          38.500  
E13  23962353.001   125923059.189        1511.488          44.500    23962377.111    94033565.511        1128.728          44.750  
E30  25785605.392   135504233.371       -1199.804          45.750    25785633.850   101188313.876        -895.891          40.250  
E15  23912715.822   125662185.385       -1275.201          46.000    23912739.339    93838747.192        -952.251          46.500  
E21  26697146.871   140294510.076        1480.027          39.750    26697176.871   104765531.260        1105.010          38.750  
E19  27781212.787                        -927.524          27.500    27781254.327   109019595.583        -692.520          32.000  
C01  37366780.788   194578644.913        -333.018          42.750    37366797.617   150460622.878        -257.383          34.000  
R14  20785453.071   110798134.299       -2371.512          49.750  
C26  21599996.159   112476862.643        -410.767          44.000                                                                  
R19  22283288.738   119200592.644        3023.630          34.250  
C06  36050123.150   187722441.028       -1396.008          44.000    36050136.007   145158946.618       -1079.450          33.000  
C24  23148088.130   120538189.368        2070.969          45.250                                                                  
C09  36059094.720   187769162.024        -880.139          41.250    36059110.290   145195085.396        -680.423          36.750  
C03  36113489.423   188052418.609        -330.268          43.750    36113500.600   145414111.050        -255.397          33.250  
C35  22633818.830   117860222.574       -2362.604          45.000                                                                  
C07  36550643.576   190328796.886        -502.410          41.250    36550656.387   147174352.237        -388.606          33.250  
R18  19472756.011   103946936.926         575.351          47.250  
C10  37302816.395   194245557.280        -495.082          39.500    37302833.734   150203056.804        -382.643          35.000  
E07  27805368.249   146118193.017       -2241.524          39.750    27805397.631   109114338.706       -1674.073          30.000  
G14  22970876.422   120712818.310        2203.118          40.250  
J02  38942808.753   204645847.685         581.875          43.500  
G07  20334546.049   106858763.667       -1133.051          44.250  
G08  23080954.724   121291194.998       -2657.765          43.250  
R16  22568137.127   120554920.954        3349.233          44.500  
G09  24932076.666                       -2194.082          22.000  
E26  27997727.465   147129076.033        2646.355          27.000                                                                  
J03  37968175.396   199524129.143       -1119.165          42.750  
J04  36437625.178   191481021.399        -468.090          36.000  
C12  22886700.082   119177089.669        1024.670          43.250    22886718.623    92155381.787         792.327          37.250  
G02  20509762.664   107779550.861       -1615.043          46.000  
> 2025 01 06 09 05 34.0000000  0 43                     
G17  22667359.175   119117775.800         799.900          42.500  
C04  38536077.284   200667469.166        -320.422          42.500                                                                  
G21  21215261.691   111486947.131       -3078.040          42.500  
E27  24155510.311   126938082.228         432.560          43.500    24155531.672    94791528.957         323.017          42.750  
G03  23770081.095   124912625.080        2172.015          44.250  
R15  19523522.287   104327818.668        1104.608          47.750  
E29  27112218.258   142475665.961       -2006.522          39.250    27112253.134   106394293.829       -1498.358          42.250  
E34  27719271.142   145665856.532       -3043.940          33.500    27719293.202   108776468.877       -2272.877          29.250  
C16  36277426.572   188906066.671       -1388.216          45.750    36277443.889   146074222.120       -1073.144          32.500  
G30  21248449.932   111661392.842         959.992          45.250  
R24  24118928.736                       -4349.403          24.500  
C38  39261829.594   204446649.615        1347.858          42.000                                                                  
R17  19936748.404   106685561.570       -2875.716          48.750  
J07  36427299.599   191426760.768        -359.512          38.500  
E13  23962065.420   125921548.082        1510.568          44.500    23962089.546    94032437.086        1128.134          44.500  
E30  25785833.696   135505433.613       -1200.603          45.750    25785862.233   101189210.150        -896.435          40.500  
E15  23912958.632   125663461.081       -1276.208          46.000    23912982.077    93839699.817        -952.886          46.500  
E21  26696865.156   140293030.329        1479.493          39.750    26696895.257   104764426.246        1104.821          38.750  
E19  27781389.523                        -928.648          26.250    27781431.012   109020288.450        -693.426          32.250  
C01  37366844.830   194578978.186        -333.602          42.750    37366861.494   150460880.606        -258.016          33.750  
R14  20785898.094   110800506.418       -2372.721          49.750  
C26  21600075.179   112477273.853        -411.780          44.000                                                                  
R19  22282723.303   119197569.921        3022.044          34.000  
C06  36050391.391   187723837.316       -1396.635          43.750    36050403.930   145160026.300       -1079.964          33.000  
C24  23147690.468   120536118.783        2070.254          45.500                                                                  
C09  36059264.024   187770042.399        -880.712          41.500    36059279.407   145195766.162        -680.918          36.750  
C03  36113552.929   188052749.161        -330.820          43.500    36113564.343   145414366.663        -255.794          32.750  
C35  22634272.673   117862585.528       -2363.226          45.000                                                                  
C07  36550740.150   190329299.727        -503.192          41.250    36550752.892   147174741.054        -388.834          33.250  
R18  19472648.360   103946362.194         574.141          47.500  
C10  37302911.439   194246052.562        -495.497          39.500    37302928.648   150203439.788        -382.899          35.000  
E07  27805794.733   146120434.849       -2241.958          40.000    27805823.938   109116012.740       -1673.710          30.000  
G14  22970457.218   120710615.364        2202.681          40.250  
J02  38942698.149   204645266.079         581.314          43.250  
G07  20334761.671   106859897.284       -1134.166          44.000  
G08  23081460.620   121293853.079       -2658.272          43.500  
R16  22567510.217   120551572.004        3348.674          44.500  
G09  24932491.517                       -2195.058          21.750  
E26  27997224.455   147126430.009        2645.561          27.750                                                                  
J03  37968388.423   199525248.671       -1119.825          42.750  
J04  36437714.309   191481489.851        -468.624          35.750  
C12  22886503.347   119176065.448        1023.774          43.500    22886521.753    92154589.786         791.634          37.000  
G02  20510070.144   107781166.521       -1616.234          46.000  
> 2025 01 06 09 05 35.0000000  0 43                     
G17  22667206.820   119116975.883         799.875          42.750  
C04  38536138.911   200667789.500        -320.212          42.500                                                                  
G21  21215847.439   111490025.203       -3078.173          42.500  
E27  24155427.964   126937649.604         432.732          43.750    24155449.412    94791205.886         323.123          42.750  
G03  23769667.734   124910452.804        2172.395          44.250  
R15  19523315.675   104326714.122        1104.356          47.750  
E29  27112600.072   142477672.310       -2006.161          39.500    27112634.957   106395792.103       -1498.270          42.500  
E34  27719850.332   145668900.501       -3043.908          34.000    27719872.259   108778741.950       -2272.329          29.250  
C16  36277693.072   188907454.759       -1388.047          46.000    36277710.548   146075295.499       -1073.170          32.250  
G30  21248267.214   111660432.913         959.818          45.000  
R24  24119742.280                       -4349.809          20.500  
C38  39261570.741   204445301.489        1348.140          42.000                                                                  
R17  19937285.795   106688437.337       -2875.911          48.750  
J07  36427368.075   191427120.041        -359.109          38.500  
E13  23961777.925   125920037.426        1510.559          44.500    23961802.026    94031309.013        1127.990          44.750  
E30  25786062.069   135506634.099       -1200.476          45.500    25786090.733   101190106.613        -896.282          40.500  
E15  23913201.458   125664737.290       -1276.337          45.750    23913224.999    93840652.839        -953.126          46.500  
E21  26696583.588   140291550.552        1480.140          39.500    26696613.627   104763321.236        1105.119          38.750  
E19  27781566.063                        -928.251          27.000    27781607.786   109020981.582        -692.987          32.000  
C01  37366908.703   194579311.526        -333.124          42.750    37366925.800   150461138.351        -257.525          34.000  
R14  20786343.248   110802879.227       -2373.037          49.750  
C26  21600154.313   112477685.616        -411.871          44.000                                                                  
R19  22282158.101   119194547.668        3022.164          34.000  
C06  36050659.602   187725233.833       -1396.424          44.000    36050671.635   145161106.204       -1079.810          33.250  
C24  23147292.787   120534048.491        2070.284          45.250                                                                  
C09  36059433.217   187770923.051        -880.609          41.500    36059448.345   145196447.131        -680.974          36.750  
C03  36113616.346   188053079.791        -330.509          43.750    36113627.912   145414622.308        -255.419          33.250  
C35  22634726.440   117864948.726       -2363.167          45.250                                                                  
C07  36550836.665   190329802.575        -502.728          41.250    36550849.407   147175129.910        -388.834          33.250  
R18  19472540.996   103945788.309         573.568          47.750  
C10  37303006.698   194246547.857        -495.043          39.500    37303023.713   150203822.783        -382.787          35.000  
E07  27806221.362   146122676.529       -2241.593          39.750    27806250.612   109117686.775       -1673.921          30.250  
G14  22970037.851   120708412.437        2203.003          40.500  
J02  38942587.403   204644684.471         581.768          43.500  
G07  20334977.451   106861031.623       -1134.503          44.000  
G08  23081966.509   121296511.171       -2657.956          43.500  
R16  22566883.241   120548223.138        3348.971          44.500  
G09  24932907.100                       -2191.674          21.750  
E26  27996721.420   147123784.131        2644.917          26.750                                                                  
J03  37968601.502   199526368.292       -1119.471          43.000  
J04  36437803.232   191481958.367        -468.392          35.500  
C12  22886306.819   119175041.678        1023.644          43.500    22886325.111    92153798.159         791.534          37.250  
G02  20510377.735   107782782.831       -1616.570          46.000  
> 2025 01 06 09 05 36.0000000  0 43                     
G17  22667054.491   119116175.961         799.829          43.000  
C04  38536200.428   200668109.592        -320.123          42.250                                                                  
G21  21216433.157   111493103.458       -3078.449          42.500  
E27  24155345.581   126937216.800         432.824          43.500    24155367.127    94790882.687         323.272          42.750  
G03  23769254.178   124908280.217        2172.556          44.250  
R15  19523108.925   104325609.864        1104.030          48.000  
E29  27112981.968   142479678.501       -2006.292          39.250    27113016.755   106397290.216       -1498.056          42.500  
E34  27720429.523   145671944.353       -3044.303          34.000    27720451.496   108781015.048       -2273.321          29.250  
C16  36277959.567   188908842.753       -1388.037          46.000    36277976.714   146076368.794       -1073.224          32.000  
G30  21248084.535   111659473.331         959.256          45.000  
R24  24120555.516                       -4349.771          21.750  
C38  39261311.686   204443953.058        1348.473          42.000                                                                  
R17  19937823.244   106691313.319       -2876.208          48.750  
J07  36427436.678   191427479.050        -359.177          38.500  
E13  23961490.385   125918526.899        1510.427          44.500    23961514.635    94030181.025        1127.814          44.750  
E30  25786290.453   135507834.490       -1200.457          45.250    25786319.131   101191003.013        -896.441          40.500  
E15  23913444.312   125666013.681       -1276.635          45.750    23913467.938    93841605.983        -953.233          46.750  
E21  26696301.963   140290070.446        1480.285          39.500    26696331.998   104762215.950        1105.531          39.000  
E19  27781742.500                        -928.234          26.000    27781784.465   109021674.803        -693.303          32.250  
C01  37366972.647   194579644.614        -333.051          42.500    37366989.704   150461395.940        -257.674          33.500  
R14  20786788.460   110805252.367       -2373.416          49.750  
C26  21600233.338   112478097.576        -412.185          44.000                                                                  
R19  22281593.624   119191525.647        3021.786          34.000  
C06  36050927.874   187726630.251       -1396.429          44.000    36050940.028   145162185.973       -1079.757          33.500  
C24  23146895.269   120531978.146        2070.230          45.000                                                                  
C09  36059602.349   187771803.641        -880.779          41.250    36059617.603   145197128.045        -681.175          36.750  
C03  36113679.758   188053410.157        -330.402          43.500    36113691.619   145414877.797        -255.604          33.250  
C35  22635180.223   117867311.846       -2363.193          45.250                                                                  
C07  36550933.133   190330305.112        -502.546          41.250    36550945.954   147175518.489        -388.471          33.000  
R18  19472433.642   103945214.916         573.043          47.750  
C10  37303101.604   194247042.859        -494.969          39.500    37303118.842   150204205.560        -382.772          35.250  
E07  27806647.888   146124917.732       -2241.139          39.750    27806676.998   109119360.401       -1673.303          29.750  
G14  22969618.717   120706209.213        2203.225          40.500  
J02  38942476.593   204644102.539         582.019          43.500  
G07  20335193.469   106862166.341       -1135.067          44.000  
G08  23082472.234   121299168.936       -2657.756          43.250  
R16  22566256.201   120544874.008        3349.127          44.500  
G09  24933324.580                       -2193.512          21.250  
E26  27996217.952   147121137.894        2646.706          26.750                                                                  
J03  37968814.544   199527487.698       -1119.413          42.750  
J04  36437892.358   191482426.573        -468.032          35.250  
C12  22886110.259   119174018.034        1023.457          43.500    22886128.574    92153006.618         791.398          37.250  
G02  20510685.358   107784399.454       -1616.881          46.000  
> 2025 01 06 09 05 37.0000000  0 43                     
G17  22666902.298   119115376.450         799.149          43.000  
C04  38536261.944   200668429.820        -320.334          42.250                                                                  
G21  21217019.076   111496182.316       -3079.253          42.500  
E27  24155263.271   126936784.223         432.282          43.500    24155284.810    94790559.667         322.924          43.000  
G03  23768840.857   124906107.735        2172.312          44.000  
R15  19522902.434   104324506.321        1103.035          48.000  
E29  27113364.073   142481684.930       -2006.754          39.500    27113398.656   106398788.529       -1498.348          42.500  
E34  27721008.715   145674988.517       -3044.606          32.750    27721030.426   108783288.287       -2273.152          30.000  
C16  36278226.177   188910231.062       -1388.529          46.000    36278243.469   146077442.343       -1073.851          32.750  
G30  21247901.988   111658514.483         958.350          45.250  
R24  24121367.755                       -4349.587          23.500  
C38  39261052.708   204442604.735        1348.101          42.000                                                                  
R17  19938360.756   106694189.964       -2877.058          48.750  
J07  36427505.016   191427838.206        -359.225          38.500  
E13  23961203.106   125917016.903        1509.679          44.250    23961227.305    94029053.432        1127.372          44.750  
E30  25786518.926   135509035.222       -1201.031          45.500    25786547.635   101191899.648        -896.762          40.750  
E15  23913687.301   125667290.668       -1277.348          45.750    23913711.000    93842559.581        -953.857          46.500  
E21  26696020.291   140288590.413        1480.029          39.500    26696050.382   104761110.743        1105.009          39.250  
E19  27781918.981                        -928.943          25.000    27781961.157   109022368.346        -694.043          32.500  
C01  37367036.457   194579977.863        -333.412          42.500    37367053.617   150461653.607        -257.916          34.000  
R14  20787233.804   110807626.245       -2374.364          50.000  
C26  21600312.570   112478510.162        -413.013          44.000                                                                  
R19  22281028.786   119188504.262        3020.861          33.500  
C06  36051196.058   187728026.982       -1397.065          44.000    36051208.278   145163266.009       -1080.067          33.000  
C24  23146497.764   120529908.157        2069.756          45.500                                                                  
C09  36059771.627   187772684.541        -880.998          41.250    36059786.869   145197809.226        -681.543          37.000  
C03  36113743.184   188053740.688        -330.758          43.500    36113755.228   145415133.358        -255.650          33.000  
C35  22635634.084   117869675.289       -2363.705          45.000                                                                  
C07  36551029.593   190330807.748        -502.745          41.000    36551042.258   147175907.155        -388.869          33.000  
R18  19472326.468   103944642.461         571.916          47.750  
C10  37303196.592   194247537.962        -495.341          39.500    37303214.396   150204588.379        -382.962          35.250  
E07  27807074.434   146127158.870       -2241.383          39.000    27807103.102   109121033.989       -1673.655          29.500  
G14  22969199.408   120704006.107        2203.010          40.250  
J02  38942365.866   204643520.686         581.726          43.750  
G07  20335409.470   106863301.858       -1135.946          44.000  
G08  23082977.889   121301826.792       -2657.934          43.750  
R16  22565629.398   120541525.023        3348.712          44.500  
G09  24933742.672                       -2195.138          21.250  
E26  27995714.856   147118492.033        2645.537          27.500                                                                  
J03  37969027.588   199528607.291       -1119.818          42.750  
J04  36437981.040   191482894.926        -468.747          35.750  
C12  22885913.910   119172994.938        1022.716          43.250    22885932.264    92152215.485         790.866          37.250  
G02  20510993.014   107786016.812       -1617.873          46.000  
> 2025 01 06 09 05 38.0000000  0 42                     
G17  22666750.243   119114577.476         798.691          43.500  
C04  38536323.513   200668750.372        -320.698          42.250                                                                  
G21  21217605.038   111499261.926       -3080.002          42.750  
E27  24155181.087   126936352.028         432.004          43.500    24155202.572    94790236.921         322.605          42.750  
G03  23768427.449   124903935.521        2171.992          44.000  
R15  19522696.158   104323403.648        1102.169          48.000  
E29  27113745.926   142483691.756       -2006.933          39.250    27113780.602   106400287.155       -1498.859          42.500  
E34  27721588.077   145678033.141       -3044.938          33.000    27721609.909   108785561.951       -2273.914          29.500  
C16  36278492.927   188911619.842       -1389.063          46.000    36278510.676   146078516.211       -1074.155          32.750  
G30  21247719.590   111657556.535         957.436          45.250  
C38  39260793.711   204441256.670        1347.929          42.250                                                                  
R17  19938898.497   106697067.451       -2877.909          48.750  
J07  36427573.343   191428197.692        -359.649          38.500  
E13  23960915.898   125915507.592        1508.931          44.250    23960940.128    94027926.360        1126.739          44.750  
E30  25786747.462   135510236.423       -1201.422          45.250    25786776.283   101192796.664        -897.340          40.500  
E15  23913930.391   125668568.423       -1278.215          45.500    23913954.142    93843513.749        -954.459          46.500  
E21  26695738.544   140287110.580        1479.636          39.250    26695768.833   104760005.682        1104.869          39.000  
E19  27782095.432                        -930.372          24.750    27782138.261   109023062.392        -694.455          32.250  
C01  37367100.411   194580311.412        -333.820          42.500    37367117.230   150461911.521        -257.907          33.750  
R14  20787679.329   110810001.036       -2375.295          50.000  
C26  21600392.013   112478923.529        -413.797          44.000                                                                  
R19  22280463.878   119185483.626        3020.316          33.500  
C06  36051464.337   187729424.173       -1397.534          43.750    36051476.759   145164346.391       -1080.553          33.250  
C24  23146100.279   120527838.700        2069.154          45.250                                                                  
C09  36059940.967   187773565.938        -881.644          41.000    36059956.440   145198490.765        -681.765          37.250  
C03  36113806.524   188054071.528        -331.032          43.500    36113818.667   145415389.189        -255.770          33.500  
C35  22636088.052   117872039.214       -2364.210          45.000                                                                  
C07  36551126.068   190331310.631        -503.016          40.750    36551139.332   147176296.020        -388.791          32.750  
R18  19472219.397   103944071.080         570.830          47.500  
C10  37303291.558   194248033.299        -495.471          39.500    37303309.301   150204971.421        -382.999          35.250  
E07  27807501.017   146129400.083       -2241.267          39.000    27807529.419   109122707.633       -1673.504          29.000  
G14  22968780.162   120701803.272        2202.618          40.500  
J02  38942255.167   204642939.092         581.429          43.500  
G07  20335625.753   106864438.325       -1136.898          44.000  
G08  23083483.726   121304484.876       -2658.206          43.750  
R16  22565002.512   120538176.331        3348.466          45.000  
G09  24934161.444                       -2195.772          20.250  
E26  27995211.470   147115846.489        2645.283          27.000                                                                  
J03  37969240.790   199529727.232       -1120.150          42.750  
J04  36438070.342   191483363.548        -468.650          35.250  
C12  22885717.570   119171972.527        1022.022          43.000    22885735.989    92151424.897         790.267          37.250  
G02  20511300.852   107787635.048       -1618.703          46.000  
> 2025 01 06 09 05 39.0000000  0 42                     
G17  22666598.407   119113779.102         798.135          43.500  
C04  38536385.012   200669071.260        -321.019          42.250                                                                  
G21  21218191.219   111502342.325       -3080.830          42.750  
E27  24155098.946   126935920.250         431.658          43.250    24155120.381    94789914.487         322.335          43.000  
G03  23768014.089   124901763.584        2171.820          44.000  
R15  19522489.977   104322301.847        1101.479          47.750  
E29  27114127.844   142485699.027       -2007.490          39.250    27114162.607   106401786.085       -1499.084          42.500  
E34  27722167.424   145681078.227       -3044.938          33.500    27722189.272   108787835.866       -2274.217          29.000  
C16  36278759.796   188913009.097       -1389.449          45.750    36278777.181   146079590.473       -1074.389          32.000  
G30  21247537.563   111656599.527         956.528          45.500  
C38  39260534.807   204439908.878        1347.678          42.000                                                                  
R17  19939436.435   106699945.771       -2878.629          49.000  
J07  36427641.694   191428557.509        -359.803          38.250  
E13  23960628.841   125913998.975        1508.310          44.250    23960652.993    94026799.797        1126.300          44.500  
E30  25786976.118   135511438.138       -1201.901          45.250    25787004.964   101193694.048        -897.670          40.250  
E15  23914173.678   125669846.930       -1278.818          45.750    23914197.393    93844468.481        -954.971          46.500  
E21  26695456.943   140285631.003        1479.379          39.000    26695487.305   104758900.798        1104.827          38.750  
E19  27782272.374                        -930.127          24.500    27782315.303   109023756.914        -694.739          32.000  
C01  37367164.489   194580645.301        -334.033          42.750    37367181.778   150462169.721        -258.090          33.500  
R14  20788124.973   110812376.760       -2376.105          49.500  
C26  21600471.516   112479337.684        -414.472          44.000                                                                  
R19  22279899.326   119182463.798        3019.669          33.750  
C06  36051732.820   187730821.838       -1397.955          43.750    36051744.911   145165427.182       -1081.121          33.250  
C24  23145702.956   120525769.779        2068.721          45.250                                                                  
C09  36060110.303   187774447.864        -882.147          41.250    36060125.972   145199172.719        -681.983          37.000  
C03  36113870.017   188054402.694        -331.387          43.250    36113882.481   145415645.273        -255.887          33.250  
C35  22636541.996   117874403.650       -2364.697          45.000                                                                  
C07  36551222.720   190331813.792        -503.228          41.000    36551235.561   147176685.110        -389.078          33.250  
R18  19472112.603   103943500.807         569.728          48.000  
C10  37303386.783   194248529.417        -495.757          39.500    37303404.652   150205354.660        -383.089          35.000  
E07  27807927.462   146131641.426       -2241.266          39.000    27807955.516   109124381.360       -1673.864          29.250  
G14  22968360.927   120699600.717        2202.423          40.500  
J02  38942144.434   204642357.763         581.135          43.500  
G07  20335842.164   106865575.779       -1137.922          44.250  
G08  23083989.607   121307143.245       -2658.429          43.750  
R16  22564375.686   120534827.995        3348.300          44.750  
G09  24934577.251                       -2196.972          19.500  
E26  27994707.992   147113201.219        2645.667          26.750                                                                  
J03  37969453.862   199530847.553       -1120.479          42.750  
J04  36438159.615   191483832.488        -469.201          35.250  
C12  22885521.283   119170950.830        1021.452          43.500    22885539.944    92150634.870         789.636          37.250  
G02  20511608.840   107789254.195       -1619.549          46.000  
> 2025 01 06 09 05 40.0000000  0 41                     
G17  22666446.686   119112981.084         797.853          43.250  
C04  38536446.438   200669392.243        -321.055          42.250                                                                  
G21  21218777.413   111505423.252       -3081.250          42.750  
E27  24155016.733   126935488.647         431.556          43.500    24155038.249    94789592.202         322.165          43.000  
G03  23767600.782   124899591.699        2171.922          44.250  
R15  19522283.931   104321200.703        1100.775          47.750  
E29  27114509.687   142487706.492       -2007.499          39.250    27114544.648   106403285.171       -1499.208          42.250  
E34  27722747.055   145684123.622       -3045.651          33.250    27722768.860   108790110.023       -2273.860          29.250  
C16  36279026.609   188914398.624       -1389.678          45.750    36279044.434   146080664.960       -1074.571          32.500  
G30  21247355.628   111655643.210         956.007          45.500  
C38  39260275.933   204438561.153        1347.633          42.000                                                                  
R17  19939974.453   106702824.713       -2879.221          48.750  
J07  36427710.426   191428917.445        -359.983          38.500  
E13  23960341.841   125912490.862        1507.824          44.250    23960365.946    94025673.614        1126.018          44.750  
E30  25787204.822   135512640.128       -1202.136          45.250    25787233.646   101194591.626        -897.755          40.500  
E15  23914417.090   125671126.002       -1279.352          45.750    23914440.791    93845423.630        -955.357          46.500  
E21  26695175.363   140284151.412        1479.390          39.000    26695205.748   104757795.900        1104.761          39.500  
E19  27782449.906                        -931.153          24.250    27782492.375   109024451.760        -694.639          31.750  
C01  37367228.514   194580979.295        -334.095          42.500    37367245.530   150462427.987        -258.181          33.500  
R14  20788570.685   110814753.211       -2376.860          49.750  
C26  21600551.276   112479752.418        -415.073          44.000                                                                  
R19  22279333.931   119179444.557        3018.966          33.500  
C06  36052001.225   187732219.768       -1398.063          43.750    36052013.309   145166508.133       -1080.952          33.250  
C24  23145305.775   120523701.175        2068.408          45.250                                                                  
C09  36060279.612   187775330.084        -882.404          41.000    36060295.094   145199854.916        -682.305          37.000  
C03  36113933.576   188054733.966        -331.296          43.500    36113945.495   145415901.425        -256.068          33.500  
C35  22636996.054   117876768.370       -2364.942          45.250                                                                  
C07  36551319.490   190332317.016        -503.218          41.000    36551332.016   147177074.233        -389.353          33.000  
R18  19472005.915   103942931.417         568.886          47.750  
C10  37303481.977   194249025.088        -495.764          39.500    37303499.485   150205737.959        -383.487          35.000  
E07  27808354.142   146133882.639       -2241.098          39.000    27808381.945   109126054.952       -1673.212          29.000  
G14  22967941.713   120697398.229        2202.505          40.750  
J02  38942033.921   204641776.467         581.287          43.500  
G07  20336058.690   106866713.995       -1138.624          44.000  
G08  23084495.645   121309801.662       -2658.523          43.750  
R16  22563748.970   120531479.752        3348.062          44.750  
E26  27994205.000   147110556.252        2644.883          27.500                                                                  
J03  37969666.953   199531967.992       -1120.493          43.000  
J04  36438248.861   191484301.482        -469.175          35.750  
C12  22885325.109   119169929.627        1021.005          43.250    22885343.726    92149845.201         789.462          37.000  
G02  20511917.098   107790874.018       -1620.120          46.000  
> 2025 01 06 09 05 41.0000000  0 42                     
G17  22666294.852   119112183.222         797.659          43.250  
C04  38536508.039   200669713.122        -320.892          42.250                                                                  
G21  21219363.966   111508504.532       -3081.609          42.750  
E27  24154934.582   126935057.028         431.495          43.750    24154956.150    94789269.881         322.227          43.750  
G03  23767187.658   124897419.662        2171.991          44.000  
R15  19522077.818   104320099.974        1100.356          47.750  
E29  27114891.547   142489713.922       -2007.460          39.250    27114926.732   106404784.247       -1499.219          42.500  
E34  27723326.457   145687169.009       -3045.620          33.250    27723348.447   108792384.227       -2274.651          29.250  
C16  36279293.525   188915788.213       -1389.804          45.750    36279311.140   146081739.457       -1074.522          32.250  
G30  21247173.949   111654687.390         955.528          45.500  
R24  24124615.477                       -4349.963          26.250  
C38  39260017.092   204437213.273        1347.696          42.250                                                                  
R17  19940512.541   106705704.006       -2879.609          48.500  
J07  36427779.030   191429277.274        -359.732          38.500  
E13  23960054.910   125910983.033        1507.501          44.500    23960078.990    94024547.628        1125.796          44.500  
E30  25787433.529   135513842.198       -1202.267          45.000    25787462.364   101195489.275        -897.691          40.750  
E15  23914660.584   125672405.411       -1279.758          45.750    23914684.214    93846379.029        -955.598          46.500  
E21  26694893.830   140282671.662        1479.703          36.500    26694924.233   104756690.893        1105.098          39.250  
E19  27782627.018                        -930.986          26.250    27782669.440   109025146.790        -695.283          32.750  
C01  37367292.516   194581313.187        -334.078          42.750    37367309.684   150462686.165        -258.289          33.500  
R14  20789016.601   110817130.113       -2377.225          50.000  
C26  21600630.947   112480167.519        -415.379          44.000                                                                  
R19  22278769.928   119176425.669        3018.425          34.000  
C06  36052269.569   187733617.746       -1398.103          43.750    36052281.553   145167589.162       -1081.193          33.000  
C24  23144908.487   120521632.694        2068.291          46.000                                                                  
C09  36060448.874   187776212.350        -882.304          41.250    36060464.583   145200537.155        -682.658          36.750  
C03  36113997.114   188055065.156        -331.315          43.500    36114008.536   145416157.535        -256.253          33.750  
C35  22637450.138   117879133.158       -2364.957          45.000                                                                  
C07  36551416.247   190332820.059        -502.980          41.000    36551428.882   147177463.220        -389.110          33.750  
R18  19471899.357   103942362.692         568.235          47.750  
C10  37303577.274   194249520.591        -495.543          39.500    37303594.836   150206121.106        -383.083          34.750  
E07  27808780.515   146136123.554       -2240.995          39.000    27808808.396   109127728.369       -1673.153          29.500  
G14  22967522.708   120695195.607        2202.634          38.750  
J02  38941923.232   204641195.013         581.291          43.500  
G07  20336275.290   106867852.744       -1139.207          44.000  
G08  23085001.466   121312459.914       -2658.540          44.000  
R16  22563122.343   120528131.410        3348.495          42.250  
E26  27993701.586   147107911.053        2644.922          26.250                                                                  
J03  37969880.212   199533088.387       -1120.338          43.000  
J04  36438338.258   191484770.374        -468.988          35.500  
C12  22885129.131   119168908.708        1020.712          43.500    22885147.543    92149055.760         789.308          37.250  
G02  20512225.441   107792494.329       -1620.700          46.000  
> 2025 01 06 09 05 42.0000000  0 43                     
G17  22666143.290   119111385.730         797.300          43.000  
C04  38536569.658   200670034.135        -321.046          42.250                                                                  
G21  21219950.585   111511586.370       -3082.122          42.500  
E27  24154852.483   126934625.611         431.321          43.750    24154874.042    94788947.719         322.104          43.000  
G03  23766774.305   124895247.716        2171.866          43.750  
R15  19521871.930   104318999.912        1099.672          47.750  
E29  27115273.414   142491721.602       -2007.946          39.000    27115308.798   106406283.480       -1499.308          42.250  
E34  27723906.008   145690214.697       -3045.743          33.250    27723927.992   108794658.631       -2275.033          29.750  
C16  36279560.468   188917178.078       -1390.031          46.000    36279578.073   146082814.184       -1074.773          32.750  
G30  21246992.324   111653732.294         954.678          45.500  
R24  24125429.084                       -4349.646          26.500  
C38  39259758.353   204435865.460        1347.809          42.250                                                                  
R17  19941050.708   106708583.880       -2880.139          48.500  
J07  36427847.388   191429637.231        -360.069          38.500  
E13  23959768.111   125909475.682        1507.192          44.250    23959792.138    94023422.025        1125.407          44.500  
E30  25787662.271   135515044.551       -1202.540          45.000    25787691.185   101196387.128        -897.874          41.000  
E15  23914904.181   125673685.371       -1280.214          45.750    23914927.747    93847334.858        -956.008          46.500  
E21  26694612.278   140281191.934        1479.727          39.500    26694642.744   104755585.916        1104.984          40.000  
E19  27782804.662                        -931.169          24.250    27782846.586   109025842.142        -695.311          31.750  
C01  37367356.661   194581647.193        -334.019          42.500    37367373.875   150462944.456        -258.245          34.000  
R14  20789462.690   110819507.738       -2377.990          50.000  
C26  21600710.797   112480583.215        -416.025          44.250                                                                  
R19  22278205.533   119173407.362        3018.203          34.250  
C06  36052537.935   187735016.007       -1398.339          43.750    36052549.854   145168670.393       -1081.697          33.250  
C24  23144511.246   120519564.511        2068.057          45.500                                                                  
C09  36060618.353   187777094.946        -882.626          41.250    36060633.975   145201219.625        -682.566          37.000  
C03  36114060.642   188055396.451        -331.371          43.500    36114072.275   145416413.722        -256.317          33.500  
C35  22637904.359   117881498.227       -2365.222          45.250                                                                  
C07  36551512.729   190333323.194        -503.294          41.250    36551525.546   147177852.264        -388.832          33.500  
R18  19471793.017   103941794.849         567.376          48.000  
C10  37303672.379   194250016.170        -495.638          39.500    37303689.643   150206504.362        -383.535          35.000  
E07  27809206.757   146138364.361       -2240.667          38.500    27809234.874   109129401.747       -1673.878          29.250  
G14  22967103.309   120692993.062        2202.533          40.000  
J02  38941812.786   204640613.607         581.368          43.500  
G07  20336492.127   106868992.259       -1139.851          44.000  
G08  23085507.240   121315118.184       -2658.251          43.750  
R16  22562495.437   120524783.252        3348.062          45.000  
G09  24935831.233                       -2194.388          20.750  
E26  27993197.927   147105266.116        2645.318          26.500                                                                  
J03  37970093.463   199534208.934       -1120.580          43.000  
J04  36438427.539   191485239.353        -469.190          35.750  
C12  22884933.155   119167888.304        1020.190          43.500    22884951.710    92148266.719         788.954          37.250  
G02  20512533.819   107794115.317       -1621.302          46.000  
> 2025 01 06 09 05 43.0000000  0 43                     
G17  22665991.610   119110588.896         796.325          43.000  
C04  38536631.411   200670355.550        -321.713          42.250                                                                  
G21  21220537.270   111514669.055       -3083.264          42.250  
E27  24154770.479   126934194.674         430.632          43.750    24154791.969    94788625.911         321.458          43.000  
G03  23766361.052   124893076.125        2171.139          43.750  
R15  19521666.169   104317900.824        1098.403          47.500  
E29  27115655.473   142493729.735       -2008.439          39.000    27115690.970   106407783.081       -1499.913          42.250  
E34  27724485.590   145693260.927       -3046.750          33.000    27724507.829   108796933.409       -2275.162          30.000  
C16  36279827.493   188918568.497       -1390.825          46.000    36279844.739   146083889.354       -1075.396          32.500  
G30  21246810.777   111652778.180         953.467          45.750  
R24  24126244.386                       -4350.440          26.750  
C38  39259499.697   204434518.015        1347.143          42.250                                                                  
R17  19941588.894   106711464.665       -2881.466          48.500  
J07  36427915.841   191429997.615        -360.817          38.500  
E13  23959481.439   125907969.127        1506.001          44.500    23959505.362    94022297.001        1124.552          44.750  
E30  25787891.213   135516247.503       -1203.470          45.000    25787920.083   101197285.441        -898.623          40.750  
E15  23915147.943   125674966.199       -1281.412          46.000    23915171.458    93848291.312        -956.897          46.500  
E21  26694330.855   140279712.516        1479.023          40.250    26694361.297   104754481.151        1104.592          40.000  
E19  27782981.202                        -932.893          24.250    27783023.876   109026538.072        -696.440          32.000  
C01  37367420.981   194581981.618        -334.659          42.750    37367437.886   150463203.045        -259.081          33.500  
R14  20789908.946   110821886.370       -2379.293          50.000  
C26  21600790.839   112480999.772        -417.126          44.250                                                                  
R19  22277640.875   119170389.929        3016.731          34.000  
C06  36052806.544   187736414.827       -1399.304          43.750    36052818.539   145169752.035       -1082.047          33.500  
C24  23144114.179   120517496.975        2067.053          45.750                                                                  
C09  36060787.870   187777978.168        -883.748          41.250    36060803.570   145201902.576        -683.153          37.000  
C03  36114124.340   188055728.154        -331.998          43.500    36114135.991   145416670.208        -256.825          33.250  
C35  22638358.753   117883863.891       -2366.147          45.250                                                                  
C07  36551609.329   190333826.665        -503.637          41.250    36551622.253   147178241.610        -389.824          33.500  
R18  19471686.789   103941228.173         565.972          47.750  
C10  37303767.758   194250512.130        -496.372          39.500    37303784.801   150206887.846        -383.870          34.750  
E07  27809633.124   146140605.359       -2241.342          38.500    27809661.294   109131075.196       -1673.539          29.750  
G14  22966684.286   120690790.887        2201.890          40.500  
J02  38941702.322   204640032.538         580.787          43.500  
G07  20336709.282   106870132.841       -1141.224          44.000  
G08  23086013.095   121317776.837       -2659.066          44.000  
R16  22561868.805   120521435.452        3347.457          45.250  
G09  24936248.900                       -2193.917          20.000  
E26  27992694.461   147102621.617        2643.980          26.250                                                                  
J03  37970306.680   199535329.921       -1121.378          43.250  
J04  36438517.026   191485708.697        -469.659          35.500  
C12  22884737.351   119166868.686        1018.966          43.500    22884755.933    92147478.292         788.022          37.250  
G02  20512842.650   107795737.305       -1622.688          45.750  
> 2025 01 06 09 05 44.0000000  0 43                     
G17  22665839.976   119109792.579         796.084          43.000  
C04  38536693.182   200670677.230        -321.727          42.250                                                                  
G21  21221123.945   111517752.467       -3083.672          42.250  
E27  24154688.476   126933764.100         430.477          43.750    24154710.020    94788304.374         321.504          43.250  
G03  23765948.033   124890904.760        2171.342          43.750  
R15  19521460.511   104316802.549        1097.985          47.500  
E29  27116037.670   142495738.269       -2008.631          39.000    27116073.209   106409282.966       -1500.013          42.500  
E34  27725065.804   145696307.619       -3047.058          32.500    27725087.495   108799208.538       -2275.370          29.750  
C16  36280094.635   188919959.359       -1391.059          45.750    36280112.138   146084964.860       -1075.723          32.250  
G30  21246629.394   111651824.943         952.861          45.750  
R24  24127058.941                       -4350.149          27.250  
C38  39259240.994   204433170.795        1347.168          42.250                                                                  
R17  19942127.374   106714346.212       -2881.894          48.250  
J07  36427984.450   191430358.265        -360.892          38.750  
E13  23959194.913   125906463.217        1505.705          44.500    23959218.776    94021172.460        1124.304          44.750  
E30  25788120.265   135517450.891       -1203.578          45.000    25788149.159   101198184.078        -898.834          40.750  
E15  23915391.815   125676247.734       -1281.857          46.000    23915415.298    93849248.293        -957.189          46.500  
E21  26694049.375   140278233.286        1479.197          40.000    26694079.976   104753376.544        1104.523          40.000  
E19  27783158.716                        -932.598          24.500    27783201.373   109027234.390        -696.593          33.000  
C01  37367485.386   194582316.325        -334.815          43.000    37367501.982   150463461.845        -258.873          33.750  
R14  20790355.484   110824265.913       -2379.922          50.000  
C26  21600870.968   112481417.073        -417.598          44.250                                                                  
R19  22277076.825   119167373.229        3016.444          33.750  
C06  36053075.174   187737814.076       -1399.336          44.000    36053087.540   145170833.996       -1081.836          33.250  
C24  23143717.240   120515429.908        2066.932          45.750                                                                  
C09  36060957.395   187778861.811        -883.905          41.250    36060973.284   145202585.851        -683.311          37.000  
C03  36114188.016   188056060.138        -332.105          43.750    36114199.922   145416926.922        -256.644          33.500  
C35  22638813.150   117886229.994       -2366.283          45.500                                                                  
C07  36551705.931   190334330.367        -503.759          41.500    36551718.554   147178631.091        -389.711          33.250  
R18  19471580.852   103940662.541         565.170          48.000  
C10  37303863.138   194251008.285        -496.038          40.000    37303880.424   150207271.507        -383.540          34.750  
E07  27810059.592   146142846.400       -2241.031          39.000    27810087.898   109132748.676       -1673.166          29.750  
G14  22966265.427   120688588.937        2201.941          40.500  
J02  38941591.732   204639451.674         580.909          43.500  
G07  20336926.592   106871274.337       -1141.881          44.000  
G08  23086518.979   121320435.684       -2658.897          44.250  
R16  22561242.004   120518087.919        3347.473          45.500  
G09  24936666.161                       -2195.510          20.250  
E26  27992191.372   147099977.486        2643.389          26.500                                                                  
J03  37970520.105   199536451.226       -1121.445          43.250  
J04  36438606.626   191486178.306        -469.796          36.000  
C12  22884541.762   119165849.723        1018.726          43.750    22884559.814    92146690.366         787.648          37.250  
G02  20513151.394   107797360.126       -1623.179          46.000  
> 2025 01 06 09 05 45.0000000  0 43                     
G17  22665688.431   119108996.396         795.948          43.250  
C04  38536754.815   200670998.814        -321.660          42.250                                                                  
G21  21221710.675   111520836.196       -3084.064          42.250  
E27  24154606.564   126933333.483         430.482          44.000    24154628.096    94787982.815         321.501          43.000  
G03  23765534.843   124888733.223        2171.479          43.750  
R15  19521255.024   104315704.731        1097.446          47.750  
E29  27116419.917   142497746.761       -2008.541          39.500    27116455.398   106410782.818       -1500.060          42.250  
E34  27725645.760   145699354.277       -3046.635          33.000    27725667.318   108801483.670       -2274.981          29.750  
C16  36280361.770   188921350.264       -1391.146          46.000    36280379.360   146086040.393       -1075.823          32.500  
G30  21246448.081   111650872.184         952.336          45.750  
R24  24127874.132                       -4350.712          28.000  
C38  39258982.409   204431823.412        1347.269          42.500                                                                  
R17  19942665.956   106717228.156       -2882.396          48.250  
J07  36428052.862   191430718.815        -360.788          38.750  
E13  23958908.473   125904957.581        1505.351          44.250    23958932.249    94020048.130        1124.129          44.500  
E30  25788349.274   135518654.342       -1203.671          45.250    25788378.260   101199082.759        -898.885          40.750  
E15  23915635.665   125677529.601       -1282.250          46.000    23915659.214    93850205.538        -957.526          46.500  
E21  26693767.771   140276753.854        1479.442          40.000    26693798.516   104752271.780        1104.710          40.000  
E19  27783336.079                        -933.663          24.750    27783378.879   109027930.875        -696.645          32.250  
C01  37367549.701   194582650.911        -334.745          42.750    37367566.378   150463720.582        -258.762          33.500  
R14  20790802.021   110826645.957       -2380.455          50.000  
C26  21600951.256   112481834.738        -418.012          44.250                                                                  
R19  22276512.490   119164356.852        3016.256          33.750  
C06  36053344.127   187739213.367       -1399.549          44.000    36053356.260   145171916.060       -1082.299          33.250  
C24  23143320.258   120513362.946        2066.762          45.750                                                                  
C09  36061127.042   187779745.520        -883.885          41.250    36061143.203   145203269.218        -683.431          37.000  
C03  36114251.750   188056392.005        -331.943          43.750    36114263.799   145417183.555        -256.753          33.250  
C35  22639267.646   117888596.162       -2366.389          45.500                                                                  
C07  36551802.603   190334833.890        -503.634          41.250    36551815.096   147179020.434        -389.516          33.250  
R18  19471474.970   103940097.576         564.447          48.000  
C10  37303958.381   194251504.286        -496.055          40.250    37303975.569   150207655.039        -383.938          34.750  
E07  27810486.018   146145087.106       -2240.851          39.000    27810514.278   109134421.958       -1673.003          29.250  
G14  22965846.401   120686386.848        2201.915          40.250  
J02  38941481.108   204638870.642         580.970          43.500  
G07  20337144.095   106872416.365       -1142.411          43.750  
G08  23087024.995   121323094.354       -2658.706          44.250  
R16  22560615.246   120514740.260        3347.570          45.500  
G09  24937082.849                       -2192.792          20.500  
E26  27991687.776   147097333.152        2644.030          26.250                                                                  
J03  37970733.622   199537572.446       -1121.321          43.250  
J04  36438696.124   191486647.769        -469.586          36.000  
C12  22884346.135   119164831.048        1018.292          43.750    22884363.979    92145902.650         787.450          37.500  
G02  20513460.244   107798983.420       -1623.698          46.000  
> 2025 01 06 09 05 46.0000000  0 43                     
G17  22665537.047   119108200.681         796.149          43.250  
C04  38536816.657   200671320.602        -321.356          42.250                                                                  
G21  21222297.653   111523920.593       -3084.169          42.250  
E27  24154524.660   126932903.153         430.843          43.750    24154546.169    94787661.471         321.709          42.500  
G03  23765121.576   124886561.851        2171.951          43.750  
R15  19521049.798   104314607.687        1097.247          47.500  
E29  27116802.274   142499755.572       -2008.498          39.500    27116837.644   106412282.909       -1499.911          42.500  
E34  27726225.817   145702401.386       -3046.623          33.000    27726246.907   108803759.133       -2274.740          29.250  
C16  36280628.956   188922741.535       -1390.838          46.000    36280646.763   146087116.223       -1075.497          32.750  
G30  21246267.059   111649920.224         952.225          45.750  
R24  24128689.438                       -4350.500          29.250  
C38  39258723.699   204430476.187        1347.742          42.250                                                                  
R17  19943204.692   106720110.806       -2882.365          48.500  
J07  36428121.551   191431079.559        -360.299          38.500  
E13  23958622.021   125903452.531        1505.346          44.250    23958645.831    94018924.225        1124.188          44.500  
E30  25788578.391   135519858.184       -1203.447          45.000    25788607.363   101199981.720        -898.619          40.500  
E15  23915879.648   125678812.115       -1282.206          45.750    23915903.279    93851163.267        -957.580          46.500  
E21  26693486.330   140275274.550        1479.778          39.750    26693517.003   104751167.102        1105.098          40.000  
E19  27783513.683                        -934.420          26.000    27783556.405   109028627.758        -696.696          32.000  
C01  37367614.035   194582985.701        -334.220          42.750    37367630.944   150463979.485        -258.633          33.000  
R14  20791248.721   110829026.820       -2380.639          49.750  
C26  21601031.582   112482253.076        -418.024          44.250                                                                  
R19  22275948.959   119161341.171        3016.011          34.000  
C06  36053613.052   187740613.026       -1399.229          44.000    36053625.153   145172998.345       -1082.168          33.250  
C24  23142923.509   120511296.414        2066.916          45.750                                                                  
C09  36061296.767   187780629.634        -883.768          41.000    36061312.959   145203952.866        -683.276          36.750  
C03  36114315.592   188056724.088        -331.684          43.750    36114328.056   145417440.331        -256.238          33.500  
C35  22639722.174   117890962.713       -2366.150          45.500                                                                  
C07  36551899.360   190335337.571        -503.180          41.250    36551911.626   147179409.940        -389.183          33.250  
R18  19471369.273   103939533.589         564.148          48.000  
C10  37304053.765   194252000.448        -495.669          40.000    37304070.810   150208038.690        -383.131          35.000  
E07  27810912.440   146147327.791       -2240.093          38.750    27810940.548   109136095.220       -1673.092          29.500  
G14  22965427.350   120684184.904        2202.498          40.500  
J02  38941370.392   204638289.751         581.417          43.750  
G07  20337361.715   106873559.245       -1142.639          44.000  
G08  23087531.017   121325753.168       -2658.258          44.000  
R16  22559988.446   120511392.823        3348.002          45.750  
G09  24937502.175                       -2193.106          20.750  
E26  27991184.914   147094689.135        2644.885          25.750                                                                  
J03  37970947.056   199538693.920       -1121.017          43.250  
J04  36438785.473   191487117.420        -469.093          35.500  
C12  22884150.792   119163812.949        1018.341          43.750    22884168.690    92145115.423         787.434          37.500  
G02  20513769.371   107800607.494       -1623.855          46.000  
> 2025 01 06 09 05 47.0000000  0 43                     
G17  22665385.277   119107404.094         797.137          43.250  
C04  38536878.209   200671641.280        -320.008          42.250                                                                  
G21  21222884.480   111527004.286       -3083.283          42.250  
E27  24154442.558   126932471.778         432.006          43.750    24154464.032    94787339.345         322.582          42.500  
G03  23764708.147   124884389.302        2173.367          44.000  
R15  19520844.393   104313510.036        1098.041          47.500  
E29  27117184.621   142501763.334       -2007.085          40.000    27117219.711   106413782.217       -1498.904          42.500  
E34  27726805.536   145705447.439       -3045.481          32.750    27726826.365   108806033.848       -2274.548          28.750  
C16  36280895.923   188924131.839       -1389.741          46.000    36280914.050   146088191.271       -1074.624          33.000  
G30  21246085.799   111648967.729         952.812          46.000  
R24  24129502.871                       -4348.635          27.250  
C38  39258464.674   204429127.791        1349.070          42.250                                                                  
R17  19943743.271   106722992.810       -2881.636          48.500  
J07  36428190.082   191431439.187        -359.245          38.500  
E13  23958335.426   125901946.730        1506.211          44.250    23958359.232    94017799.766        1124.757          44.500  
E30  25788807.259   135521061.053       -1202.251          45.000    25788836.282   101200879.975        -897.805          40.250  
E15  23916123.535   125680093.948       -1281.424          46.000    23916147.168    93852120.472        -956.892          46.750  
E21  26693204.514   140273794.015        1481.219          39.750    26693235.150   104750061.513        1106.061          40.000  
E19  27783691.609                        -932.060          26.250    27783733.784   109029324.027        -695.902          31.750  
C01  37367678.180   194583319.380        -333.156          43.000    37367695.161   150464237.494        -257.631          33.500  
R14  20791695.236   110831407.133       -2379.974          49.500  
C26  21601111.810   112482670.754        -417.255          44.500                                                                  
R19  22275384.915   119158324.799        3016.773          34.000  
C06  36053881.660   187742011.725       -1398.121          44.000    36053893.752   145174079.886       -1081.198          33.000  
C24  23142526.373   120509228.963        2068.056          45.500                                                                  
C09  36061466.362   187781512.826        -882.657          41.250    36061482.326   145204635.796        -682.519          36.750  
C03  36114379.147   188057055.041        -330.230          43.750    36114391.826   145417696.225        -255.090          33.500  
C35  22640176.623   117893328.312       -2365.059          45.500                                                                  
C07  36551995.853   190335840.070        -501.881          41.250    36552008.056   147179798.510        -388.135          33.750  
R18  19471263.618   103938969.219         564.684          48.250  
C10  37304148.840   194252495.440        -494.409          40.250    37304165.966   150208421.465        -382.371          34.750  
E07  27811338.537   146149567.142       -2238.540          39.250    27811366.383   109137767.364       -1671.263          28.750  
G14  22965008.075   120681981.787        2203.840          41.000  
J02  38941259.669   204637707.657         582.777          43.750  
G07  20337579.149   106874701.643       -1142.019          44.000  
G08  23088036.705   121328410.789       -2656.979          43.750  
R16  22559361.536   120508044.250        3349.231          46.000  
G09  24937922.535                       -2183.722          18.500  
E26  27990681.567   147092043.993        2645.683          26.000                                                                  
J03  37971160.129   199539814.290       -1119.769          43.750  
J04  36438874.465   191487585.909        -467.703          35.750  
C12  22883955.087   119162794.117        1019.354          44.000    22883972.931    92144327.598         788.182          37.500  
G02  20514078.304   107802231.000       -1623.040          45.750  
> 2025 01 06 09 05 48.0000000  0 42                     
G17  22665233.357   119106606.361         797.999          43.250  
C04  38536939.636   200671960.567        -319.051          42.250                                                                  
G21  21223471.168   111530087.037       -3082.625          42.500  
E27  24154360.221   126932039.088         433.043          43.750    24154381.617    94787016.239         323.262          42.750  
G03  23764294.455   124882215.328        2174.394          44.000  
R15  19520638.858   104312411.536        1098.556          47.500  
E29  27117566.492   142503769.805       -2006.301          40.000    27117601.510   106415280.554       -1498.251          42.500  
E34  27727384.518   145708492.288       -3044.665          33.000    27727405.738   108808307.574       -2273.392          28.750  
C16  36281162.689   188925520.934       -1388.849          46.000    36281180.433   146089265.397       -1073.936          32.750  
G30  21245904.469   111648014.446         953.333          46.000  
R24  24130316.335                       -4347.402          27.000  
C38  39258205.575   204427777.989        1350.097          42.250                                                                  
R17  19944281.647   106725873.871       -2880.899          48.500  
J07  36428258.302   191431797.419        -357.802          38.750  
E13  23958048.773   125900439.913        1506.968          44.250    23958072.463    94016674.555        1125.238          44.250  
E30  25789035.957   135522262.715       -1201.406          44.750    25789064.925   101201777.311        -897.126          40.250  
E15  23916367.285   125681374.831       -1280.813          46.000    23916390.919    93853076.980        -956.468          46.500  
E21  26692922.537   140272311.992        1482.356          39.750    26692953.018   104748954.820        1106.920          40.000  
E19  27783869.145                        -931.122          26.750    27783910.807   109030019.502        -695.334          32.250  
C01  37367742.160   194583651.683        -332.093          42.750    37367759.235   150464494.458        -256.705          33.750  
R14  20792141.529   110833786.620       -2379.441          49.750  
C26  21601191.962   112483087.533        -416.709          44.250                                                                  
R19  22274820.166   119155307.468        3017.332          33.750  
C06  36054150.099   187743409.194       -1397.224          44.000    36054162.273   145175160.508       -1080.477          33.000  
C24  23142129.153   120507160.355        2068.875          45.500                                                                  
C09  36061635.572   187782394.813        -881.858          41.000    36061651.561   145205317.816        -681.948          37.250  
C03  36114442.572   188057384.637        -329.295          43.750    36114455.028   145417951.128        -254.908          33.500  
C35  22640630.614   117895692.714       -2364.131          45.500                                                                  
C07  36552091.941   190336341.156        -500.741          41.250    36552103.919   147180185.987        -387.734          33.250  
R18  19471157.715   103938404.215         564.954          48.250  
C10  37304243.446   194252988.982        -493.215          40.000    37304260.400   150208803.105        -381.522          35.250  
E07  27811764.387   146151804.887       -2237.289          39.250    27811792.176   109139438.490       -1670.678          28.750  
G14  22964588.471   120679777.280        2204.876          41.000  
J02  38941148.805   204637124.105         583.955          43.750  
G07  20337796.359   106875843.298       -1141.593          44.000  
G08  23088542.069   121331066.962       -2655.854          43.500  
R16  22558734.389   120504694.296        3350.307          45.500  
E26  27990177.857   147089397.544        2645.933          24.250                                                                  
J03  37971373.111   199540933.314       -1118.763          43.500  
J04  36438963.078   191488052.993        -466.609          35.750  
C12  22883759.250   119161774.302        1019.873          43.750    22883777.299    92143539.006         788.717          37.500  
G02  20514387.302   107803853.707       -1622.624          45.750  
> 2025 01 06 09 05 49.0000000  0 42                     
G17  22665081.469   119105808.023         798.504          43.250  
C04  38537000.718   200672279.020        -318.342          42.250                                                                  
G21  21224057.541   111533169.381       -3082.374          42.500  
E27  24154277.806   126931605.623         433.651          43.750    24154299.024    94786692.536         323.952          42.750  
G03  23763880.684   124880040.449        2175.114          44.000  
R15  19520433.163   104311312.700        1098.787          47.250  
E29  27117948.197   142505775.505       -2005.425          40.000    27117983.177   106416778.317       -1497.666          42.500  
E34  27727963.884   145711536.404       -3044.082          32.750    27727985.199   108810580.787       -2272.931          28.750  
C16  36281429.357   188926909.338       -1388.229          46.000    36281446.962   146090339.034       -1073.371          32.500  
G30  21245722.964   111647060.901         953.421          46.000  
R24  24131130.783                       -4345.892          25.500  
C38  39257946.022   204426427.274        1350.956          42.250                                                                  
R17  19944819.829   106728754.522       -2880.634          48.250  
J07  36428326.276   191432154.816        -357.066          38.500  
E13  23957761.916   125898932.618        1507.362          44.250    23957785.611    94015548.986        1125.555          44.250  
E30  25789264.486   135523463.699       -1200.865          45.000    25789293.498   101202674.148        -896.739          40.250  
E15  23916610.909   125682655.299       -1280.451          46.000    23916634.628    93854033.173        -956.203          46.500  
E21  26692640.240   140270829.030        1483.341          39.750    26692670.785   104747847.413        1107.542          39.750  
E19  27784046.597                        -929.881          25.000    27784087.741   109030714.588        -694.581          32.000  
C01  37367805.782   194583983.139        -331.128          43.000    37367822.915   150464750.766        -256.133          33.250  
R14  20792587.882   110836165.821       -2379.245          49.750  
C26  21601271.954   112483503.928        -416.382          44.250                                                                  
R19  22274255.951   119152289.729        3017.698          34.000  
C06  36054418.253   187744805.968       -1396.590          43.750    36054430.320   145176240.587       -1079.865          33.000  
C24  23141731.730   120505091.118        2069.267          45.500                                                                  
C09  36061804.946   187783276.132        -881.200          41.000    36061820.888   145205999.295        -681.181          36.750  
C03  36114505.738   188057713.386        -328.502          43.750    36114517.867   145418205.337        -254.255          33.000  
C35  22641084.627   117898056.440       -2363.593          45.500                                                                  
C07  36552188.010   190336841.317        -499.719          41.250    36552200.519   147180572.705        -386.569          33.000  
R18  19471051.880   103937839.075         565.020          48.250  
C10  37304337.947   194253481.625        -492.288          40.000    37304354.865   150209184.067        -380.951          35.000  
E07  27812189.867   146154041.555       -2236.389          39.000    27812217.689   109141108.737       -1669.899          29.250  
G14  22964168.697   120677571.849        2205.688          40.750  
J02  38941037.586   204636539.646         584.771          43.750  
G07  20338013.595   106876984.743       -1141.518          44.000  
G08  23089047.181   121333722.212       -2654.959          43.500  
R16  22558107.006   120501343.474        3351.011          45.500  
E26  27989673.604   147086750.427        2647.262          23.250                                                                  
J03  37971585.940   199542051.517       -1117.950          43.250  
J04  36439051.600   191488519.183        -466.006          36.000  
C12  22883563.243   119160754.028        1020.277          43.750    22883581.285    92142750.071         789.029          37.250  
G02  20514696.091   107805476.129       -1622.405          45.500  
> 2025 01 06 09 05 50.0000000  0 42                     
G17  22664929.352   119105009.296         798.702          43.250  
C04  38537061.702   200672596.851        -317.910          42.250                                                                  
G21  21224644.083   111536251.533       -3082.377          42.250  
E27  24154195.171   126931171.602         434.030          44.000    24154216.400    94786368.430         324.113          42.750  
G03  23763466.630   124877864.884        2175.567          44.000  
R15  19520227.585   104310213.743        1098.693          47.250  
E29  27118329.753   142507780.661       -2005.049          40.250    27118364.753   106418275.689       -1497.412          42.250  
E34  27728542.958   145714580.081       -3043.889          33.250    27728564.296   108812853.665       -2272.746          29.000  
C16  36281695.805   188928297.278       -1388.042          46.000    36281713.607   146091412.273       -1073.385          32.750  
G30  21245541.404   111646107.313         953.277          46.000  
R24  24131942.669                       -4344.791          24.500  
C38  39257686.438   204425075.884        1351.353          42.250                                                                  
R17  19945357.932   106731635.009       -2880.750          48.250  
J07  36428394.296   191432511.599        -357.009          38.500  
E13  23957475.026   125897425.081        1507.234          44.250    23957498.714    94014423.223        1125.552          44.250  
E30  25789492.820   135524664.222       -1200.649          44.750    25789521.952   101203570.651        -896.705          40.500  
E15  23916854.545   125683935.587       -1280.551          45.750    23916878.264    93854989.226        -956.172          46.500  
E21  26692357.996   140269345.359        1483.622          39.500    26692388.482   104746739.484        1107.960          40.000  
E19  27784223.638                        -930.188          24.750    27784264.709   109031409.486        -695.040          31.500  
C01  37367869.418   194584313.983        -330.812          43.000    37367886.314   150465006.582        -255.907          33.750  
R14  20793034.174   110838544.968       -2379.437          49.500  
C26  21601351.874   112483920.165        -416.581          44.250                                                                  
R19  22273692.092   119149271.783        3017.843          34.000  
C06  36054686.389   187746202.279       -1396.360          44.000    36054698.445   145177320.301       -1079.561          33.000  
C24  23141334.188   120503021.460        2069.546          45.500                                                                  
C09  36061974.061   187784157.023        -881.013          41.000    36061990.139   145206680.453        -681.177          36.500  
C03  36114568.891   188058041.506        -328.156          43.500    36114580.720   145418459.045        -253.864          33.500  
C35  22641538.466   117900419.723       -2363.395          45.500                                                                  
C07  36552283.928   190337340.809        -499.467          41.500    36552296.591   147180958.962        -386.030          33.250  
R18  19470945.968   103937274.061         564.632          48.000  
C10  37304432.274   194253973.608        -491.929          40.250    37304449.418   150209564.477        -380.413          35.000  
E07  27812615.303   146156277.376       -2235.718          39.000    27812643.195   109142778.324       -1669.261          28.500  
G14  22963748.951   120675365.738        2206.151          40.750  
J02  38940926.218   204635954.486         585.271          43.750  
G07  20338230.752   106878126.202       -1141.807          44.250  
G08  23089552.319   121336376.759       -2654.518          44.000  
R16  22557479.783   120497991.962        3351.530          45.500  
E26  27989168.726   147084102.437        2648.714          25.500                                                                  
J03  37971798.522   199543169.117       -1117.594          43.250  
J04  36439140.503   191488984.699        -465.645          35.000  
C12  22883367.151   119159733.493        1020.386          44.000    22883385.312    92141960.933         788.831          37.500  
G02  20515004.750   107807098.499       -1622.735          45.500  
> 2025 01 06 09 05 51.0000000  0 43                     
G17  22664777.643   119104211.492         798.070          43.500  
C04  38537122.753   200672915.331        -318.211          42.000                                                                  
G21  21225230.694   111539334.770       -3083.159          42.500  
E27  24154112.707   126930738.320         433.513          44.000    24154133.913    94786044.866         323.759          43.000  
G03  23763052.895   124875689.938        2175.187          44.000  
R15  19520022.189   104309116.013        1097.718          47.000  
E29  27118711.384   142509786.580       -2005.629          40.250    27118746.426   106419773.624       -1497.730          42.250  
G19  25205532.191                        1767.906          31.250  
E34  27729122.229   145717624.503       -3044.307          32.750    27729143.506   108815127.173       -2273.269          29.750  
C16  36281962.509   188929686.011       -1388.543          46.000    36281979.957   146092486.110       -1073.861          32.500  
G30  21245360.166   111645154.977         952.251          46.250  
R24  24132754.313                       -4346.578          25.750  
C38  39257426.964   204423725.097        1351.060          42.250                                                                  
R17  19945896.362   106734516.649       -2881.646          48.000  
J07  36428462.296   191432869.012        -357.246          38.500  
E13  23957188.366   125895918.565        1506.617          44.250    23957211.978    94013298.232        1125.030          44.500  
E30  25789721.320   135525865.575       -1201.227          45.000    25789750.575   101204467.749        -897.078          40.500  
E15  23917098.340   125685216.961       -1281.344          46.000    23917122.162    93855946.099        -956.830          46.500  
E21  26692075.727   140267862.232        1483.500          39.750    26692106.276   104745631.957        1107.710          40.000  
E19  27784400.678                        -932.446          24.000    27784442.084   109032105.088        -695.694          31.750  
C01  37367932.982   194584645.479        -331.249          42.750    37367949.931   150465262.902        -256.083          33.250  
R14  20793480.727   110840925.367       -2380.484          49.500  
C26  21601431.949   112484337.520        -417.306          44.250                                                                  
R19  22273128.117   119146254.973        3016.916          34.000  
C06  36054954.543   187747599.398       -1396.821          43.750    36054967.272   145178400.647       -1080.241          32.750  
C24  23140936.922   120500952.666        2068.930          45.250                                                                  
C09  36062143.515   187785038.743        -881.627          41.000    36062159.900   145207362.247        -681.557          37.000  
C03  36114632.017   188058370.278        -328.467          43.500    36114643.681   145418713.295        -254.219          33.500  
C35  22641992.372   117902783.824       -2364.023          45.500                                                                  
C07  36552379.927   190337840.882        -499.746          41.250    36552392.322   147181345.644        -386.485          33.000  
R18  19470840.400   103936710.516         563.386          48.000  
C10  37304526.916   194254466.175        -492.077          39.750    37304544.386   150209945.361        -380.688          34.750  
E07  27813040.966   146158513.611       -2235.879          39.000    27813068.826   109144448.274       -1669.705          28.250  
G14  22963329.242   120673160.258        2205.807          40.750  
J02  38940814.883   204635369.915         584.912          43.750  
G07  20338448.208   106879268.954       -1142.858          44.500  
G08  23090057.475   121339031.917       -2654.986          44.250  
R16  22556852.581   120494641.087        3351.183          45.250  
E26  27988665.489   147081455.339        2647.815          26.250                                                                  
J03  37972011.390   199544287.413       -1117.996          43.000  
J04  36439229.112   191489450.847        -465.747          34.750  
C12  22883171.475   119158714.019        1019.478          44.000    22883189.394    92141172.587         788.503          37.000  
G02  20515313.593   107808722.100       -1623.710          45.500  
> 2025 01 06 09 05 52.0000000  0 43                     
G17  22664625.662   119103412.888         799.149          43.500  
C04  38537183.702   200673232.781        -316.850          42.250                                                                  
G21  21225817.263   111542417.410       -3082.203          42.500  
E27  24154030.061   126930304.068         434.931          44.250    24154051.364    94785720.600         324.855          43.500  
G03  23762638.803   124873513.903        2176.702          43.750  
R15  19519816.614   104308017.771        1098.677          47.250  
E29  27119093.058   142511791.516       -2004.255          40.250    27119127.946   106421270.834       -1496.766          42.500  
G19  25205195.455                        1768.617          32.500  
E34  27729701.400   145720668.095       -3043.092          32.750    27729722.861   108817399.993       -2272.422          30.000  
C16  36282229.084   188931073.884       -1387.256          46.000    36282246.672   146093559.310       -1072.892          32.750  
G30  21245178.803   111644202.175         953.191          46.250  
R24  24133565.966                       -4345.475          25.250  
C38  39257167.292   204422373.240        1352.566          42.500                                                                  
R17  19946434.830   106737397.741       -2880.696          48.000  
J07  36428530.155   191433225.405        -355.780          38.750  
E13  23956901.512   125894411.393        1507.585          44.750    23956925.179    94012172.752        1125.878          44.500  
E30  25789949.760   135527066.060       -1199.994          45.000    25789979.035   101205364.219        -895.957          40.750  
E15  23917342.046   125686497.746       -1280.375          46.250    23917365.888    93856902.520        -956.058          46.500  
E21  26691793.371   140266377.993        1484.978          40.250    26691823.826   104744523.598        1108.965          39.500  
E19  27784577.070                        -930.566          25.250    27784619.580   109032800.123        -694.700          32.000  
C01  37367996.524   194584975.920        -329.724          42.750    37368013.326   150465518.442        -255.111          33.750  
R14  20793927.157   110843305.334       -2379.612          49.750  
C26  21601512.038   112484754.305        -416.326          44.250                                                                  
R19  22272563.643   119143237.561        3018.025          33.500  
C06  36055222.664   187748995.641       -1395.678          43.750    36055235.489   145179480.302       -1079.380          33.000  
C24  23140539.325   120498883.049        2070.189          45.500                                                                  
C09  36062312.692   187785919.622        -880.303          41.250    36062329.224   145208043.401        -680.729          37.000  
C03  36114695.089   188058698.021        -327.151          43.500    36114706.673   145418966.697        -252.805          33.000  
C35  22642446.221   117905147.063       -2362.672          45.750                                                                  
C07  36552475.879   190338339.888        -498.379          41.500    36552488.023   147181731.526        -385.423          33.000  
R18  19470734.815   103936146.684         564.123          48.250  
C10  37304621.327   194254957.658        -490.767          40.000    37304638.724   150210325.422        -379.727          34.750  
E07  27813466.271   146160748.588       -2234.109          38.750    27813494.589   109146117.229       -1668.939          28.750  
G14  22962909.402   120670953.686        2207.209          41.000  
J02  38940703.596   204634784.225         586.394          44.000  
G07  20338665.689   106880411.310       -1142.044          44.500  
G08  23090562.648   121341685.943       -2653.334          44.250  
R16  22556225.104   120491289.160        3352.473          45.250  
E26  27988161.167   147078807.155        2649.073          26.250                                                                  
J03  37972223.864   199545404.709       -1116.714          43.000  
J04  36439317.421   191489915.947        -464.424          34.500  
C12  22882975.647   119157693.886        1020.704          44.000    22882993.264    92140383.788         789.207          37.000  
G02  20515622.490   107810345.213       -1622.779          45.750  
> 2025 01 06 09 05 53.0000000  0 43                     
G17  22664473.553   119102613.500         799.594          43.250  
C04  38537244.493   200673549.214        -316.208          42.500                                                                  
G21  21226403.843   111545499.460       -3081.888          42.500  
E27  24153947.323   126929868.882         435.510          44.250    24153968.717    94785395.628         325.219          43.750  
G03  23762224.540   124871336.778        2177.535          43.500  
R15  19519610.890   104306919.048        1098.787          47.250  
E29  27119474.256   142513795.541       -2003.596          40.000    27119509.214   106422767.348       -1496.267          42.250  
G19  25204858.545                        1769.500          32.000  
E34  27730279.927   145723710.792       -3042.330          32.750    27730302.022   108819672.148       -2272.263          29.250  
C16  36282495.493   188932460.892       -1386.757          46.000    36282512.969   146094631.826       -1072.405          32.750  
G30  21244997.285   111643248.959         953.261          46.000  
R24  24134378.996                       -4344.000          24.250  
C38  39256907.420   204421020.308        1353.378          42.500                                                                  
R17  19946973.020   106740278.291       -2880.444          48.250  
J07  36428597.795   191433580.764        -354.916          38.750  
E13  23956614.552   125892903.571        1507.952          44.750    23956638.287    94011046.782        1126.110          44.500  
E30  25790178.019   135528265.692       -1199.460          44.750    25790207.271   101206260.044        -895.653          40.500  
E15  23917585.692   125687777.937       -1280.117          46.000    23917609.516    93857858.514        -955.899          46.750  
E21  26691510.779   140264892.632        1485.745          40.250    26691541.156   104743414.402        1109.464          39.500  
E19  27784753.735                        -929.498          27.750    27784796.643   109033494.639        -694.539          33.000  
C01  37368059.676   194585305.361        -329.136          43.000    37368076.939   150465773.178        -254.468          33.500  
R14  20794373.479   110845684.865       -2379.483          49.500  
C26  21601591.886   112485170.553        -416.170          44.000                                                                  
R19  22271999.707   119140219.568        3018.285          33.500  
C06  36055490.536   187750391.021       -1395.170          43.750    36055502.981   145180559.294       -1078.947          32.750  
C24  23140141.619   120496812.627        2070.629          45.250                                                                  
C09  36062481.731   187786799.652        -879.876          41.000    36062498.383   145208723.903        -680.494          37.000  
C03  36114757.853   188059024.753        -326.484          43.750    36114769.570   145419219.358        -252.378          33.250  
C35  22642899.814   117907509.460       -2362.171          45.500                                                                  
C07  36552571.482   190338837.808        -497.519          41.750    36552583.322   147182116.549        -384.896          32.750  
R18  19470629.107   103935582.564         564.089          48.000  
C10  37304715.578   194255448.065        -489.996          40.000    37304732.614   150210704.603        -378.811          34.750  
E07  27813891.355   146162982.338       -2233.232          38.500    27813919.599   109147785.281       -1668.168          27.500  
G14  22962489.350   120668746.040        2208.132          41.000  
J02  38940591.849   204634197.452         587.143          43.750  
G07  20338882.962   106881553.281       -1141.952          44.500  
G08  23091067.534   121344338.884       -2652.551          44.000  
R16  22555597.417   120487936.159        3353.300          45.000  
E26  27987657.407   147076158.040        2649.488          27.000                                                                  
J03  37972436.256   199546521.002       -1115.872          43.250  
J04  36439405.807   191490379.990        -463.592          34.500  
C12  22882779.732   119156673.120        1020.937          44.250    22882796.701    92139594.481         789.484          37.250  
G02  20515931.238   107811967.883       -1622.707          45.750  
> 2025 01 06 09 05 54.0000000  0 43                     
G17  22664321.462   119101814.154         799.191          43.250  
C04  38537305.370   200673865.415        -316.184          42.500                                                                  
G21  21226990.491   111548581.743       -3082.620          42.500  
E27  24153864.448   126929433.530         435.302          44.250    24153885.950    94785070.527         325.129          43.750  
G03  23761810.078   124869159.398        2177.298          43.750  
R15  19519405.416   104305820.666        1098.140          47.000  
E29  27119855.429   142515799.431       -2003.939          39.750    27119890.560   106424263.750       -1496.379          42.500  
G19  25204520.799                        1769.592          32.000  
E34  27730858.788   145726753.360       -3042.353          32.750    27730880.859   108821944.239       -2272.290          29.250  
C16  36282761.863   188933847.829       -1386.974          46.000    36282779.683   146095704.300       -1072.437          32.500  
G30  21244815.825   111642296.111         952.532          46.250  
R24  24135189.804                       -4342.051          22.500  
C38  39256647.497   204419667.119        1353.171          42.500                                                                  
R17  19947511.371   106743159.103       -2880.977          48.000  
J07  36428665.386   191433935.927        -355.208          38.750  
E13  23956327.729   125891395.890        1507.521          44.500    23956351.460    94009920.929        1125.671          44.250  
E30  25790406.308   135529465.270       -1199.664          44.500    25790435.557   101207155.815        -895.761          40.500  
E15  23917829.290   125689058.344       -1280.542          46.000    23917853.163    93858814.661        -956.338          46.750  
E21  26691228.072   140263406.942        1485.798          40.250    26691258.393   104742304.959        1109.408          39.500  
E19  27784931.630                        -930.175          27.250    27784973.748   109034189.234        -694.715          33.500  
C01  37368122.892   194585634.580        -329.295          42.750    37368140.306   150466027.777        -254.855          33.500  
R14  20794819.858   110848064.744       -2380.147          49.250  
C26  21601671.885   112485587.023        -416.749          44.500                                                                  
R19  22271435.921   119137201.814        3017.432          33.750  
C06  36055758.326   187751786.335       -1395.368          44.000    36055770.337   145181638.209       -1078.763          33.000  
C24  23139743.987   120494742.195        2070.324          45.250                                                                  
C09  36062650.691   187787679.655        -880.018          41.000    36062667.381   145209404.364        -680.401          37.000  
C03  36114820.527   188059351.255        -326.457          43.750    36114831.896   145419471.838        -252.667          32.750  
C35  22643353.371   117909871.811       -2362.440          45.750                                                                  
C07  36552666.994   190339335.434        -497.586          41.500    36552678.896   147182501.329        -384.557          32.750  
R18  19470523.475   103935018.964         563.197          48.000  
C10  37304809.699   194255938.185        -490.030          40.250    37304826.988   150211083.601        -378.793          35.000  
E07  27814316.200   146165215.620       -2233.214          38.500    27814344.738   109149452.956       -1667.466          28.000  
G14  22962069.008   120666538.140        2207.947          41.000  
J02  38940480.248   204633610.382         587.062          43.750  
G07  20339100.290   106882695.682       -1142.782          44.500  
G08  23091572.173   121346991.530       -2652.616          44.000  
R16  22554969.400   120484582.965        3353.191          45.250  
E26  27987153.581   147073508.787        2648.717          25.000                                                                  
J03  37972648.636   199547637.119       -1116.121          43.250  
J04  36439493.819   191490843.757        -463.746          35.250  
C12  22882583.681   119155652.520        1020.390          44.250    22882600.897    92138805.267         789.301          37.250  
G02  20516240.162   107813590.894       -1623.325          45.500  
> 2025 01 06 09 05 55.0000000  0 43                     
G17  22664169.333   119101014.875         799.455          43.500  
C04  38537366.068   200674181.453        -315.751          42.250                                                                  
G21  21227577.073   111551664.254       -3082.396          42.250  
E27  24153781.533   126928998.089         435.584          44.250    24153803.179    94784745.364         325.235          44.000  
G03  23761395.652   124866981.791        2177.869          43.750  
R15  19519200.153   104304722.639        1098.022          47.000  
E29  27120236.533   142517803.219       -2003.601          39.500    27120271.865   106425760.109       -1496.148          42.500  
G19  25204183.447                        1769.599          30.250  
E34  27731437.850   145729795.980       -3042.413          32.250    27731459.679   108824216.298       -2271.824          29.500  
C16  36283028.215   188935234.779       -1386.845          45.750    36283045.307   146096776.752       -1072.284          32.500  
G30  21244634.595   111641343.679         952.394          46.250  
R24  24136003.085                       -4343.580          22.500  
C38  39256387.553   204418313.686        1353.702          42.500                                                                  
R17  19948049.909   106746040.241       -2881.052          47.750  
J07  36428732.890   191434290.886        -354.733          38.750  
E13  23956040.925   125889888.430        1507.458          44.750    23956064.596    94008795.229        1125.706          44.500  
E30  25790634.605   135530664.836       -1199.366          45.000    25790663.865   101208051.616        -895.684          40.500  
E15  23918072.945   125690339.020       -1280.651          46.000    23918096.830    93859771.007        -956.282          46.750  
E21  26690945.334   140261920.998        1486.118          40.250    26690975.617   104741195.343        1109.767          39.500  
E19  27785108.174                        -930.311          27.500    27785150.916   109034883.891        -694.452          33.000  
C01  37368186.076   194585963.617        -328.790          42.750    37368203.262   150466282.227        -254.514          33.500  
R14  20795266.349   110850445.020       -2380.270          49.250  
C26  21601751.914   112486003.802        -416.708          44.250                                                                  
R19  22270871.299   119134184.360        3017.305          33.500  
C06  36056026.190   187753181.602       -1395.035          44.000    36056038.172   145182717.173       -1078.962          33.000  
C24  23139346.415   120492671.804        2070.544          45.250                                                                  
C09  36062819.743   187788559.667        -879.859          41.000    36062836.095   145210084.871        -680.465          36.750  
C03  36114883.112   188059677.596        -326.149          43.750    36114895.000   145419724.194        -252.416          33.000  
C35  22643806.940   117912234.152       -2362.234          45.500                                                                  
C07  36552762.684   190339832.837        -497.084          41.750    36552774.398   147182885.977        -384.436          33.000  
R18  19470418.075   103934455.941         562.893          47.750  
C10  37304903.600   194256428.096        -489.600          40.000    37304920.791   150211462.442        -378.664          34.750  
E07  27814741.043   146167448.508       -2232.476          38.500    27814769.536   109151120.360       -1667.045          28.750  
G14  22961648.517   120664330.018        2208.286          40.750  
J02  38940368.441   204633023.070         587.628          43.750  
G07  20339317.777   106883838.525       -1142.828          44.500  
G08  23092077.032   121349643.942       -2652.226          44.000  
R16  22554341.812   120481229.615        3353.609          45.500  
E26  27986649.496   147070859.273        2649.463          24.000                                                                  
J03  37972860.924   199548753.082       -1115.792          43.250  
J04  36439582.134   191491307.332        -463.164          35.500  
C12  22882387.895   119154632.125        1020.407          44.250    22882404.958    92138016.249         789.001          37.000  
G02  20516549.146   107815214.303       -1623.459          45.500  
> 2025 01 06 09 05 56.0000000  0 43                     
G17  22664017.135   119100215.149         799.759          43.750  
C04  38537426.783   200674496.806        -315.244          42.500                                                                  
G21  21228163.653   111554746.530       -3082.235          42.250  
E27  24153698.537   126928562.035         436.122          44.250    24153720.295    94784419.734         325.792          43.500  
G03  23760981.129   124864803.422        2178.577          44.000  
R15  19518994.682   104303624.432        1098.010          47.000  
E29  27120617.637   142519806.407       -2003.101          39.750    27120653.086   106427255.985       -1495.654          42.500  
G19  25203845.709                        1769.789          30.750  
E34  27732016.810   145732837.972       -3041.823          32.750    27732038.499   108826487.980       -2271.825          29.000  
C16  36283294.371   188936621.172       -1386.366          46.000    36283312.142   146097848.799       -1072.174          32.500  
G30  21244453.219   111640391.141         952.377          46.500  
R24  24136815.731                       -4342.176          23.000  
C38  39256127.603   204416959.525        1354.362          42.250                                                                  
R17  19948588.368   106748921.146       -2881.049          47.750  
J07  36428800.395   191434645.171        -354.164          38.750  
E13  23955754.062   125888380.639        1507.719          44.750    23955777.664    94007669.291        1125.808          44.250  
E30  25790862.839   135531863.897       -1199.163          44.750    25790892.036   101208946.992        -895.191          40.500  
E15  23918316.613   125691619.442       -1280.524          45.750    23918340.491    93860727.174        -956.284          46.500  
E21  26690662.342   140260434.260        1487.023          40.000    26690692.678   104740085.128        1110.395          40.000  
E19  27785285.662                        -929.506          28.000    27785327.651   109035578.325        -694.353          33.250  
C01  37368249.081   194586291.976        -328.074          42.750    37368266.196   150466536.132        -253.889          33.750  
R14  20795712.792   110852825.176       -2380.363          49.500  
C26  21601831.838   112486420.370        -416.700          44.250                                                                  
R19  22270307.110   119131166.630        3017.666          34.000  
C06  36056294.085   187754576.361       -1394.729          43.750    36056305.969   145183795.658       -1078.336          33.250  
C24  23138948.693   120490600.923        2070.792          45.000                                                                  
C09  36062988.486   187789439.160        -879.398          41.250    36063004.467   145210764.951        -680.304          36.750  
C03  36114945.634   188060003.234        -325.503          43.750    36114957.316   145419975.982        -251.819          33.250  
C35  22644260.360   117914595.979       -2361.859          45.500                                                                  
C07  36552858.182   190340329.526        -496.519          42.000    36552869.766   147183270.032        -383.700          33.500  
R18  19470312.701   103933892.980         562.698          48.000  
C10  37304997.493   194256917.276        -489.105          40.000    37305014.541   150211840.706        -378.144          34.750  
E07  27815165.820   146169680.482       -2231.710          38.500    27815194.066   109152787.127       -1666.523          27.750  
G14  22961228.182   120662121.147        2209.014          40.750  
J02  38940256.418   204632434.992         588.276          43.750  
G07  20339535.372   106884981.325       -1142.937          44.500  
G08  23092581.644   121352295.577       -2651.410          44.250  
R16  22553713.918   120477875.566        3354.115          45.750  
E26  27986145.517   147068209.225        2650.163          25.500                                                                  
J03  37973073.217   199549868.398       -1115.222          43.250  
J04  36439670.053   191491770.205        -462.652          35.250  
C12  22882191.909   119153611.421        1020.606          44.250    22882209.233    92137226.987         789.086          37.250  
G02  20516858.198   107816837.583       -1623.506          45.250  
> 2025 01 06 09 05 57.0000000  0 43                     
G17  22663864.949   119099415.066         799.965          43.750  
C04  38537487.150   200674811.552        -314.575          42.250                                                                  
G21  21228750.175   111557828.651       -3082.207          42.500  
E27  24153615.440   126928125.438         436.712          44.000    24153637.195    94784093.724         326.046          43.500  
G03  23760566.507   124862624.431        2179.168          44.000  
R15  19518789.096   104302526.167        1098.085          47.000  
E29  27120998.710   142521809.104       -2002.666          40.000    27121034.158   106428751.500       -1495.386          42.250  
G19  25203509.113                        1770.155          31.000  
E34  27732595.598   145735879.562       -3041.514          32.250    27732617.626   108828759.287       -2271.400          29.250  
C16  36283560.468   188938007.128       -1385.851          45.750    36283578.592   146098920.523       -1071.568          32.750  
G30  21244272.047   111639438.594         952.300          46.250  
R24  24137627.268                       -4341.844          25.500  
C38  39255867.496   204415604.710        1354.972          42.250                                                                  
R17  19949126.737   106751801.913       -2880.913          48.000  
J07  36428867.640   191434998.844        -353.449          38.500  
E13  23955467.111   125886872.630        1507.863          44.750    23955490.653    94006543.177        1126.051          44.500  
E30  25791091.031   135533062.517       -1198.576          45.000    25791120.075   101209842.068        -894.945          40.250  
E15  23918560.254   125692899.697       -1280.335          45.750    23918584.096    93861683.204        -956.081          46.500  
E21  26690379.300   140258946.833        1487.549          40.250    26690409.526   104738974.385        1110.773          39.500  
E19  27785462.979                        -929.740          28.750    27785504.688   109036272.530        -694.240          33.000  
C01  37368312.001   194586619.749        -327.668          42.750    37368328.539   150466789.551        -253.450          33.500  
R14  20796159.391   110855205.346       -2380.336          49.250  
C26  21601911.665   112486836.791        -416.496          44.250                                                                  
R19  22269742.298   119128148.758        3018.010          34.000  
C06  36056561.975   187755970.671       -1394.289          44.000    36056573.768   145184873.830       -1078.251          33.000  
C24  23138550.982   120488529.670        2071.194          45.000                                                                  
C09  36063157.386   187790318.249        -879.024          41.000    36063173.188   145211444.718        -679.718          36.750  
C03  36115008.080   188060328.291        -325.008          43.750    36115019.709   145420227.335        -251.307          33.000  
C35  22644713.924   117916957.380       -2361.397          45.750                                                                  
C07  36552953.551   190340825.546        -495.878          41.500    36552965.199   147183653.584        -383.442          32.750  
R18  19470207.374   103933330.183         562.593          47.500  
C10  37305091.221   194257405.801        -488.536          40.000    37305108.431   150212218.480        -377.744          34.750  
E07  27815590.523   146171911.629       -2230.965          38.500    27815618.169   109154453.279       -1666.067          28.250  
G14  22960808.014   120659911.641        2209.665          40.500  
J02  38940144.343   204631846.252         588.867          44.000  
G07  20339752.876   106886124.175       -1143.057          44.500  
G08  23093086.212   121354946.562       -2650.830          44.250  
R16  22553085.970   120474520.885        3354.820          45.000  
E26  27985640.837   147065558.538        2650.950          26.000                                                                  
J03  37973285.463   199550983.128       -1114.629          43.250  
J04  36439758.182   191492232.432        -462.320          35.250  
C12  22881996.000   119152590.504        1020.820          44.250    22882013.141    92136437.531         789.503          37.500  
G02  20517167.198   107818460.828       -1623.403          45.250  
> 2025 01 06 09 05 58.0000000  0 43                     
G17  22663712.615   119098614.786         800.237          44.000  
C04  38537547.405   200675125.862        -314.249          42.250                                                                  
G21  21229336.605   111560910.751       -3082.333          42.250  
E27  24153532.250   126927688.494         436.933          44.000    24153554.109    94783767.430         326.188          43.250  
G03  23760151.669   124860444.928        2179.561          44.000  
R15  19518583.592   104301427.998        1097.925          46.750  
E29  27121379.873   142523811.418       -2002.413          40.250    27121415.185   106430246.756       -1495.330          42.250  
G19  25203172.319                        1770.694          32.000  
E34  27733174.005   145738920.832       -3041.135          31.750    27733196.331   108831030.365       -2270.771          29.000  
C16  36283826.478   188939392.805       -1385.748          45.750    36283844.457   146099991.992       -1071.904          32.500  
G30  21244090.832   111638486.191         952.193          46.250  
R24  24138437.888                       -4340.950          22.500  
C38  39255607.342   204414249.420        1355.248          42.250                                                                  
R17  19949665.031   106754682.695       -2881.066          47.750  
J07  36428934.692   191435352.082        -353.284          38.500  
E13  23955180.172   125885364.539        1507.941          44.750    23955203.642    94005417.004        1125.982          44.000  
E30  25791319.149   135534260.868       -1198.528          44.750    25791348.020   101210736.950        -894.967          40.000  
E15  23918803.925   125694179.947       -1280.412          46.000    23918827.749    93862639.241        -956.234          46.500  
E21  26690096.199   140257458.885        1488.019          40.500    26690126.361   104737863.233        1111.402          39.500  
E19  27785639.192                        -929.638          28.000    27785681.602   109036966.645        -693.868          32.500  
C01  37368374.877   194586947.070        -327.345          42.750    37368391.808   150467042.662        -252.989          33.000  
R14  20796605.893   110857585.687       -2380.603          49.250  
C26  21601991.524   112487253.248        -416.755          44.000                                                                  
R19  22269178.187   119125130.933        3017.684          34.000  
C06  36056829.763   187757364.692       -1394.114          44.000    36056841.877   145185951.761       -1077.871          33.250  
C24  23138153.144   120486458.182        2071.348          45.000                                                                  
C09  36063326.149   187791197.099        -879.033          41.000    36063341.925   145212124.280        -679.539          37.000  
C03  36115070.303   188060652.893        -324.611          43.750    36115082.253   145420478.341        -250.921          33.500  
C35  22645167.329   117919318.511       -2361.214          45.500                                                                  
C07  36553048.785   190341321.063        -495.478          41.500    36553060.436   147184036.770        -383.215          33.750  
R18  19470101.930   103932767.714         562.095          47.250  
C10  37305185.102   194257893.833        -487.902          40.250    37305202.662   150212595.856        -377.365          34.750  
E07  27816015.023   146174142.103       -2230.372          38.500    27816042.831   109156118.869       -1665.781          29.250  
G14  22960387.430   120657701.658        2209.996          40.500  
J02  38940032.231   204631256.986         589.337          43.750  
G07  20339970.533   106887267.220       -1143.415          44.500  
G08  23093590.551   121357597.024       -2650.316          44.250  
R16  22552457.868   120471165.724        3355.236          45.250  
E26  27985136.070   147062907.492        2650.944          24.750                                                                  
J03  37973497.515   199552097.458       -1114.224          43.250  
J04  36439845.971   191492694.171        -461.900          35.250  
C12  22881800.170   119151569.536        1020.764          44.500    22881817.210    92135648.064         789.426          37.500  
G02  20517476.079   107820084.211       -1623.710          45.250  
> 2025 01 06 09 05 59.0000000  0 43                     
G17  22663560.480   119097814.936         799.533          44.000  
C04  38537607.643   200675440.354        -314.680          42.250                                                                  
G21  21229923.251   111563993.469       -3083.077          42.250  
E27  24153449.235   126927251.796         436.478          43.750    24153470.808    94783441.313         325.962          42.750  
G03  23759736.982   124858265.566        2179.220          44.000  
R15  19518378.128   104300330.546        1097.059          46.500  
E29  27121761.003   142525813.995       -2002.879          40.250    27121796.250   106431742.198       -1495.650          42.500  
G19  25202835.525                        1770.355          32.500  
E34  27733752.903   145741962.422       -3041.558          32.000    27733774.828   108833301.738       -2271.390          28.750  
C16  36284092.611   188940778.820       -1386.242          45.750    36284110.678   146101063.749       -1071.974          32.500  
G30  21243909.736   111637534.574         951.130          46.500  
R24  24139249.202                       -4340.763          24.250  
C38  39255347.088   204412894.254        1354.970          42.500                                                                  
R17  19950203.397   106757564.133       -2881.817          47.750  
J07  36429001.831   191435705.484        -353.357          38.500  
E13  23954893.301   125883857.015        1507.183          44.750    23954916.743    94004291.271        1125.458          44.250  
E30  25791547.246   135535459.565       -1198.952          44.500    25791575.997   101211632.082        -895.309          40.500  
E15  23919047.718   125695460.823       -1281.296          46.000    23919071.503    93863595.735        -956.755          46.750  
E21  26689813.021   140255970.994        1487.808          40.500    26689843.226   104736752.168        1110.897          39.750  
E19  27785816.600                        -930.526          28.000    27785858.389   109037661.149        -694.662          31.000  
C01  37368437.725   194587274.562        -327.604          43.000    37368454.778   150467295.913        -253.348          33.500  
R14  20797052.491   110859966.792       -2381.595          49.500  
C26  21602071.656   112487670.344        -417.425          44.250                                                                  
R19  22268614.278   119122113.750        3016.740          33.750  
C06  36057097.557   187758759.036       -1394.545          44.000    36057110.054   145187030.005       -1078.738          33.000  
C24  23137755.397   120484387.070        2070.872          45.000                                                                  
C09  36063494.888   187792076.288        -879.501          41.000    36063510.680   145212804.127        -679.941          36.750  
C03  36115132.570   188060977.673        -324.917          43.750    36115144.860   145420729.489        -251.160          33.500  
C35  22645620.674   117921680.001       -2361.801          45.500                                                                  
C07  36553143.995   190341816.696        -495.779          41.750    36553155.809   147184420.010        -383.329          33.500  
R18  19469996.557   103932206.189         561.032          47.250  
C10  37305278.919   194258382.005        -488.309          40.250    37305297.100   150212973.334        -377.183          34.750  
E07  27816439.342   146176372.537       -2230.439          38.000    27816467.261   109157784.470       -1665.571          30.000  
G14  22959966.950   120655491.797        2209.792          40.500  
J02  38939920.156   204630667.848         588.963          43.750  
G07  20340188.232   106888411.076       -1144.269          44.750  
G08  23094094.925   121360247.612       -2650.768          44.250  
R16  22551829.883   120467810.747        3354.792          45.000  
E26  27984630.688   147060256.643        2650.245          23.000                                                                  
J03  37973709.513   199553211.999       -1114.739          43.250  
J04  36439934.133   191493156.048        -461.907          36.000  
C12  22881604.313   119150549.118        1020.011          44.500    22881621.440    92134859.018         788.791          37.750  
G02  20517785.002   107821708.337       -1624.584          45.250  
> 2025 01 06 09 06 00.0000000  0 43                     
G17  22663408.177   119097015.324         799.730          44.250  
C04  38537667.875   200675754.812        -314.082          42.250                                                                  
G21  21230509.917   111567076.619       -3082.987          42.250  
E27  24153366.136   126926815.165         436.849          44.000    24153387.586    94783115.259         326.223          42.750  
G03  23759322.256   124856086.126        2179.752          44.000  
R15  19518172.776   104299233.645        1096.911          46.500  
E29  27122142.263   142527816.658       -2002.432          39.750    27122177.296   106433237.693       -1495.248          42.750  
G19  25202498.843                        1770.177          32.000  
E34  27734331.858   145745004.174       -3041.644          32.250    27734353.405   108835573.182       -2270.805          28.250  
C16  36284358.858   188942164.966       -1385.941          45.750    36284376.632   146102135.593       -1071.581          32.750  
G30  21243728.729   111636583.531         950.992          46.500  
R24  24140061.230                       -4341.476          26.750  
C38  39255086.885   204411539.000        1355.582          42.500                                                                  
R17  19950741.973   106760446.067       -2881.890          47.750  
J07  36429068.997   191436058.912        -353.024          38.750  
E13  23954606.402   125882349.841        1507.302          44.750    23954629.965    94003165.798        1125.558          44.250  
E30  25791775.398   135536658.421       -1198.735          44.500    25791804.201   101212527.333        -895.180          40.250  
E15  23919291.548   125696742.116       -1281.212          46.000    23919315.340    93864552.548        -956.687          46.500  
E21  26689529.968   140254483.010        1488.466          40.250    26689560.196   104735641.018        1111.281          39.500  
E19  27785993.823                        -930.688          27.250    27786035.538   109038355.849        -694.348          30.250  
C01  37368500.538   194587602.051        -327.234          42.750    37368517.877   150467549.135        -253.256          33.250  
R14  20797499.425   110862348.493       -2381.680          49.500  
C26  21602151.747   112488087.898        -417.538          44.250                                                                  
R19  22268050.971   119119097.031        3016.571          33.250  
C06  36057365.356   187760153.540       -1394.229          43.750    36057377.925   145188108.287       -1078.020          33.250  
C24  23137357.707   120482316.171        2071.020          45.000                                                                  
C09  36063663.772   187792955.664        -879.201          41.250    36063679.233   145213484.098        -679.622          37.000  
C03  36115194.891   188061302.447        -324.544          43.750    36115206.994   145420980.614        -250.870          33.250  
C35  22646074.137   117924041.635       -2361.403          45.500                                                                  
C07  36553239.279   190342312.260        -495.305          41.500    36553251.041   147184803.208        -382.855          33.750  
R18  19469891.295   103931645.402         560.732          47.250  
C10  37305372.786   194258870.068        -487.726          40.000    37305390.810   150213350.759        -377.364          34.750  
E07  27816863.777   146178602.731       -2229.907          38.000    27816892.227   109159449.863       -1665.083          29.250  
G14  22959546.263   120653281.883        2210.258          40.750  
J02  38939807.976   204630078.612         589.577          43.750  
G07  20340406.071   106889555.573       -1144.509          44.250  
G08  23094599.367   121362898.107       -2650.159          44.000  
R16  22551201.598   120464455.765        3355.288          44.750  
E26  27984127.471                        2650.841          19.750                                                                  
J03  37973921.503   199554326.570       -1114.316          43.000  
J04  36440022.126   191493617.917        -461.477          36.250  
C12  22881408.427   119149529.088        1020.074          44.750    22881425.838    92134070.271         788.958          37.500  
G02  20518094.040   107823333.030       -1624.712          45.500  
> 2025 01 06 09 06 01.0000000  0 43                     
G17  22663256.128   119096215.480         799.932          44.250  
C04  38537728.189   200676068.833        -313.823          42.250                                                                  
G21  21231096.506   111570159.740       -3083.159          42.250  
E27  24153282.975   126926378.135         437.228          43.750    24153304.322    94782788.911         326.427          43.000  
G03  23758907.447   124853906.178        2180.180          43.750  
R15  19517967.349   104298136.820        1096.747          46.250  
E29  27122523.234   142529818.935       -2002.252          40.000    27122558.392   106434732.912       -1495.090          42.750  
G19  25202161.983                        1770.559          31.750  
E34  27734910.276   145748045.629       -3041.354          32.250    27734931.990   108837844.431       -2271.423          28.750  
C16  36284624.960   188943550.809       -1385.682          46.000    36284642.915   146103207.201       -1071.577          32.500  
G30  21243547.807   111635632.601         950.835          46.500  
R24  24140875.021                       -4341.464          21.750  
C38  39254826.527   204410183.268        1355.960          42.250                                                                  
R17  19951280.498   106763328.041       -2882.027          47.750  
J07  36429136.203   191436411.857        -352.723          38.750  
E13  23954319.576   125880842.592        1507.313          45.000    23954343.162    94002040.249        1125.559          44.250  
E30  25792003.497   135537856.983       -1198.498          44.500    25792032.295   101213422.360        -895.046          40.250  
E15  23919535.376   125698023.388       -1281.310          46.000    23919559.188    93865509.344        -956.883          46.500  
E21  26689246.584   140252994.467        1488.844          40.500    26689276.925   104734529.443        1111.697          39.250  
E19  27786171.266                        -930.099          26.750    27786212.430   109039050.431        -694.452          31.250  
C01  37368563.499   194587929.071        -326.876          43.000    37368580.533   150467802.005        -252.702          33.250  
R14  20797946.439   110864730.296       -2381.923          49.250  
C26  21602231.968   112488505.455        -417.676          44.250                                                                  
R19  22267487.153   119116080.259        3016.727          33.750  
C06  36057633.081   187761547.735       -1394.154          44.000    36057645.460   145189186.383       -1078.086          33.000  
C24  23136960.023   120480245.021        2071.269          45.000                                                                  
C09  36063832.645   187793834.750        -878.994          41.500    36063847.939   145214163.863        -679.642          37.000  
C03  36115257.194   188061626.748        -324.039          44.000    36115268.814   145421231.411        -250.480          33.250  
C35  22646527.558   117926402.982       -2361.290          45.750                                                                  
C07  36553334.477   190342807.328        -494.934          42.000    36553346.396   147185186.031        -382.768          33.500  
R18  19469786.180   103931084.908         560.347          47.250  
C10  37305466.775   194259357.643        -487.331          40.250    37305484.514   150213727.767        -376.909          34.750  
E07  27817287.871   146180832.234       -2229.169          37.750    27817316.442   109161114.754       -1664.621          29.500  
G14  22959125.781   120651071.461        2210.649          40.750  
J02  38939695.740   204629488.843         589.971          43.750  
G07  20340623.777   106890700.243       -1144.778          44.250  
G08  23095103.595   121365548.074       -2649.772          44.000  
R16  22550573.451   120461100.322        3355.650          45.000  
E26  27983622.607                        2651.327          25.500                                                                  
J03  37974133.490   199555440.698       -1113.943          43.250  
J04  36440110.083   191494079.303        -461.464          35.500  
C12  22881212.485   119148508.968        1020.186          44.750    22881229.912    92133281.454         788.739          37.500  
G02  20518403.287   107824957.826       -1624.925          45.250  
> 2025 01 06 09 06 02.0000000  0 43                     
G17  22663103.953   119095415.512         800.074          44.250  
C04  38537788.497   200676382.460        -313.383          42.250                                                                  
G21  21231683.107   111573242.919       -3083.201          42.500  
E27  24153199.686   126925940.802         437.548          44.000    24153221.052    94782462.331         326.732          43.000  
G03  23758492.496   124851725.808        2180.529          43.750  
R15  19517762.163   104297040.155        1096.655          46.500  
E29  27122904.150   142531820.916       -2001.712          40.000    27122939.442   106436227.897       -1494.787          42.750  
G19  25201824.178                        1770.895          30.000  
E34  27735488.727   145751086.799       -3040.988          32.500    27735510.615   108840115.412       -2270.651          28.500  
C16  36284890.988   188944936.425       -1385.463          46.000    36284908.863   146104278.644       -1071.093          32.750  
G30  21243366.915   111634681.879         950.628          46.500  
R24  24141684.917                       -4342.712          21.750  
C38  39254566.038   204408827.068        1356.460          42.000                                                                  
R17  19951819.182   106766210.102       -2881.983          47.750  
J07  36429203.265   191436764.417        -352.284          38.750  
E13  23954032.714   125879335.341        1507.269          45.000    23954056.358    94000914.700        1125.521          44.250  
E30  25792231.553   135539055.323       -1198.168          44.500    25792260.318   101214317.207        -894.779          40.250  
E15  23919779.216   125699304.707       -1281.265          46.000    23919803.015    93866466.170        -956.789          46.500  
E21  26688963.087   140251505.445        1489.460          40.250    26688993.527   104733417.515        1112.164          39.500  
E19  27786348.396                        -930.453          27.750    27786389.491   109039744.981        -694.436          32.000  
C01  37368626.258   194588255.696        -326.319          42.750    37368643.359   150468054.609        -252.620          33.750  
R14  20798393.341   110867112.293       -2382.059          49.500  
C26  21602312.176   112488923.080        -417.595          44.250                                                                  
R19  22266923.324   119113063.558        3016.595          34.250  
C06  36057900.727   187762941.693       -1393.796          44.000    36057913.020   145190264.261       -1077.897          33.250  
C24  23136562.287   120478173.691        2071.486          45.000                                                                  
C09  36064001.464   187794713.628        -878.732          41.500    36064016.604   145214843.499        -679.591          37.000  
C03  36115319.408   188061950.678        -323.659          44.000    36115331.470   145421481.892        -250.418          33.250  
C35  22646981.057   117928764.127       -2361.038          45.500                                                                  
C07  36553429.461   190343301.911        -494.344          41.750    36553441.301   147185568.480        -382.388          33.750  
R18  19469681.121   103930524.782         560.020          47.000  
C10  37305560.386   194259844.755        -486.734          40.500    37305577.754   150214104.450        -376.490          34.750  
E07  27817711.944   146183061.134       -2228.585          38.000    27817740.358   109162779.186       -1664.360          29.250  
G14  22958705.292   120648860.624        2210.970          40.750  
J02  38939583.563   204628898.625         590.523          43.500  
G07  20340841.591   106891845.155       -1144.978          44.500  
G08  23095607.689   121368197.579       -2649.176          44.000  
R16  22549945.247   120457744.478        3356.141          45.250  
E26  27983118.623                        2651.787          27.250                                                                  
J03  37974345.434   199556554.473       -1113.597          43.250  
J04  36440197.896   191494540.237        -460.757          35.750  
C12  22881016.590   119147488.866        1020.159          44.750    22881034.059    92132492.659         788.747          37.500  
G02  20518712.611   107826582.804       -1625.014          45.500  
> 2025 01 06 09 06 03.0000000  0 43                     
G17  22662951.608   119094615.232         800.220          44.750  
C04  38537848.623   200676695.559        -313.056          42.500                                                                  
G21  21232269.982   111576325.995       -3083.205          42.750  
E27  24153116.410   126925503.012         437.843          44.250    24153137.730    94782135.401         326.955          43.000  
G03  23758077.494   124849544.836        2181.161          44.000  
R15  19517556.968   104295943.497        1096.472          46.750  
E29  27123285.036   142533822.445       -2001.504          40.250    27123320.394   106437722.565       -1494.623          42.750  
G19  25201485.963                        1771.374          32.750  
E34  27736067.438   145754127.588       -3040.993          32.250    27736089.038   108842386.158       -2270.352          28.750  
C16  36285157.023   188946321.663       -1385.239          46.000    36285174.969   146105349.808       -1071.139          32.500  
G30  21243186.036   111633731.225         950.381          46.750  
R24  24142495.492                       -4341.265          24.500  
C38  39254305.286   204407470.317        1356.946          42.000                                                                  
R17  19952357.702   106769092.057       -2882.053          48.000  
J07  36429270.383   191437116.449        -352.069          38.750  
E13  23953745.831   125877827.913        1507.315          45.250    23953769.460    93999789.026        1125.687          44.250  
E30  25792459.463   135540253.300       -1197.893          45.000    25792488.304   101215211.803        -894.511          40.250  
E15  23920022.994   125700585.933       -1281.282          46.250    23920046.834    93867422.921        -956.765          46.500  
E21  26688679.487   140250015.803        1489.666          40.750    26688710.187   104732305.116        1112.526          39.750  
E19  27786525.687                        -929.972          28.750    27786566.598   109040439.370        -694.106          32.000  
C01  37368688.780   194588581.807        -325.937          42.750    37368706.338   150468306.750        -252.145          33.500  
R14  20798840.236   110869494.323       -2382.204          49.750  
C26  21602392.345   112489340.664        -417.672          44.250                                                                  
R19  22266359.700   119110046.737        3016.585          34.750  
C06  36058168.334   187764335.275       -1393.615          44.000    36058180.962   145191341.867       -1077.609          33.000  
C24  23136164.494   120476102.045        2071.632          45.250                                                                  
C09  36064170.286   187795592.155        -878.550          41.250    36064185.650   145215522.823        -679.435          36.750  
C03  36115381.550   188062274.074        -323.274          43.750    36115393.769   145421731.958        -250.179          33.500  
C35  22647434.274   117931124.901       -2360.726          45.500                                                                  
C07  36553524.277   190343795.941        -493.853          41.750    36553536.193   147185950.488        -381.842          33.250  
R18  19469576.170   103929964.843         559.737          47.500  
C10  37305653.966   194260331.297        -486.443          40.250    37305671.150   150214480.673        -376.390          34.500  
E07  27818136.155   146185289.254       -2227.951          38.000    27818164.208   109164443.078       -1663.879          29.000  
G14  22958284.490   120646649.172        2211.688          41.000  
J02  38939471.159   204628307.798         590.880          43.750  
G07  20341059.401   106892990.179       -1145.132          45.000  
G08  23096111.675   121370846.492       -2648.778          44.500  
R16  22549316.939   120454388.101        3356.549          45.500  
E26  27982614.171                        2651.733          27.250                                                                  
J03  37974557.164   199557667.746       -1113.129          43.500  
J04  36440285.406   191495000.597        -460.287          35.500  
C12  22880820.664   119146468.596        1020.238          44.750    22880838.092    92131703.713         788.997          37.250  
G02  20519021.949   107828207.819       -1625.168          45.750  
> 2025 01 06 09 06 04.0000000  0 43                     
G17  22662799.301   119093815.059         800.113          45.000  
C04  38537908.811   200677008.497        -312.948          42.250                                                                  
G21  21232856.764   111579409.348       -3083.664          43.250  
E27  24153033.041   126925065.144         437.766          44.250    24153054.451    94781808.436         326.798          43.000  
G03  23757662.373   124847363.680        2181.093          43.750  
R15  19517351.850   104294847.236        1095.959          46.750  
E29  27123665.850   142535823.920       -2001.588          40.250    27123701.213   106439217.181       -1494.802          42.750  
G19  25201148.606                        1771.159          32.750  
E34  27736646.338   145757168.359       -3040.833          32.500    27736667.964   108844656.923       -2270.888          28.750  
C16  36285423.089   188947706.923       -1385.429          45.750    36285440.984   146106420.984       -1071.129          32.750  
G30  21243005.250   111632781.005         949.873          47.000  
R24  24143309.538                       -4340.872          21.500  
C38  39254044.515   204406113.365        1356.839          42.000                                                                  
R17  19952896.282   106771974.329       -2882.608          48.000  
J07  36429337.549   191437468.321        -351.996          38.750  
E13  23953458.979   125876320.715        1506.978          45.000    23953482.644    93998663.534        1125.185          44.250  
E30  25792687.403   135541451.306       -1198.269          45.000    25792716.328   101216106.428        -894.854          40.250  
E15  23920266.766   125701867.452       -1281.812          46.250    23920290.698    93868379.905        -957.215          46.500  
E21  26688395.924   140248525.908        1489.856          40.500    26688426.722   104731192.540        1112.617          39.250  
E19  27786702.446                        -930.183          28.250    27786743.847   109041133.894        -694.499          32.500  
C01  37368751.517   194588907.756        -325.959          42.750    37368768.690   150468558.781        -252.063          33.500  
R14  20799287.315   110871876.811       -2382.850          50.000  
C26  21602472.640   112489758.561        -418.243          44.250                                                                  
R19  22265795.907   119107030.272        3016.054          35.500  
C06  36058435.880   187765728.852       -1393.794          44.000    36058448.758   145192419.475       -1077.802          33.250  
C24  23135766.694   120474030.464        2071.363          45.000                                                                  
C09  36064339.232   187796470.728        -878.691          41.500    36064354.781   145216202.182        -679.628          36.750  
C03  36115443.706   188062597.316        -323.307          43.750    36115455.902   145421981.920        -250.244          32.750  
C35  22647887.576   117933485.700       -2361.015          45.500                                                                  
C07  36553619.053   190344289.754        -493.795          41.750    36553631.150   147186332.326        -381.754          33.250  
R18  19469471.422   103929405.534         558.802          47.500  
C10  37305747.375   194260817.662        -486.483          40.250    37305763.983   150214856.729        -376.004          34.750  
E07  27818560.267   146187517.027       -2227.806          38.250    27818588.103   109166106.667       -1663.786          29.750  
G14  22957863.637   120644437.563        2211.627          41.000  
J02  38939358.502   204627716.755         591.008          44.000  
G07  20341277.358   106894135.699       -1145.915          45.000  
G08  23096615.625   121373495.184       -2648.812          44.500  
R16  22548688.714   120451031.554        3356.521          45.250  
E26  27982110.407                        2651.981          27.250                                                                  
J03  37974768.920   199558780.912       -1113.312          43.250  
J04  36440373.107   191495460.787        -460.200          35.750  
C12  22880624.932   119145448.563        1019.780          44.500    22880642.358    92130914.952         788.656          37.250  
G02  20519331.368   107829833.259       -1625.849          46.000  
> 2025 01 06 09 06 05.0000000  0 42                     
G17  22662647.001   119093015.147         799.698          44.750  
C04  38537968.994   200677321.429        -312.970          42.500                                                                  
G21  21233443.566   111582493.157       -3084.160          43.000  
E27  24152949.744   126924627.360         437.588          44.250    24152971.195    94781481.513         326.770          43.250  
G03  23757247.244   124845182.473        2181.177          43.500  
R15  19517146.817   104293751.519        1095.459          47.000  
E29  27124046.583   142537825.503       -2001.752          40.500    27124082.058   106440711.849       -1494.634          42.500  
G19  25200812.053                        1771.084          32.500  
E34  27737224.816   145760209.289       -3040.947          33.000    27737246.788   108846927.747       -2270.819          28.750  
C16  36285689.044   188949092.333       -1385.597          45.750    36285706.406   146107492.296       -1071.476          32.750  
G30  21242824.508   111631831.373         949.288          46.750  
C38  39253783.918   204404756.353        1356.934          42.000                                                                  
R17  19953435.088   106774857.079       -2883.064          47.750  
J07  36429404.520   191437820.195        -351.878          38.750  
E13  23953172.144   125874813.895        1506.507          45.250    23953195.863    93997538.303        1125.094          44.250  
E30  25792915.488   135542649.491       -1198.336          44.750    25792944.227   101217001.164        -894.860          40.500  
E15  23920510.656   125703149.407       -1282.269          46.000    23920534.613    93869337.198        -957.418          46.500  
E21  26688112.413   140247035.938        1489.699          40.250    26688143.208   104730079.898        1112.593          39.500  
E19  27786879.737                        -930.260          27.500    27786920.870   109041828.636        -695.301          32.750  
C01  37368814.245   194589233.716        -326.057          43.000    37368831.096   150468810.870        -252.179          33.750  
R14  20799734.453   110874259.908       -2383.442          49.750  
C26  21602552.977   112490176.907        -418.670          44.250                                                                  
R19  22265232.727   119104014.263        3015.889          34.750  
C06  36058703.598   187767122.606       -1393.896          43.750    36058716.479   145193497.208       -1077.822          32.750  
C24  23135369.079   120471959.103        2071.123          44.750                                                                  
C09  36064507.978   187797349.498        -879.003          41.500    36064523.775   145216881.686        -679.593          37.000  
C03  36115505.754   188062920.566        -323.296          44.000    36115517.762   145422231.864        -250.301          33.250  
C35  22648340.896   117935846.654       -2361.066          45.500                                                                  
C07  36553713.845   190344783.510        -493.863          41.500    36553725.570   147186714.134        -381.925          33.500  
R18  19469366.760   103928847.007         558.077          47.500  
C10  37305840.714   194261303.938        -486.273          40.500    37305857.124   150215232.780        -376.180          35.000  
E07  27818984.277   146189744.554       -2227.245          38.000    27819012.131   109167770.086       -1663.488          28.500  
G14  22957442.547   120642225.895        2211.588          41.000  
J02  38939245.996   204627125.650         591.035          44.000  
G07  20341495.292   106895281.855       -1146.561          44.750  
G08  23097119.558   121376143.798       -2648.684          44.500  
R16  22548060.407   120447675.000        3356.556          45.250  
E26  27981606.021                        2652.554          26.000                                                                  
J03  37974980.730   199559894.093       -1113.274          43.500  
J04  36440460.380   191495920.968        -460.259          36.000  
C12  22880429.120   119144428.919        1019.345          44.500    22880446.279    92130126.518         788.072          37.500  
G02  20519640.677   107831459.268       -1626.380          45.750  
> 2025 01 06 09 06 06.0000000  0 42                     
G17  22662494.830   119092215.550         799.308          44.750  
C04  38538029.178   200677634.466        -313.075          42.500                                                                  
G21  21234030.581   111585577.457       -3084.594          43.250  
E27  24152866.485   126924189.723         437.405          44.000    24152887.928    94781154.703         326.727          43.500  
G03  23756832.106   124843001.298        2181.042          43.750  
R15  19516941.848   104292656.416        1094.683          46.750  
E29  27124427.386   142539827.206       -2001.752          40.250    27124462.938   106442206.655       -1495.041          42.500  
G19  25200475.050                        1770.605          32.000  
E34  27737803.941   145763250.423       -3041.156          32.000    27737825.795   108849198.772       -2271.074          29.250  
C16  36285955.025   188950477.964       -1385.792          45.750    36285972.824   146108563.734       -1071.734          32.500  
G30  21242643.934   111630882.410         948.513          46.750  
C38  39253523.375   204403399.365        1356.979          42.000                                                                  
R17  19953973.950   106777740.411       -2883.640          48.000  
J07  36429471.567   191438172.148        -351.960          38.750  
E13  23952885.483   125873307.532        1506.040          45.250    23952909.143    93996413.427        1124.597          44.000  
E30  25793143.575   135543847.908       -1198.631          44.500    25793172.300   101217896.079        -895.098          40.250  
E15  23920754.658   125704431.870       -1282.828          46.000    23920778.643    93870294.897        -957.937          46.500  
E21  26687828.766   140245545.933        1489.965          40.500    26687859.646   104728967.239        1112.729          39.250  
E19  27787056.294                        -930.928          28.500    27787098.024   109042523.604        -695.194          32.750  
C01  37368876.794   194589559.753        -326.194          43.000    37368893.699   150469062.970        -252.193          33.500  
R14  20800181.702   110876643.664       -2384.124          49.750  
C26  21602633.381   112490595.800        -419.211          44.250                                                                  
R19  22264669.664   119100998.754        3015.489          34.500  
C06  36058971.296   187768516.575       -1394.184          43.750    36058984.166   145194575.115       -1077.890          33.250  
C24  23134971.296   120469888.016        2070.838          45.250                                                                  
C09  36064676.621   187798228.512        -879.242          41.500    36064692.364   145217561.378        -679.766          36.750  
C03  36115567.874   188063243.888        -323.443          44.000    36115579.565   145422481.884        -250.291          33.250  
C35  22648794.375   117938207.874       -2361.373          45.750                                                                  
C07  36553808.569   190345277.275        -493.828          42.000    36553820.111   147187095.956        -382.119          33.000  
R18  19469262.342   103928289.322         557.193          48.000  
C10  37305934.338   194261790.253        -486.327          40.500    37305950.268   150215608.821        -375.937          34.750  
E07  27819408.130   146191971.957       -2227.391          37.500    27819435.976   109169433.354       -1662.798          29.000  
G14  22957021.693   120640014.262        2211.459          40.750  
J02  38939133.418   204626534.544         591.074          44.000  
G07  20341713.601   106896428.727       -1147.342          45.000  
G08  23097623.617   121378792.421       -2648.554          44.250  
R16  22547432.036   120444318.546        3356.352          45.000  
E26  27981101.971                        2652.125          26.000                                                                  
J03  37975192.547   199561007.392       -1113.323          43.750  
J04  36440547.601   191496381.179        -460.239          36.000  
C12  22880233.252   119143409.741        1018.898          44.500    22880250.440    92129338.414         787.940          37.500  
G02  20519950.163   107833085.912       -1627.077          45.750  
> 2025 01 06 09 06 07.0000000  0 42                     
G17  22662342.750   119091416.348         799.207          44.750  
C04  38538089.344   200677947.626        -313.044          42.750                                                                  
G21  21234617.732   111588662.349       -3085.122          43.000  
E27  24152783.244   126923752.314         437.567          44.000    24152804.725    94780828.073         326.659          43.500  
G03  23756416.966   124840820.228        2181.155          43.750  
R15  19516737.132   104291562.019        1094.185          46.500  
E29  27124808.224   142541829.168       -2001.976          40.000    27124843.837   106443701.633       -1495.019          42.500  
G19  25200137.447                        1770.447          31.250  
E34  27738382.965   145766291.896       -3041.794          32.000    27738404.354   108851469.997       -2271.043          29.250  
C16  36286221.227   188951863.911       -1385.911          45.750    36286238.919   146109635.442       -1071.877          32.500  
G30  21242463.454   111629934.196         948.029          46.750  
C38  39253262.814   204402042.492        1356.871          42.000                                                                  
R17  19954512.853   106780624.410       -2884.180          48.250  
J07  36429538.670   191438524.249        -351.947          38.750  
E13  23952598.921   125871801.687        1505.747          45.000    23952622.550    93995288.937        1124.437          43.750  
E30  25793371.613   135545046.661       -1198.783          44.750    25793400.377   101218791.248        -895.188          40.000  
E15  23920998.774   125705714.926       -1283.112          46.000    23921022.783    93871253.023        -958.245          46.500  
E21  26687545.193   140244055.970        1490.151          40.750    26687576.025   104727854.632        1112.618          39.250  
E19  27787232.986                        -931.576          28.750    27787275.272   109043218.981        -695.457          33.500  
C01  37368939.271   194589885.919        -326.077          42.750    37368956.109   150469315.194        -252.270          33.250  
R14  20800628.981   110879028.186       -2384.664          49.500  
C26  21602713.949   112491015.312        -419.633          44.500                                                                  
R19  22264106.356   119097983.858        3015.012          34.500  
C06  36059238.999   187769910.841       -1394.239          44.000    36059251.703   145195653.271       -1078.242          33.000  
C24  23134573.541   120467817.289        2070.650          45.000                                                                  
C09  36064845.465   187799107.844        -879.338          41.750    36064860.957   145218241.369        -679.971          36.750  
C03  36115630.119   188063567.355        -323.365          44.000    36115641.912   145422732.018        -250.193          33.000  
C35  22649248.012   117940569.410       -2361.549          45.250                                                                  
C07  36553903.262   190345771.152        -493.787          41.750    36553914.618   147187477.843        -382.042          33.000  
R18  19469158.156   103927732.550         556.441          48.000  
C10  37306027.598   194262276.655        -486.100          40.250    37306043.508   150215984.941        -375.965          34.500  
E07  27819831.975   146194199.274       -2227.152          37.500    27819859.986   109171096.606       -1663.180          29.500  
G14  22956600.875   120637802.736        2211.816          40.500  
J02  38939020.947   204625943.535         591.146          44.000  
G07  20341931.953   106897576.379       -1147.753          45.000  
G08  23098127.663   121381441.132       -2648.619          44.250  
R16  22546803.765   120440962.236        3356.478          45.000  
E26  27980597.831                        2652.322          24.750                                                                  
J03  37975404.583   199562120.874       -1113.367          43.250  
J04  36440635.211   191496841.507        -460.221          36.000  
C12  22880037.493   119142391.088        1018.601          44.750    22880054.484    92128550.740         787.454          37.500  
G02  20520259.875   107834713.289       -1627.618          45.750  
> 2025 01 06 09 06 08.0000000  0 43                     
G17  22662190.595   119090617.438         798.689          44.500  
C04  38538149.545   200678260.847        -313.243          42.500                                                                  
G21  21235204.814   111591747.724       -3085.617          43.000  
E27  24152700.068   126923315.038         437.087          44.250    24152721.567    94780501.530         326.441          43.750  
G03  23756001.951   124838639.142        2181.040          43.500  
R15  19516532.572   104290468.196        1093.484          46.750  
E29  27125189.003   142543831.269       -2002.219          40.000    27125224.804   106445196.713       -1495.064          42.500  
G19  25199799.674                        1770.167          32.250  
E34  27738961.281   145769333.523       -3041.857          32.500    27738983.263   108853741.354       -2271.307          29.000  
C16  36286487.407   188953250.042       -1386.452          45.750    36286505.459   146110707.304       -1071.981          32.250  
G30  21242282.999   111628986.616         947.194          46.500  
R24  24146548.526                       -4337.327          22.500  
C38  39253002.145   204400685.606        1356.867          42.000                                                                  
R17  19955051.863   106783508.929       -2884.836          48.250  
J07  36429605.797   191438876.414        -352.284          38.750  
E13  23952312.413   125870296.262        1505.271          45.250    23952336.015    93994164.759        1124.041          44.000  
E30  25793599.810   135546245.633       -1199.176          44.500    25793628.566   101219686.573        -895.359          40.250  
E15  23921243.031   125706998.469       -1283.806          46.250    23921267.007    93872211.508        -958.721          46.500  
E21  26687261.614   140242565.984        1489.975          40.250    26687292.492   104726741.975        1112.561          39.750  
E19  27787410.518                        -932.361          29.250    27787452.473   109043914.623        -695.954          31.750  
C01  37369001.892   194590212.153        -326.280          42.750    37369019.186   150469567.451        -252.461          33.250  
R14  20801076.382   110881413.360       -2385.526          49.500  
C26  21602794.577   112491435.338        -420.381          44.250                                                                  
R19  22263542.389   119094969.470        3014.274          34.250  
C06  36059506.713   187771305.307       -1394.574          43.750    36059519.676   145196731.541       -1078.227          33.000  
C24  23134175.895   120465746.811        2070.347          45.000                                                                  
C09  36065014.291   187799987.422        -879.710          41.750    36065029.873   145218921.501        -680.112          36.750  
C03  36115692.297   188063890.878        -323.573          44.000    36115704.251   145422982.160        -250.107          33.250  
C35  22649701.654   117942931.160       -2361.876          45.500                                                                  
C07  36553998.159   190346265.000        -493.770          41.500    36554009.922   147187859.734        -382.183          33.000  
R18  19469054.151   103927176.575         555.492          47.750  
C10  37306120.982   194262763.033        -486.470          40.250    37306136.737   150216361.031        -375.958          34.500  
E07  27820255.751   146196426.406       -2227.073          37.250    27820283.839   109172759.758       -1663.232          29.750  
G14  22956179.717   120635591.223        2211.505          40.750  
J02  38938908.381   204625352.475         591.080          44.000  
G07  20342150.463   106898724.748       -1148.705          44.750  
G08  23098631.819   121384089.836       -2648.827          44.250  
R16  22546175.462   120437605.982        3356.156          45.250  
E26  27980093.812                        2652.509          25.500                                                                  
J03  37975616.517   199563234.434       -1113.656          43.000  
J04  36440723.042   191497301.871        -460.244          35.750  
C12  22879841.944   119141372.858        1017.916          45.000    22879858.949    92127763.368         787.169          37.250  
G02  20520569.718   107836341.282       -1628.351          45.750  
> 2025 01 06 09 06 09.0000000  0 43                     
G17  22662038.544   119089818.533         798.955          44.250  
C04  38538209.621   200678573.814        -312.701          42.500                                                                  
G21  21235791.967   111594833.298       -3085.644          43.250  
E27  24152616.841   126922877.594         437.520          44.000    24152638.275    94780174.869         326.728          43.000  
G03  23755586.927   124836457.778        2181.484          43.500  
R15  19516327.982   104289374.667        1093.398          46.750  
E29  27125569.951   142545833.218       -2001.656          40.000    27125605.769   106446691.676       -1494.850          42.250  
G19  25199462.182                        1770.417          33.000  
E34  27739540.060   145772375.085       -3041.890          32.500    27739561.891   108856012.699       -2271.622          29.000  
C16  36286753.386   188954636.095       -1385.928          45.500    36286771.796   146111779.080       -1071.640          33.000  
G30  21242102.730   111628039.392         947.046          46.500  
R24  24147357.376                       -4331.831          21.000  
C38  39252741.663   204399328.428        1357.425          42.250                                                                  
R17  19955590.993   106786393.677       -2884.828          48.250  
J07  36429672.597   191439228.339        -351.632          38.500  
E13  23952025.976   125868790.992        1505.242          45.500    23952049.502    93993040.684        1124.142          44.250  
E30  25793827.909   135547444.524       -1198.861          44.500    25793856.753   101220581.866        -895.190          40.250  
E15  23921487.328   125708282.223       -1283.888          46.250    23921511.302    93873170.152        -958.676          46.500  
E21  26686977.996   140241075.672        1490.461          40.750    26687008.917   104725629.086        1113.117          40.000  
E19  27787587.765                        -931.607          29.000    27787629.563   109044610.288        -695.685          31.000  
C01  37369064.414   194590538.142        -325.907          43.000    37369081.659   150469819.530        -252.196          33.000  
R14  20801523.735   110883798.895       -2385.709          49.500  
C26  21602875.337   112491855.601        -420.458          44.500                                                                  
R19  22262978.663   119091955.318        3013.909          34.750  
C06  36059774.449   187772699.705       -1394.282          44.000    36059787.888   145197809.773       -1078.048          32.500  
C24  23133778.275   120463676.323        2070.588          44.750                                                                  
C09  36065183.224   187800866.949        -879.519          41.500    36065198.961   145219601.613        -680.070          36.750  
C03  36115754.354   188064214.158        -323.085          44.000    36115766.836   145423232.147        -249.738          33.500  
C35  22650155.184   117945292.842       -2361.684          45.250                                                                  
C07  36554093.098   190346758.578        -493.450          41.500    36554104.585   147188241.379        -381.379          33.000  
R18  19468950.171   103926621.130         555.223          47.750  
C10  37306214.257   194263249.127        -485.897          40.250    37306230.129   150216736.906        -375.634          34.750  
E07  27820679.212   146198653.098       -2226.579          37.750    27820707.596   109174422.552       -1663.159          30.500  
G14  22955758.867   120633379.420        2211.994          40.500  
J02  38938795.897   204624761.128         591.625          43.750  
G07  20342369.072   106899873.513       -1149.036          44.750  
G08  23099135.765   121386738.210       -2648.183          44.250  
R16  22545547.036   120434249.507        3356.563          45.000  
E26  27979589.342                        2651.707          25.250                                                                  
J03  37975828.316   199564347.792       -1113.251          43.250  
J04  36440810.475   191497761.972        -459.981          35.250  
C12  22879646.430   119140354.786        1018.011          44.500    22879663.459    92126976.150         787.218          37.500  
G02  20520879.610   107837969.612       -1628.500          46.000  
> 2025 01 06 09 06 10.0000000  0 43                     
G17  22661886.236   119089019.370         799.557          44.750  
C04  38538269.519   200678886.301        -311.957          42.500                                                                  
G21  21236379.089   111597918.804       -3085.143          43.000  
E27  24152533.493   126922439.726         438.329          44.000    24152554.976    94779847.879         327.455          43.250  
G03  23755171.819   124834275.851        2182.514          43.750  
R15  19516123.306   104288281.166        1093.776          46.500  
E29  27125950.943   142547834.749       -2001.253          40.250    27125986.552   106448186.318       -1494.098          42.000  
G19  25199124.700                        1770.912          32.250  
E34  27740118.990   145775416.230       -3040.537          32.750    27740140.808   108858283.704       -2270.487          29.000  
C16  36287019.416   188956021.815       -1385.286          45.500    36287037.524   146112850.604       -1071.165          32.500  
G30  21241922.529   111627092.258         947.314          46.500  
R24  24148167.169                       -4337.754          24.750  
C38  39252480.919   204397970.702        1358.285          42.250                                                                  
R17  19956130.159   106789278.378       -2884.388          48.250  
J07  36429739.664   191439579.765        -350.840          38.750  
E13  23951739.542   125867285.577        1505.790          45.250    23951763.062    93991916.528        1124.438          44.000  
E30  25794056.037   135548643.091       -1198.082          44.500    25794084.832   101221476.877        -894.684          40.250  
E15  23921731.646   125709565.894       -1283.364          46.000    23921755.558    93874128.739        -958.378          46.500  
E21  26686694.395   140239584.762        1491.488          40.750    26686725.248   104724515.742        1113.783          39.750  
E19  27787765.355                        -931.297          28.000    27787806.893   109045305.881        -695.092          31.500  
C01  37369126.825   194590863.627        -325.018          42.750    37369143.658   150470071.212        -251.335          33.500  
R14  20801971.249   110886184.526       -2385.402          49.250  
C26  21602956.056   112492275.821        -419.964          44.500                                                                  
R19  22262415.239   119088941.094        3014.450          35.250  
C06  36060042.095   187774093.742       -1393.601          43.750    36060055.164   145198887.729       -1077.849          32.750  
C24  23133380.728   120461605.547        2071.115          44.500                                                                  
C09  36065352.086   187801746.145        -878.742          41.500    36065367.867   145220281.465        -679.698          36.750  
C03  36115816.393   188064536.934        -322.236          44.000    36115829.099   145423481.744        -249.001          33.500  
C35  22650608.547   117947654.197       -2360.974          45.750                                                                  
C07  36554187.991   190347251.576        -492.415          41.500    36554199.191   147188622.592        -380.842          33.250  
R18  19468846.349   103926065.952         555.336          47.750  
C10  37306307.401   194263734.668        -484.863          40.250    37306323.946   150217112.375        -374.971          34.500  
E07  27821102.918   146200879.024       -2225.283          38.000    27821131.097   109176084.761       -1661.724          29.750  
G14  22955337.991   120631167.065        2212.798          40.500  
J02  38938683.343   204624169.206         592.532          43.750  
G07  20342587.658   106901022.407       -1148.645          44.750  
G08  23099639.701   121389386.028       -2647.376          44.250  
R16  22544918.776   120430892.476        3357.665          44.750  
E26  27979083.346                        2652.313          25.000                                                                  
J03  37976040.112   199565460.673       -1112.406          43.000  
J04  36440897.777   191498221.530        -459.305          35.750  
C12  22879450.868   119139336.605        1018.463          44.500    22879467.908    92126188.817         787.683          37.750  
G02  20521189.611   107839597.994       -1628.144          46.000  
> 2025 01 06 09 06 11.0000000  0 43                     
G17  22661734.067   119088219.077         800.916          44.250  
C04  38538329.291   200679197.419        -310.447          42.500                                                                  
G21  21236966.058   111601003.377       -3084.064          43.250  
E27  24152449.987   126922000.535         439.911          44.250    24152471.386    94779519.916         328.624          43.500  
G03  23754756.369   124832092.514        2184.133          43.500  
R15  19515918.452   104287186.841        1094.713          47.250  
E29  27126331.613   142549834.951       -1999.390          39.750    27126367.109   106449680.007       -1493.129          42.000  
G19  25198788.412                        1772.170          32.250  
E34  27740697.210   145778456.197       -3039.405          32.500    27740719.289   108860553.869       -2270.092          28.750  
C16  36287285.308   188957406.311       -1383.849          45.750    36287303.331   146113921.200       -1070.217          32.500  
G30  21241742.151   111626144.329         948.290          46.250  
R24  24148979.877                       -4338.962          22.500  
C38  39252219.797   204396611.554        1359.912          42.250                                                                  
R17  19956669.070   106792162.184       -2883.311          48.250  
J07  36429806.056   191439929.803        -349.150          39.000  
E13  23951452.917   125865779.165        1506.972          45.000    23951476.331    93990791.607        1125.334          43.750  
E30  25794283.836   135549840.441       -1196.752          44.750    25794312.820   101222371.007        -893.568          40.500  
E15  23921975.772   125710848.631       -1282.265          46.000    23921999.651    93875086.620        -957.458          46.500  
E21  26686410.255   140238092.357        1493.236          40.500    26686441.262   104723401.271        1114.950          40.000  
E19  27787942.981                        -930.139          28.500    27787983.866   109046000.610        -693.809          31.500  
C01  37369189.029   194591187.741        -323.319          42.750    37369206.162   150470321.831        -250.146          33.750  
R14  20802418.657   110888569.344       -2384.354          49.500  
C26  21603036.554   112492695.128        -418.701          44.250                                                                  
R19  22261851.351   119085925.963        3015.724          35.000  
C06  36060309.581   187775486.562       -1392.142          43.750    36060322.430   145199964.747       -1076.173          33.000  
C24  23132982.876   120459533.599        2072.617          45.000                                                                  
C09  36065520.765   187802624.160        -877.416          41.500    36065536.707   145220960.388        -678.339          37.000  
C03  36115878.267   188064858.340        -320.607          44.000    36115890.409   145423730.271        -247.976          33.000  
C35  22651061.856   117950014.343       -2359.564          45.500                                                                  
C07  36554282.371   190347743.139        -490.841          41.750    36554293.855   147189002.687        -379.283          33.250  
R18  19468742.225   103925510.135         556.170          47.750  
C10  37306400.138   194264218.761        -483.293          40.000    37306416.828   150217486.714        -373.878          34.750  
E07  27821526.377   146203103.363       -2223.320          37.750    27821554.508   109177745.787       -1660.517          28.750  
G14  22954916.738   120628953.284        2214.643          40.500  
J02  38938570.609   204623575.829         594.162          43.750  
G07  20342806.108   106902170.558       -1147.632          45.000  
G08  23100143.339   121392032.385       -2645.523          44.500  
R16  22544289.968   120427534.036        3359.057          44.500  
E26  27978577.449                        2653.718          25.250                                                                  
J03  37976251.590   199566572.205       -1110.782          43.250  
J04  36440984.839   191498679.648        -457.345          35.000  
C12  22879255.109   119138317.405        1019.745          44.500    22879271.892    92125400.721         788.424          37.500  
G02  20521499.347   107841225.568       -1627.072          45.750  
> 2025 01 06 09 06 12.0000000  0 42                     
G17  22661581.479   119087417.748         801.438          44.250  
C04  38538388.974   200679507.237        -309.486          42.500                                                                  
G21  21237552.912   111604087.085       -3083.658          43.000  
E27  24152366.200   126921560.146         440.476          44.250    24152387.645    94779191.067         328.972          43.250  
G03  23754340.753   124829907.832        2184.942          43.750  
R15  19515713.464   104286091.780        1094.973          47.500  
E29  27126712.249   142551833.994       -1998.866          39.750    27126747.404   106451172.791       -1492.657          42.250  
G19  25198451.300                        1773.585          32.250  
E34  27741275.714   145781495.005       -3038.674          33.250    27741297.012   108862823.121       -2269.805          28.750  
C16  36287551.023   188958789.690       -1383.316          45.500    36287569.435   146114990.891       -1069.404          32.250  
G30  21241561.631   111625195.701         948.556          46.250  
C38  39251958.572   204395251.093        1360.741          42.000                                                                  
R17  19957207.834   106795045.202       -2882.963          48.000  
J07  36429872.437   191440278.560        -348.465          38.750  
E13  23951166.092   125864271.838        1507.325          45.000    23951189.482    93989666.015        1125.642          43.750  
E30  25794511.513   135551036.679       -1196.114          44.500    25794540.430   101223264.315        -893.379          40.500  
E15  23922219.700   125712130.513       -1281.885          46.000    23922243.622    93876043.881        -957.289          46.500  
E21  26686126.078   140236598.604        1493.863          40.500    26686157.010   104722285.800        1115.671          40.000  
E19  27788120.330                        -928.947          29.500    27788160.739   109046694.647        -694.016          31.250  
C01  37369251.167   194591510.589        -322.697          43.000    37369268.492   150470571.470        -249.326          33.250  
R14  20802865.826   110890953.428       -2384.166          49.500  
C26  21603116.836   112493113.649        -418.567          44.250                                                                  
R19  22261287.959   119082909.954        3016.105          34.750  
C06  36060576.890   187776878.279       -1391.585          43.750    36060589.511   145201040.885       -1075.854          32.500  
C24  23132584.858   120457460.601        2073.137          45.000                                                                  
C09  36065689.224   187803501.082        -876.780          41.000    36065705.209   145221638.480        -677.828          36.750  
C03  36115939.653   188065178.470        -319.869          43.750    36115951.510   145423977.831        -247.466          33.000  
C35  22651514.847   117952373.386       -2358.927          45.500                                                                  
C07  36554376.530   190348233.395        -490.060          41.750    36554388.219   147189381.803        -379.033          33.500  
R18  19468637.892   103924953.770         556.199          48.000  
C10  37306492.676   194264701.541        -482.733          40.250    37306509.574   150217859.993        -372.973          34.500  
E07  27821949.416   146205326.179       -2222.396          37.500    27821977.164   109179405.712       -1659.460          28.250  
G14  22954495.172   120626738.185        2215.434          40.750  
J02  38938457.556   204622981.096         594.927          43.750  
G07  20343024.453   106903318.067       -1147.557          45.000  
G08  23100646.693   121394677.386       -2644.777          44.500  
R16  22543660.689   120424174.279        3359.946          44.750  
E26  27978072.196                        2655.778          24.000                                                                  
J03  37976463.005   199567682.483       -1110.075          43.250  
J04  36441071.842   191499136.468        -456.716          35.250  
C12  22879059.210   119137297.326        1020.079          44.500    22879076.178    92124611.916         789.004          37.500  
G02  20521808.906   107842852.423       -1626.913          45.750  
> 2025 01 06 09 06 13.0000000  0 42                     
G17  22661428.990   119086616.520         801.321          44.250  
C04  38538448.464   200679816.941        -309.557          42.500                                                                  
G21  21238139.554   111607171.095       -3083.970          43.000  
E27  24152282.329   126921119.703         440.596          44.000    24152303.775    94778862.163         329.018          43.250  
G03  23753924.887   124827722.980        2185.066          44.000  
R15  19515508.621   104284997.158        1094.563          47.500  
E29  27127092.613   142553832.971       -1998.773          39.750    27127127.717   106452665.544       -1492.557          42.250  
G19  25198114.006                        1773.522          33.000  
E34  27741854.173   145784533.842       -3038.805          32.750    27741875.148   108865092.320       -2269.281          28.750  
C16  36287816.698   188960173.106       -1383.322          45.750    36287835.383   146116060.653       -1069.583          32.500  
G30  21241381.165   111624247.546         948.019          46.250  
C38  39251697.225   204393890.438        1360.822          41.750                                                                  
R17  19957746.702   106797928.549       -2883.245          48.250  
J07  36429938.661   191440627.171        -348.444          38.750  
E13  23950879.289   125862764.762        1507.114          44.750    23950902.622    93988540.607        1125.405          44.000  
E30  25794739.193   135552232.962       -1196.200          44.500    25794768.031   101224157.627        -893.250          40.500  
E15  23922463.709   125713412.704       -1282.262          46.000    23922487.617    93877001.358        -957.507          46.500  
E21  26685841.717   140235104.605        1494.283          40.500    26685872.722   104721170.167        1115.841          40.250  
E19  27788296.951                        -929.426          30.000    27788337.588   109047388.821        -694.179          31.750  
C01  37369313.148   194591833.302        -322.648          43.000    37369330.491   150470820.991        -249.208          33.500  
R14  20803313.085   110893337.947       -2384.651          49.500  
C26  21603197.222   112493532.490        -418.927          44.250                                                                  
R19  22260723.981   119079894.301        3015.480          35.000  
C06  36060844.184   187778270.003       -1391.599          43.750    36060856.958   145202117.081       -1076.344          33.000  
C24  23132186.778   120455387.684        2072.997          44.750                                                                  
C09  36065857.574   187804378.076        -877.005          41.250    36065873.344   145222316.621        -678.252          36.750  
C03  36116001.094   188065498.487        -319.832          43.750    36116012.784   145424225.276        -247.479          32.750  
C35  22651968.055   117954732.472       -2359.062          45.500                                                                  
C07  36554470.606   190348723.449        -489.724          41.750    36554482.291   147189760.770        -379.048          33.250  
R18  19468533.717   103924398.028         555.581          48.000  
C10  37306585.278   194265184.121        -482.405          40.000    37306602.105   150218233.178        -373.152          34.500  
E07  27822372.267   146207548.669       -2222.247          37.250    27822400.092   109181065.317       -1659.057          29.000  
G14  22954073.479   120624522.912        2215.473          40.750  
J02  38938344.387   204622386.169         595.099          44.000  
G07  20343242.950   106904466.089       -1148.133          44.750  
G08  23101149.937   121397322.191       -2644.642          44.500  
R16  22543031.785   120420814.398        3360.017          44.750  
E26  27977566.751                        2655.367          25.500                                                                  
J03  37976674.401   199568792.675       -1110.061          43.250  
J04  36441158.437   191499593.107        -456.266          35.250  
C12  22878863.344   119136277.502        1019.751          44.250    22878880.599    92123823.344         788.598          37.750  
G02  20522118.526   107844479.722       -1627.399          45.750  
